#------------------------------------------------------------------------------
#
#   Created by  : WOW Log Export Utility
#   Created on  : 2012-02-24 13:45:42
#   Project     : NORNE
#
#------------------------------------------------------------------------------
~Version Information Block
 VERS.                 2.0: CWLS Log ASCII Standard - version 2
 WRAP.                  NO: One line per depth step
~Well Information Block
#MNEMONIC    .UNIT                            Information: Data type
#------------------------------------------------------------------------------
 STRT        .M                                  472.7500: START DEPTH
 STOP        .M                                 2800.7500: STOP DEPTH
 STEP        .M                                    0.1250: SAMPLE RATE
 NULL        .                                  -999.2500: NULL VALUE
 COMP        .                                    STATOIL: Company
 WELL        .                                  6608/10-4: Well
 UWI         .                               NO 6608/10-4: Unique Well ID
 FLD         .                                      NORNE: Field
 CNTY        .                                    UNKNOWN: County
 STAT        .                                    UNKNOWN: State
 CTRY        .                                     Norway: Country
 XCOORD      .                               462006.74350: Surface X
 YCOORD      .                              7324847.22971: Surface Y
 LAT         .                                   66.04035: Latitude
 LON         .                                    8.16159: Longitude
 ELEV        .M                                   23.0000: Surface Elev
 ELEV_TYPE   .                                         KB: Elev Type
~Curve Information Block
#MNEMONIC                   .UNIT                 API CODE      : DESCRIPTION
#------------------------------------------------------------------------------
 DEPTH                      .M                                  :
 CALI                       .inches               UNKNOWN       : Run 1, Ver 1
 GR                         .API                  UNKNOWN       : Run 1, Ver 1
 KLOGH                      .mD                   UNKNOWN       : Run 1, Ver 4
 PHIF                       .v/v decimal          UNKNOWN       : Run 1, Ver 3
 RHOB                       .g/cm3                UNKNOWN       : Run 1, Ver 1
 RT                         .ohm.m                UNKNOWN       : Run 1, Ver 1
 SW                         .v/v decimal          UNKNOWN       : Run 1, Ver 3
~A      DEPTH         CALI           GR        KLOGH         PHIF         RHOB           RT           SW
# ...
    2417.0000      13.6796      73.9311    -999.2500    -999.2500       2.3774       1.4717    -999.2500
    2417.1250      14.0330      72.0408    -999.2500    -999.2500       2.3748       1.4865    -999.2500
    2417.2500      14.4094      68.8948    -999.2500    -999.2500       2.3708       1.5260    -999.2500
    2417.3750      14.4083      66.0874    -999.2500    -999.2500       2.3694       1.5825    -999.2500
    2417.5000      14.3558      61.8609    -999.2500    -999.2500       2.3821       1.6514    -999.2500
    2417.6250      14.3409      59.9174    -999.2500    -999.2500       2.4118       1.7258    -999.2500
    2417.7500      13.4604      57.1118    -999.2500    -999.2500       2.4495       1.7500    -999.2500
    2417.8750      12.5241      54.8421    -999.2500    -999.2500       2.4809       1.7099    -999.2500
    2418.0000      12.4177      54.9906    -999.2500    -999.2500       2.4913       1.6339    -999.2500
    2418.1250      12.6438      56.5586    -999.2500    -999.2500       2.4679       1.6216    -999.2500
    2418.2500      13.0231      59.4541    -999.2500    -999.2500       2.4235       1.6139    -999.2500
    2418.3750      13.5624      63.2850    -999.2500    -999.2500       2.3830       1.6265    -999.2500
    2418.5000      13.9794      64.2125    -999.2500    -999.2500       2.3532       1.6699    -999.2500
    2418.6250      14.1428      62.2440    -999.2500    -999.2500       2.3358       1.7311    -999.2500
    2418.7500      14.0820      60.9191    -999.2500    -999.2500       2.3283       1.7741    -999.2500
    2418.8750      13.8260      64.3513    -999.2500    -999.2500       2.3256       1.7240    -999.2500
    2419.0000      13.5347      67.8435    -999.2500    -999.2500       2.3273       1.6839    -999.2500
    2419.1250      13.2409      70.0739    -999.2500    -999.2500       2.3351       1.6537    -999.2500
    2419.2500      13.2089      69.9686    -999.2500    -999.2500       2.3492       1.6235    -999.2500
    2419.3750      13.4385      67.8025    -999.2500    -999.2500       2.3679       1.5889    -999.2500
    2419.5000      13.2916      66.3535    -999.2500    -999.2500       2.3877       1.5634    -999.2500
    2419.6250      12.8698      68.3730    -999.2500    -999.2500       2.3979       1.5896    -999.2500
    2419.7500      13.0635      66.8387    -999.2500    -999.2500       2.3972       1.6573    -999.2500
    2419.8750      13.0691      65.9053    -999.2500    -999.2500       2.3889       1.7042    -999.2500
    2420.0000      12.9092      65.4515    -999.2500    -999.2500       2.3770       1.7194    -999.2500
    2420.1250      13.0737      63.4295    -999.2500    -999.2500       2.3654       1.7292    -999.2500
    2420.2500      13.3264      65.2264    -999.2500    -999.2500       2.3569       1.7596    -999.2500
    2420.3750      13.1884      69.5793    -999.2500    -999.2500       2.3508       1.7244    -999.2500
    2420.5000      13.0635      72.0895    -999.2500    -999.2500       2.3448       1.6657    -999.2500
    2420.6250      13.0977      72.6858    -999.2500    -999.2500       2.3383       1.6312    -999.2500
    2420.7500      13.2653      71.8911    -999.2500    -999.2500       2.3322       1.6380    -999.2500
    2420.8750      13.3530      69.9070    -999.2500    -999.2500       2.3294       1.6510    -999.2500
    2421.0000      13.7673      69.0114    -999.2500    -999.2500       2.3359       1.6701    -999.2500
    2421.1250      13.8835      70.5464    -999.2500    -999.2500       2.3506       1.7207    -999.2500
    2421.2500      13.5667      72.7955    -999.2500    -999.2500       2.3708       1.7722    -999.2500
    2421.3750      13.1855      74.7576    -999.2500    -999.2500       2.3923       1.7893    -999.2500
    2421.5000      13.1541      75.9348    -999.2500    -999.2500       2.4103       1.7534    -999.2500
    2421.6250      12.9818      76.1136    -999.2500    -999.2500       2.4193       1.7190    -999.2500
    2421.7500      13.2115      75.4888    -999.2500    -999.2500       2.4181       1.7175    -999.2500
    2421.8750      13.4602      75.5340    -999.2500    -999.2500       2.4134       1.7163    -999.2500
    2422.0000      13.4458      74.2430    -999.2500    -999.2500       2.4090       1.7111    -999.2500
    2422.1250      13.1793      71.5134    -999.2500    -999.2500       2.4069       1.7084    -999.2500
    2422.2500      13.0042      70.0219    -999.2500    -999.2500       2.4074       1.7207    -999.2500
    2422.3750      13.1166      70.0465    -999.2500    -999.2500       2.4070       1.7133    -999.2500
    2422.5000      13.1847      71.6828    -999.2500    -999.2500       2.4023       1.6691    -999.2500
    2422.6250      13.4885      72.5252    -999.2500    -999.2500       2.3935       1.6465    -999.2500
    2422.7500      13.6319      71.3088    -999.2500    -999.2500       2.3830       1.6428    -999.2500
    2422.8750      13.3370      68.4252    -999.2500    -999.2500       2.3742       1.6379    -999.2500
    2423.0000      13.5307      67.8337    -999.2500    -999.2500       2.3714       1.6370    -999.2500
    2423.1250      13.2686      69.0545    -999.2500    -999.2500       2.3752       1.6694    -999.2500
    2423.2500      13.1975      69.6434    -999.2500    -999.2500       2.3819       1.6719    -999.2500
    2423.3750      13.4396      68.4664    -999.2500    -999.2500       2.3887       1.6711    -999.2500
    2423.5000      13.5813      66.4911    -999.2500    -999.2500       2.3929       1.6805    -999.2500
    2423.6250      12.9322      66.5275    -999.2500    -999.2500       2.3920       1.6917    -999.2500
    2423.7500      12.8428      71.2371    -999.2500    -999.2500       2.3846       1.6868    -999.2500
    2423.8750      12.9248      70.3121    -999.2500    -999.2500       2.3738       1.6957    -999.2500
    2424.0000      12.9249      69.3648    -999.2500    -999.2500       2.3634       1.7236    -999.2500
    2424.1250      12.9250      69.7550    -999.2500    -999.2500       2.3569       1.7487    -999.2500
    2424.2500      12.9821      70.8265    -999.2500    -999.2500       2.3570       1.7586    -999.2500
    2424.3750      12.8598      70.2587    -999.2500    -999.2500       2.3649       1.7832    -999.2500
    2424.5000      12.8934      71.3822    -999.2500    -999.2500       2.3782       1.7943    -999.2500
    2424.6250      12.8514      72.9428    -999.2500    -999.2500       2.3903       1.7479    -999.2500
    2424.7500      12.8251      74.1376    -999.2500    -999.2500       2.3972       1.7131    -999.2500
    2424.8750      12.8460      75.2232    -999.2500    -999.2500       2.3974       1.7111    -999.2500
    2425.0000      12.8805      77.1091    -999.2500    -999.2500       2.3917       1.7202    -999.2500
    2425.1250      12.8419      79.6486    -999.2500    -999.2500       2.3836       1.7218    -999.2500
    2425.2500      12.8692      75.6239    -999.2500    -999.2500       2.3777       1.7463    -999.2500
    2425.3750      12.9345      75.5779    -999.2500    -999.2500       2.3752       1.7597    -999.2500
    2425.5000      12.9252      78.7295    -999.2500    -999.2500       2.3760       1.7726    -999.2500
    2425.6250      12.8482      81.5635    -999.2500    -999.2500       2.3800       1.7909    -999.2500
    2425.7500      12.9520      80.5590    -999.2500    -999.2500       2.3868       1.7950    -999.2500
    2425.8750      12.8940      78.7318    -999.2500    -999.2500       2.3954       1.7819    -999.2500
    2426.0000      12.9778      80.1908    -999.2500    -999.2500       2.4044       1.7758    -999.2500
    2426.1250      13.0006      80.8349    -999.2500    -999.2500       2.4124       1.7758    -999.2500
    2426.2500      12.9842      80.0441    -999.2500    -999.2500       2.4183       1.7813    -999.2500
    2426.3750      13.0600      78.7095    -999.2500    -999.2500       2.4215       1.7907    -999.2500
    2426.5000      13.2110      73.7198    -999.2500    -999.2500       2.4211       1.7964    -999.2500
