#------------------------------------------------------------------------------
#
#   Created by  : WOW Log Export Utility
#   Created on  : 2012-02-24 13:45:43
#   Project     : NORNE
#
#------------------------------------------------------------------------------
~Version Information Block
 VERS.                 2.0: CWLS Log ASCII Standard - version 2
 WRAP.                  NO: One line per depth step
~Well Information Block
#MNEMONIC    .UNIT                            Information: Data type
#------------------------------------------------------------------------------
 STRT        .M                                 2460.3457: START DEPTH
 STOP        .M                                 2795.6255: STOP DEPTH
 STEP        .M                                    0.1524: SAMPLE RATE
 NULL        .                                  -999.2500: NULL VALUE
 COMP        .                                    STATOIL: Company
 WELL        .                                  6608/10-4: Well
 UWI         .                               NO 6608/10-4: Unique Well ID
 FLD         .                                      NORNE: Field
 CNTY        .                                    UNKNOWN: County
 STAT        .                                    UNKNOWN: State
 CTRY        .                                     Norway: Country
 XCOORD      .                               462006.74350: Surface X
 YCOORD      .                              7324847.22971: Surface Y
 LAT         .                                   66.04035: Latitude
 LON         .                                    8.16159: Longitude
 ELEV        .M                                   23.0000: Surface Elev
 ELEV_TYPE   .                                         KB: Elev Type
~Curve Information Block
#MNEMONIC                   .UNIT                 API CODE      : DESCRIPTION
#------------------------------------------------------------------------------
 DEPTH                      .M                                  :
 DTS                        .us/ft                UNKNOWN       : Run 1, Ver 1
 NPHI                       .v/v decimal          UNKNOWN       : Run 1, Ver 2
~A      DEPTH          DTS         NPHI
# ...
    2643.2257     172.2383       0.2196
    2643.3781     172.9441       0.2131
    2643.5305     173.5472       0.2147
    2643.6829     173.5810       0.2178
    2643.8353     172.3416       0.2175
    2643.9877     170.9348       0.2158
    2644.1401     170.2839       0.2149
    2644.2925     170.2151       0.2127
    2644.4449     169.8135       0.2069
    2644.5973     169.1788       0.1998
    2644.7497     168.9253       0.1978
    2644.9021     169.1906       0.2043
    2645.0545     169.1461       0.2146
    2645.2069     168.4329       0.2221
    2645.3593     168.1054       0.2257
    2645.5117     167.7894       0.2260
    2645.6641     167.1628       0.2251
    2645.8165     165.4013       0.2238
    2645.9689     164.4203       0.2209
    2646.1213     163.8418       0.2157
    2646.2737     163.5614       0.2078
    2646.4261     162.1588       0.1960
    2646.5785     157.6719       0.1815
    2646.7309     149.4518       0.1723
    2646.8833     142.2534       0.1761
    2647.0357     136.7742       0.1934
    2647.1881     134.6208       0.2126
    2647.3405     127.4764       0.2120
    2647.4929     119.1000       0.1809
    2647.6453     113.0010       0.1312
    2647.7977     106.9060       0.0882
    2647.9501     100.2557       0.0707
    2648.1025      96.3859       0.0753
    2648.2549     100.1550       0.0846
    2648.4073     105.8775       0.0861
    2648.5597     110.8265       0.0839
    2648.7121     111.0996       0.0869
    2648.8645     110.6526       0.0962
    2649.0169     108.1273       0.1047
    2649.1693     104.5946       0.1059
    2649.3217     104.0487       0.1022
    2649.4741     103.4778       0.0989
    2649.6265     103.2503       0.0969
    2649.7789     100.1491       0.0930
    2649.9313      97.9667       0.0853
    2650.0837      95.3675       0.0758
    2650.2361      95.5575       0.0671
    2650.3885      97.9237       0.0613
    2650.5409     102.3492       0.0608
    2650.6933     106.4366       0.0711
    2650.8457     111.8799       0.0940
    2650.9981     119.8755       0.1260
    2651.1505     127.1015       0.1540
    2651.3029     134.0988       0.1672
    2651.4553     140.2210       0.1723
    2651.6077     144.5943       0.1807
    2651.7601     146.1679       0.1921
    2651.9125     148.1524       0.2028
    2652.0649     151.8981       0.2161
    2652.2173     158.7450       0.2379
    2652.3697     161.8569       0.2667
    2652.5221     160.7295       0.2869
    2652.6745     157.5672       0.2864
    2652.8269     155.9491       0.2750
    2652.9793     150.1866       0.2688
    2653.1317     140.8463       0.2700
    2653.2841     127.9749       0.2700
    2653.4365     121.4276       0.2660
    2653.5889     119.5175       0.2640
    2653.7413     121.8809       0.2695
    2653.8937     123.3211       0.2740
    2654.0461     121.3476       0.2630
    2654.1985     117.1525       0.2323
    2654.3509     115.2954       0.1893
    2654.5033     120.1546       0.1520
    2654.6557     134.8547       0.1307
    2654.8081     147.9229       0.1229
    2654.9605     154.5184       0.1207
    2655.1129     153.8539       0.1223
    2655.2653     153.7302       0.1317
    2655.4177     150.5761       0.1533
    2655.5701     147.4831       0.1817
    2655.7225     140.0268       0.2051
    2655.8749     136.8931       0.2195
    2656.0273     135.6926       0.2250
    2656.1797     134.9430       0.2183
    2656.3321     132.2355       0.1947
    2656.4845     128.8025       0.1614
    2656.6369     127.2091       0.1350
    2656.7893     127.1491       0.1270
    2656.9417     131.4004       0.1353
    2657.0941     140.0826       0.1491
    2657.2465     150.2976       0.1642
    2657.3989     157.6753       0.1778
    2657.5513     162.6555       0.1854
    2657.7037     166.0815       0.1864
    2657.8561     165.8932       0.1853
    2658.0085     163.7089       0.1863
    2658.1609     162.2859       0.1894
    2658.3133     162.8842       0.1945
    2658.4657     164.7016       0.2015
    2658.6181     166.0073       0.2085
    2658.7705     166.7161       0.2134
    2658.9229     167.1474       0.2145
    2659.0753     167.7912       0.2131
    2659.2277     168.6828       0.2162
    2659.3801     169.4450       0.2241
    2659.5325     169.8555       0.2284
    2659.6849     168.8683       0.2281
    2659.8373     169.8887       0.2289
    2659.9897     171.8664       0.2333
    2660.1421     174.9400       0.2375
    2660.2945     175.2366       0.2353
    2660.4469     174.8775       0.2292
    2660.5993     173.4249       0.2301
    2660.7517     171.4796       0.2385
    2660.9041     168.0725       0.2408
    2661.0565     165.5873       0.2311
    2661.2089     165.4881       0.2193
    2661.3613     166.9441       0.2164
    2661.5137     168.5549       0.2213
    2661.6661     170.0920       0.2294
    2661.8185     171.7139       0.2407
    2661.9709     173.0223       0.2580
    2662.1233     173.7411       0.2732
    2662.2757     174.6149       0.2718
    2662.4281     175.4789       0.2539
    2662.5805     176.4627       0.2320
    2662.7329     177.1231       0.2197
    2662.8853     177.6713       0.2191
    2663.0377     178.3361       0.2227
    2663.1901     179.5254       0.2235
    2663.3425     180.8732       0.2204
    2663.4949     182.3431       0.2158
    2663.6473     183.4805       0.2113
    2663.7997     183.9873       0.2101
    2663.9521     184.0130       0.2151
    2664.1045     183.9880       0.2229
    2664.2569     183.9101       0.2255
    2664.4093     183.7013       0.2215
    2664.5617     183.1867       0.2170
    2664.7141     182.7975       0.2220
    2664.8665     182.5543       0.2399
    2665.0189     182.8476       0.2620
    2665.1713     183.7109       0.2746
    2665.3237     184.1275       0.2744
    2665.4761     184.0301       0.2693
    2665.6285     183.5616       0.2658
    2665.7809     182.8170       0.2660
    2665.9333     181.3579       0.2650
    2666.0857     178.8962       0.2557
    2666.2381     175.7292       0.2405
    2666.3905     172.2226       0.2272
    2666.5429     169.4826       0.2222
    2666.6953     167.9270       0.2273
    2666.8477     168.0768       0.2374
    2667.0001     169.3843       0.2499
    2667.1525     170.0022       0.2658
    2667.3049     169.4587       0.2828
    2667.4573     167.5166       0.2922
    2667.6097     166.1828       0.2857
    2667.7621     165.0305       0.2664
    2667.9145     165.8359       0.2489
    2668.0669     169.8637       0.2441
    2668.2193     175.8971       0.2476
    2668.3717     180.7546       0.2482
    2668.5241     181.5140       0.2402
    2668.6765     179.6714       0.2324
    2668.8289     177.6147       0.2398
    2668.9813     177.3743       0.2647
    2669.1337     175.6962       0.3097
    2669.2861     173.9673       0.3759
    2669.4385     173.1511       0.4397
    2669.5909     174.3594       0.4582
    2669.7433     175.6883       0.4108
    2669.8957     173.6417       0.3281
    2670.0481     171.1403       0.2608
    2670.2005     171.5754       0.2402
    2670.3529     175.7585       0.2543
    2670.5053     182.3643       0.2809
    2670.6577     186.3807       0.3040
    2670.8101     187.6483       0.3146
    2670.9625     186.7482       0.3170
    2671.1149     182.0871       0.3223
    2671.2673     177.0965       0.3291
    2671.4197     172.2514       0.3260
    2671.5721     169.8062       0.3086
    2671.7245     168.9591       0.2894
    2671.8769     169.1008       0.2831
    2672.0293     169.5514       0.2853
    2672.1817     171.5434       0.2806
    2672.3341     172.4908       0.2720
    2672.4865     172.1125       0.2708
    2672.6389     172.1320       0.2830
    2672.7913     172.9899       0.3074
    2672.9437     174.2523       0.3318
    2673.0961     173.2543       0.3472
    2673.2485     170.3089       0.3518
    2673.4009     166.3053       0.3530
    2673.5533     163.2210       0.3539
