#------------------------------------------------------------------------------
#
#   Created by  : WOW Log Export Utility
#   Created on  : 2012-02-24 13:45:42
#   Project     : NORNE
#
#------------------------------------------------------------------------------
~Version Information Block
 VERS.                 2.0: CWLS Log ASCII Standard - version 2
 WRAP.                  NO: One line per depth step
~Well Information Block
#MNEMONIC    .UNIT                            Information: Data type
#------------------------------------------------------------------------------
 STRT        .M                                  472.7500: START DEPTH
 STOP        .M                                 2800.7500: STOP DEPTH
 STEP        .M                                    0.1250: SAMPLE RATE
 NULL        .                                  -999.2500: NULL VALUE
 COMP        .                                    STATOIL: Company
 WELL        .                                  6608/10-4: Well
 UWI         .                               NO 6608/10-4: Unique Well ID
 FLD         .                                      NORNE: Field
 CNTY        .                                    UNKNOWN: County
 STAT        .                                    UNKNOWN: State
 CTRY        .                                     Norway: Country
 XCOORD      .                               462006.74350: Surface X
 YCOORD      .                              7324847.22971: Surface Y
 LAT         .                                   66.04035: Latitude
 LON         .                                    8.16159: Longitude
 ELEV        .M                                   23.0000: Surface Elev
 ELEV_TYPE   .                                         KB: Elev Type
~Curve Information Block
#MNEMONIC                   .UNIT                 API CODE      : DESCRIPTION
#------------------------------------------------------------------------------
 DEPTH                      .M                                  :
 CALI                       .inches               UNKNOWN       : Run 1, Ver 1
 GR                         .API                  UNKNOWN       : Run 1, Ver 1
 KLOGH                      .mD                   UNKNOWN       : Run 1, Ver 4
 PHIF                       .v/v decimal          UNKNOWN       : Run 1, Ver 3
 RHOB                       .g/cm3                UNKNOWN       : Run 1, Ver 1
 RT                         .ohm.m                UNKNOWN       : Run 1, Ver 1
 SW                         .v/v decimal          UNKNOWN       : Run 1, Ver 3
~A      DEPTH         CALI           GR        KLOGH         PHIF         RHOB           RT           SW
# ...
    2147.5000      13.6591      49.8935    -999.2500    -999.2500       2.2878       0.9872    -999.2500
    2147.6250      13.4785      51.7377    -999.2500    -999.2500       2.2924       0.9839    -999.2500
    2147.7500      13.5220      53.0104    -999.2500    -999.2500       2.2973       0.9823    -999.2500
    2147.8750      13.5220      53.6841    -999.2500    -999.2500       2.2995       0.9700    -999.2500
    2148.0000      13.3368      54.2119    -999.2500    -999.2500       2.2986       0.9616    -999.2500
    2148.1250      13.1727      53.6022    -999.2500    -999.2500       2.2951       0.9553    -999.2500
    2148.2500      13.2533      51.6035    -999.2500    -999.2500       2.2898       0.9456    -999.2500
    2148.3750      13.4133      52.1499    -999.2500    -999.2500       2.2839       0.9365    -999.2500
    2148.5000      13.3421      52.4762    -999.2500    -999.2500       2.2776       0.9275    -999.2500
    2148.6250      13.2364      54.3769    -999.2500    -999.2500       2.2708       0.9167    -999.2500
    2148.7500      13.2199      54.9032    -999.2500    -999.2500       2.2642       0.9085    -999.2500
    2148.8750      13.3183      53.6753    -999.2500    -999.2500       2.2589       0.9029    -999.2500
    2149.0000      13.4590      53.1436    -999.2500    -999.2500       2.2561       0.8956    -999.2500
    2149.1250      13.5074      53.7926    -999.2500    -999.2500       2.2572       0.8899    -999.2500
    2149.2500      13.3239      56.3664    -999.2500    -999.2500       2.2613       0.8945    -999.2500
    2149.3750      13.2385      56.2160    -999.2500    -999.2500       2.2663       0.8980    -999.2500
    2149.5000      13.2108      54.2288    -999.2500    -999.2500       2.2713       0.9003    -999.2500
    2149.6250      13.1753      52.8488    -999.2500    -999.2500       2.2755       0.9050    -999.2500
    2149.7500      13.2795      53.9582    -999.2500    -999.2500       2.2791       0.9156    -999.2500
    2149.8750      13.2901      54.1415    -999.2500    -999.2500       2.2834       0.9247    -999.2500
    2150.0000      13.2730      53.2911    -999.2500    -999.2500       2.2882       0.9301    -999.2500
    2150.1250      13.2264      52.4922    -999.2500    -999.2500       2.2921       0.9359    -999.2500
    2150.2500      13.1997      52.3331    -999.2500    -999.2500       2.2937       0.9435    -999.2500
    2150.3750      13.2607      52.9914    -999.2500    -999.2500       2.2923       0.9511    -999.2500
    2150.5000      13.3247      55.3892    -999.2500    -999.2500       2.2884       0.9519    -999.2500
    2150.6250      13.4459      52.0874    -999.2500    -999.2500       2.2861       0.9520    -999.2500
    2150.7500      13.5386      51.2371    -999.2500    -999.2500       2.2870       0.9509    -999.2500
    2150.8750      13.5697      52.0090    -999.2500    -999.2500       2.2905       0.9496    -999.2500
    2151.0000      13.5208      51.9958    -999.2500    -999.2500       2.2952       0.9497    -999.2500
    2151.1250      13.3780      49.8310    -999.2500    -999.2500       2.2984       0.9530    -999.2500
    2151.2500      13.4392      54.1278    -999.2500    -999.2500       2.2971       0.9530    -999.2500
    2151.3750      13.6162      53.9533    -999.2500    -999.2500       2.2937       0.9467    -999.2500
    2151.5000      13.6331      51.3060    -999.2500    -999.2500       2.2899       0.9394    -999.2500
    2151.6250      13.4963      50.0759    -999.2500    -999.2500       2.2869       0.9331    -999.2500
    2151.7500      13.3777      53.1453    -999.2500    -999.2500       2.2853       0.9270    -999.2500
    2151.8750      13.3671      53.6851    -999.2500    -999.2500       2.2849       0.9188    -999.2500
    2152.0000      13.4987      52.7414    -999.2500    -999.2500       2.2851       0.9173    -999.2500
    2152.1250      13.6011      51.8031    -999.2500    -999.2500       2.2860       0.9192    -999.2500
    2152.2500      13.5836      51.4314    -999.2500    -999.2500       2.2881       0.9184    -999.2500
    2152.3750      13.4639      51.7788    -999.2500    -999.2500       2.2913       0.9118    -999.2500
    2152.5000      13.3905      52.6164    -999.2500    -999.2500       2.2951       0.9029    -999.2500
    2152.6250      13.4126      54.1738    -999.2500    -999.2500       2.2977       0.8988    -999.2500
    2152.7500      13.3710      53.6509    -999.2500    -999.2500       2.2973       0.8960    -999.2500
    2152.8750      13.3651      53.2642    -999.2500    -999.2500       2.2938       0.8964    -999.2500
    2153.0000      13.4178      52.5357    -999.2500    -999.2500       2.2883       0.8995    -999.2500
    2153.1250      13.4907      50.6986    -999.2500    -999.2500       2.2825       0.9036    -999.2500
    2153.2500      13.4612      50.7166    -999.2500    -999.2500       2.2792       0.9077    -999.2500
    2153.3750      13.4620      49.7902    -999.2500    -999.2500       2.2803       0.9201    -999.2500
    2153.5000      13.5683      49.0757    -999.2500    -999.2500       2.2849       0.9269    -999.2500
    2153.6250      13.5716      49.2371    -999.2500    -999.2500       2.2907       0.9314    -999.2500
    2153.7500      13.4195      49.7994    -999.2500    -999.2500       2.2958       0.9363    -999.2500
    2153.8750      13.2718      49.3208    -999.2500    -999.2500       2.2981       0.9411    -999.2500
    2154.0000      13.2668      49.7212    -999.2500    -999.2500       2.2965       0.9427    -999.2500
    2154.1250      13.3163      49.9837    -999.2500    -999.2500       2.2932       0.9457    -999.2500
    2154.2500      13.3020      47.8800    -999.2500    -999.2500       2.2897       0.9515    -999.2500
    2154.3750      13.2784      45.4920    -999.2500    -999.2500       2.2868       0.9582    -999.2500
    2154.5000      13.3207      45.4809    -999.2500    -999.2500       2.2848       0.9634    -999.2500
    2154.6250      13.3888      47.8284    -999.2500    -999.2500       2.2841       0.9659    -999.2500
    2154.7500      13.4966      48.1030    -999.2500    -999.2500       2.2849       0.9644    -999.2500
    2154.8750      13.6155      48.4587    -999.2500    -999.2500       2.2866       0.9592    -999.2500
    2155.0000      13.5654      49.1063    -999.2500    -999.2500       2.2886       0.9530    -999.2500
    2155.1250      13.3961      49.8181    -999.2500    -999.2500       2.2898       0.9471    -999.2500
    2155.2500      13.3464      50.1119    -999.2500    -999.2500       2.2893       0.9408    -999.2500
    2155.3750      13.4692      49.5851    -999.2500    -999.2500       2.2866       0.9384    -999.2500
    2155.5000      13.4884      47.8033    -999.2500    -999.2500       2.2838       0.9373    -999.2500
    2155.6250      13.5141      48.0779    -999.2500    -999.2500       2.2820       0.9318    -999.2500
    2155.7500      13.5562      48.8527    -999.2500    -999.2500       2.2809       0.9198    -999.2500
    2155.8750      13.5633      48.6328    -999.2500    -999.2500       2.2799       0.9034    -999.2500
    2156.0000      13.4139      48.8650    -999.2500    -999.2500       2.2774       0.8903    -999.2500
    2156.1250      13.3500      49.7909    -999.2500    -999.2500       2.2730       0.8723    -999.2500
    2156.2500      13.3880      50.0525    -999.2500    -999.2500       2.2693       0.8543    -999.2500
    2156.3750      13.3672      49.6842    -999.2500    -999.2500       2.2680       0.8407    -999.2500
    2156.5000      13.2872      49.2741    -999.2500    -999.2500       2.2695       0.8303    -999.2500
    2156.6250      13.2378      49.5772    -999.2500    -999.2500       2.2736       0.8188    -999.2500
    2156.7500      13.1297      50.4157    -999.2500    -999.2500       2.2781       0.8064    -999.2500
    2156.8750      13.2510      47.4463    -999.2500    -999.2500       2.2808       0.7999    -999.2500
    2157.0000      13.4241      46.4833    -999.2500    -999.2500       2.2818       0.7980    -999.2500
