#------------------------------------------------------------------------------
#
#   Created by  : WOW Log Export Utility
#   Created on  : 2012-02-24 13:45:43
#   Project     : NORNE
#
#------------------------------------------------------------------------------
~Version Information Block
 VERS.                 2.0: CWLS Log ASCII Standard - version 2
 WRAP.                  NO: One line per depth step
~Well Information Block
#MNEMONIC    .UNIT                            Information: Data type
#------------------------------------------------------------------------------
 STRT        .M                                 2460.3457: START DEPTH
 STOP        .M                                 2795.6255: STOP DEPTH
 STEP        .M                                    0.1524: SAMPLE RATE
 NULL        .                                  -999.2500: NULL VALUE
 COMP        .                                    STATOIL: Company
 WELL        .                                  6608/10-4: Well
 UWI         .                               NO 6608/10-4: Unique Well ID
 FLD         .                                      NORNE: Field
 CNTY        .                                    UNKNOWN: County
 STAT        .                                    UNKNOWN: State
 CTRY        .                                     Norway: Country
 XCOORD      .                               462006.74350: Surface X
 YCOORD      .                              7324847.22971: Surface Y
 LAT         .                                   66.04035: Latitude
 LON         .                                    8.16159: Longitude
 ELEV        .M                                   23.0000: Surface Elev
 ELEV_TYPE   .                                         KB: Elev Type
~Curve Information Block
#MNEMONIC                   .UNIT                 API CODE      : DESCRIPTION
#------------------------------------------------------------------------------
 DEPTH                      .M                                  :
 DTS                        .us/ft                UNKNOWN       : Run 1, Ver 1
 NPHI                       .v/v decimal          UNKNOWN       : Run 1, Ver 2
~A      DEPTH          DTS         NPHI
# ...
    2673.7057     161.2805       0.3483
    2673.8581     159.9168       0.3251
    2674.0105     159.6733       0.2864
    2674.1629     160.9014       0.2510
    2674.3153     163.7662       0.2349
    2674.4677     166.4455       0.2413
    2674.6201     167.9131       0.2540
    2674.7725     168.7779       0.2561
    2674.9249     169.7287       0.2469
    2675.0773     171.5506       0.2348
    2675.2297     173.8520       0.2254
    2675.3821     176.3058       0.2209
    2675.5345     178.0008       0.2211
    2675.6869     178.9907       0.2230
    2675.8393     179.2237       0.2261
    2675.9917     178.5818       0.2313
    2676.1441     176.9232       0.2391
    2676.2965     174.3943       0.2501
    2676.4489     171.9532       0.2632
    2676.6013     169.7399       0.2744
    2676.7537     167.5868       0.2796
    2676.9061     166.2558       0.2757
    2677.0585     166.3419       0.2643
    2677.2109     168.3094       0.2523
    2677.3633     171.6037       0.2458
    2677.5157     174.7399       0.2442
    2677.6681     176.9721       0.2434
    2677.8205     177.8818       0.2418
    2677.9729     176.4309       0.2412
    2678.1253     171.7432       0.2411
    2678.2777     165.5631       0.2392
    2678.4301     160.0642       0.2349
    2678.5825     156.0333       0.2312
    2678.7349     153.5692       0.2298
    2678.8873     152.1628       0.2258
    2679.0397     151.7935       0.2179
    2679.1921     151.9238       0.2110
    2679.3445     152.2935       0.2119
    2679.4969     152.0224       0.2219
    2679.6493     150.9085       0.2333
    2679.8017     150.8710       0.2355
    2679.9541     153.2219       0.2346
    2680.1065     157.6492       0.2476
    2680.2589     162.1082       0.2769
    2680.4113     164.2292       0.3032
    2680.5637     164.5476       0.3122
    2680.7161     164.6609       0.3086
    2680.8685     166.0732       0.3058
    2681.0209     167.2405       0.3041
    2681.1733     166.5859       0.2907
    2681.3257     164.1842       0.2641
    2681.4781     161.6853       0.2397
    2681.6305     160.1730       0.2283
    2681.7829     159.6067       0.2306
    2681.9353     159.6619       0.2402
    2682.0877     159.7389       0.2470
    2682.2401     159.7520       0.2465
    2682.3925     159.6581       0.2434
    2682.5449     159.6720       0.2447
    2682.6973     159.8448       0.2546
    2682.8497     160.0917       0.2683
    2683.0021     160.5394       0.2804
    2683.1545     160.8196       0.2892
    2683.3069     160.8310       0.2920
    2683.4593     160.6812       0.2891
    2683.6117     160.5092       0.2828
    2683.7641     160.4671       0.2811
    2683.9165     160.3991       0.2865
    2684.0689     160.5338       0.2926
    2684.2213     160.9175       0.2940
    2684.3737     162.5868       0.2878
    2684.5261     164.8281       0.2783
    2684.6785     165.9395       0.2663
    2684.8309     166.2596       0.2548
    2684.9833     167.8469       0.2463
    2685.1357     171.7589       0.2386
    2685.2881     175.9685       0.2314
    2685.4405     177.9744       0.2250
    2685.5929     177.5036       0.2236
    2685.7453     175.3059       0.2269
    2685.8977     171.0226       0.2326
    2686.0501     165.0848       0.2389
    2686.2025     158.4207       0.2456
    2686.3549     153.1010       0.2506
    2686.5073     150.6133       0.2505
    2686.6597     150.0997       0.2507
    2686.8121     150.1659       0.2548
    2686.9645     150.5245       0.2552
    2687.1169     151.9152       0.2440
    2687.2693     154.5615       0.2268
    2687.4217     157.1306       0.2215
    2687.5741     158.4513       0.2379
    2687.7265     158.7057       0.2612
    2687.8789     158.6780       0.2702
    2688.0313     159.6337       0.2641
    2688.1837     161.8501       0.2575
    2688.3361     164.3158       0.2570
    2688.4885     165.4345       0.2612
    2688.6409     164.6470       0.2635
    2688.7933     162.7105       0.2601
    2688.9457     161.6724       0.2562
    2689.0981     162.4290       0.2530
    2689.2505     163.5495       0.2537
    2689.4029     164.1392       0.2618
    2689.5553     164.4086       0.2740
    2689.7077     164.6836       0.2830
    2689.8601     164.3524       0.2841
    2690.0125     163.6180       0.2763
    2690.1649     162.6872       0.2574
    2690.3173     162.7100       0.2362
    2690.4697     163.2163       0.2200
    2690.6221     163.7583       0.2200
    2690.7745     163.5573       0.2435
    2690.9269     163.0447       0.2753
    2691.0793     162.1332       0.2932
    2691.2317     160.9615       0.2906
    2691.3841    -999.2500       0.2745
    2691.5365    -999.2500       0.2609
    2691.6889     159.5101       0.2627
    2691.8413     159.6408       0.2810
    2691.9937     160.2332       0.3040
    2692.1461    -999.2500       0.3184
    2692.2985    -999.2500       0.3170
    2692.4509     159.6037       0.3042
    2692.6033     158.7291       0.2962
    2692.7557     158.3145       0.2991
    2692.9081    -999.2500       0.3044
    2693.0605    -999.2500       0.3020
    2693.2129     158.3414       0.2894
    2693.3653     159.5904       0.2714
    2693.5177     161.4915       0.2560
    2693.6701    -999.2500       0.2506
    2693.8225    -999.2500       0.2548
    2693.9749     166.1926       0.2625
    2694.1273     167.2726       0.2661
    2694.2797     169.0956       0.2607
    2694.4321     171.4689       0.2486
    2694.5845     173.7690       0.2376
    2694.7369     175.7164       0.2320
    2694.8893     176.6498       0.2305
    2695.0417     176.8028       0.2332
    2695.1941     176.5394       0.2412
    2695.3465     176.5300       0.2515
    2695.4989     176.1185       0.2551
    2695.6513     174.4552       0.2527
    2695.8037     171.4449       0.2453
    2695.9561     167.7998       0.2431
    2696.1085     164.7230       0.2488
    2696.2609     162.3961       0.2563
    2696.4133     161.2375       0.2531
    2696.5657     160.7257       0.2421
    2696.7181     160.1268       0.2333
    2696.8705     159.3161       0.2354
    2697.0229     158.9814       0.2466
    2697.1753     159.4134       0.2572
    2697.3277     160.3787       0.2569
    2697.4801     161.5455       0.2460
    2697.6325     162.5277       0.2357
    2697.7849     162.8536       0.2348
    2697.9373     162.3017       0.2449
    2698.0897     161.5660       0.2603
    2698.2421     161.4382       0.2692
    2698.3945     162.1331       0.2619
    2698.5469     162.4706       0.2432
    2698.6993     162.5599       0.2269
    2698.8517     161.4654       0.2209
    2699.0041     159.6224       0.2227
    2699.1565     158.0790       0.2264
    2699.3089     157.4488       0.2315
    2699.4613     158.0612       0.2421
    2699.6137     159.3024       0.2561
    2699.7661     160.1818       0.2653
    2699.9185     160.4706       0.2630
    2700.0709     160.5928       0.2538
    2700.2233     160.8067       0.2500
    2700.3757     161.3792       0.2568
    2700.5281     161.3430       0.2676
    2700.6805     161.7295       0.2678
    2700.8329     162.4211       0.2519
    2700.9853     163.7263       0.2333
    2701.1377     164.6028       0.2288
    2701.2901     165.0314       0.2438
    2701.4425     165.5923       0.2689
    2701.5949     166.2352       0.2889
    2701.7473     167.4095       0.2918
    2701.8997     168.2389       0.2772
    2702.0521     169.2297       0.2612
    2702.2045     170.3975       0.2597
    2702.3569     172.3245       0.2740
    2702.5093     173.2029       0.2847
    2702.6617     173.4637       0.2783
    2702.8141     172.7679       0.2661
    2702.9665     172.2347       0.2640
    2703.1189     172.7683       0.2726
    2703.2713     173.5390       0.2768
    2703.4237     173.4162       0.2691
    2703.5761     172.5981       0.2547
    2703.7285     171.5913       0.2424
    2703.8809     171.1685       0.2396
    2704.0333     170.5438       0.2484
