#------------------------------------------------------------------------------
#
#   Created by  : WOW Log Export Utility
#   Created on  : 2012-02-24 13:45:43
#   Project     : NORNE
#
#------------------------------------------------------------------------------
~Version Information Block
 VERS.                 2.0: CWLS Log ASCII Standard - version 2
 WRAP.                  NO: One line per depth step
~Well Information Block
#MNEMONIC    .UNIT                            Information: Data type
#------------------------------------------------------------------------------
 STRT        .M                                 1275.2832: START DEPTH
 STOP        .M                                 2804.7695: STOP DEPTH
 STEP        .M                                    0.1524: SAMPLE RATE
 NULL        .                                  -999.2500: NULL VALUE
 COMP        .                                    STATOIL: Company
 WELL        .                                  6608/10-4: Well
 UWI         .                               NO 6608/10-4: Unique Well ID
 FLD         .                                      NORNE: Field
 CNTY        .                                    UNKNOWN: County
 STAT        .                                    UNKNOWN: State
 CTRY        .                                     Norway: Country
 XCOORD      .                               462006.74350: Surface X
 YCOORD      .                              7324847.22971: Surface Y
 LAT         .                                   66.04035: Latitude
 LON         .                                    8.16159: Longitude
 ELEV        .M                                   23.0000: Surface Elev
 ELEV_TYPE   .                                         KB: Elev Type
~Curve Information Block
#MNEMONIC                   .UNIT                 API CODE      : DESCRIPTION
#------------------------------------------------------------------------------
 DEPTH                      .M                                  :
 DT                         .us/ft                UNKNOWN       : Run 1, Ver 1
 RS                         .OHM.M                UNKNOWN       : Run 1, Ver 1
~A      DEPTH           DT           RS
# ...
    2250.6432      96.7520    -999.2500
    2250.7956      95.7358    -999.2500
    2250.9480      96.9547    -999.2500
    2251.1004     100.2267    -999.2500
    2251.2528     103.3030    -999.2500
    2251.4052     104.2128    -999.2500
    2251.5576     102.7070    -999.2500
    2251.7100     100.4250    -999.2500
    2251.8624      99.3495    -999.2500
    2252.0148      99.4381    -999.2500
    2252.1672      98.8189    -999.2500
    2252.3196      96.2404    -999.2500
    2252.4720      92.4569    -999.2500
    2252.6244      89.2535    -999.2500
    2252.7768      88.8102    -999.2500
    2252.9292      91.7914    -999.2500
    2253.0816      96.4722    -999.2500
    2253.2340     100.5027    -999.2500
    2253.3864     101.6894    -999.2500
    2253.5388      99.5730    -999.2500
    2253.6912      96.1086    -999.2500
    2253.8436      93.5397    -999.2500
    2253.9960      92.6804    -999.2500
    2254.1484      93.2669    -999.2500
    2254.3008      94.3698    -999.2500
    2254.4532      94.8794    -999.2500
    2254.6056      94.5521    -999.2500
    2254.7580      93.9676    -999.2500
    2254.9104      94.3619    -999.2500
    2255.0628      96.7593    -999.2500
    2255.2152     100.1595    -999.2500
    2255.3676     101.8188    -999.2500
    2255.5200      99.9344    -999.2500
    2255.6724      95.8508    -999.2500
    2255.8248      93.4318    -999.2500
    2255.9772      95.6384    -999.2500
    2256.1296     101.6871    -999.2500
    2256.2820     107.7381    -999.2500
    2256.4344     110.1468    -999.2500
    2256.5868     108.1996    -999.2500
    2256.7392     104.0894    -999.2500
    2256.8916     100.4927    -999.2500
    2257.0440      98.6315    -999.2500
    2257.1964      97.9725    -999.2500
    2257.3488      97.1274    -999.2500
    2257.5012      95.7733    -999.2500
    2257.6536      94.8881    -999.2500
    2257.8060      95.3407    -999.2500
    2257.9584      97.0207    -999.2500
    2258.1108      98.8043    -999.2500
    2258.2632      99.6342    -999.2500
    2258.4156      99.5630    -999.2500
    2258.5680      99.3137    -999.2500
    2258.7204      99.0781    -999.2500
    2258.8728      98.6520    -999.2500
    2259.0252      97.9404    -999.2500
    2259.1776      97.0355    -999.2500
    2259.3300      96.6503    -999.2500
    2259.4824      97.3289    -999.2500
    2259.6348      98.8784    -999.2500
    2259.7872     100.8484    -999.2500
    2259.9396     102.4639    -999.2500
    2260.0920     102.6518    -999.2500
    2260.2444     101.2339    -999.2500
    2260.3968      99.3799    -999.2500
    2260.5492      98.1683    -999.2500
    2260.7016      97.7923    -999.2500
    2260.8540      97.2725    -999.2500
    2261.0064      95.2582    -999.2500
    2261.1588      92.0995    -999.2500
    2261.3112      90.0474    -999.2500
    2261.4636      90.7594    -999.2500
    2261.6160      94.0152    -999.2500
    2261.7684      98.2708    -999.2500
    2261.9208     101.1093    -999.2500
    2262.0732     101.6513    -999.2500
    2262.2256     101.1177    -999.2500
    2262.3780     100.7155    -999.2500
    2262.5304     100.3824    -999.2500
    2262.6828      98.7089    -999.2500
    2262.8352      95.1308    -999.2500
    2262.9876      91.5652    -999.2500
    2263.1400      91.0397    -999.2500
    2263.2924      93.7601    -999.2500
    2263.4448      96.7290    -999.2500
    2263.5972      97.5942    -999.2500
    2263.7496      96.5220    -999.2500
    2263.9020      95.8176    -999.2500
    2264.0544      96.8769    -999.2500
    2264.2068      98.8366    -999.2500
    2264.3592     100.5847    -999.2500
    2264.5116     102.0081    -999.2500
    2264.6640     103.1135    -999.2500
    2264.8164     102.5408    -999.2500
    2264.9688      99.2905    -999.2500
    2265.1212      94.5285    -999.2500
    2265.2736      90.8476    -999.2500
    2265.4260      90.3545    -999.2500
    2265.5784      92.6301    -999.2500
    2265.7308      96.1623    -999.2500
    2265.8832     100.2247    -999.2500
    2266.0356     104.1399    -999.2500
    2266.1880     106.4709    -999.2500
    2266.3404     106.0436    -999.2500
    2266.4928     103.7950    -999.2500
    2266.6452     101.7417    -999.2500
    2266.7976     100.7623    -999.2500
    2266.9500      99.7308    -999.2500
    2267.1024      97.5920    -999.2500
    2267.2548      95.4999    -999.2500
    2267.4072      95.2190    -999.2500
    2267.5596      97.0304    -999.2500
    2267.7120      99.2630    -999.2500
    2267.8644     100.2068    -999.2500
    2268.0168     100.1271    -999.2500
    2268.1692     100.1779    -999.2500
    2268.3216     100.3867    -999.2500
    2268.4740      99.7984    -999.2500
    2268.6264      98.1627    -999.2500
    2268.7788      96.7568    -999.2500
    2268.9312      97.1161    -999.2500
    2269.0836      99.3121    -999.2500
    2269.2360     101.7218    -999.2500
    2269.3884     102.6947    -999.2500
    2269.5408     102.0469    -999.2500
    2269.6932     100.6398    -999.2500
    2269.8456      99.3415    -999.2500
    2269.9980      98.5745    -999.2500
    2270.1504      98.4129    -999.2500
    2270.3028      98.9207    -999.2500
    2270.4552     100.2473    -999.2500
    2270.6076     102.2184    -999.2500
    2270.7600     104.0895    -999.2500
    2270.9124     104.8959    -999.2500
    2271.0648     104.4466    -999.2500
    2271.2172     103.3075    -999.2500
    2271.3696     102.2674    -999.2500
    2271.5220     101.8166    -999.2500
    2271.6744     101.8150    -999.2500
    2271.8268     101.6542    -999.2500
    2271.9792     100.7302    -999.2500
    2272.1316      98.9982    -999.2500
    2272.2840      96.7780    -999.2500
    2272.4364      95.3641    -999.2500
    2272.5888      96.2967    -999.2500
    2272.7412     100.1749    -999.2500
    2272.8936     106.1871    -999.2500
    2273.0460     111.7477    -999.2500
    2273.1984     113.9112    -999.2500
    2273.3508     111.4542    -999.2500
    2273.5032     105.7485    -999.2500
    2273.6556      99.2642    -999.2500
    2273.8080      94.1930    -999.2500
    2273.9604      91.3905    -999.2500
    2274.1128      90.5018    -999.2500
    2274.2652      91.5942    -999.2500
    2274.4176      94.8350    -999.2500
    2274.5700      99.7249    -999.2500
    2274.7224     104.9731    -999.2500
    2274.8748     108.8240    -999.2500
    2275.0272     110.1553    -999.2500
    2275.1796     108.9905    -999.2500
    2275.3320     106.3135    -999.2500
    2275.4844     103.2630    -999.2500
    2275.6368     100.9051    -999.2500
    2275.7892     100.2159    -999.2500
    2275.9416     101.4024    -999.2500
    2276.0940     103.9107    -999.2500
    2276.2464     106.4856    -999.2500
    2276.3988     107.8312    -999.2500
    2276.5512     107.5284    -999.2500
    2276.7036     106.0889    -999.2500
    2276.8560     104.3743    -999.2500
    2277.0084     102.7861    -999.2500
    2277.1608     101.6585    -999.2500
    2277.3132     101.3654    -999.2500
    2277.4656     102.1460    -999.2500
    2277.6180     104.1074    -999.2500
    2277.7704     106.5758    -999.2500
    2277.9228     108.2947    -999.2500
    2278.0752     108.3409    -999.2500
    2278.2276     106.7491    -999.2500
    2278.3800     104.3801    -999.2500
    2278.5324     102.3726    -999.2500
    2278.6848     101.1756    -999.2500
    2278.8372     100.1963    -999.2500
    2278.9896      99.0473    -999.2500
    2279.1420      98.0580    -999.2500
    2279.2944      98.3359    -999.2500
    2279.4468     100.6490    -999.2500
    2279.5992     103.9966    -999.2500
    2279.7516     106.4708    -999.2500
    2279.9040     106.6158    -999.2500
    2280.0564     104.5497    -999.2500
    2280.2088     101.6898    -999.2500
    2280.3612      99.4279    -999.2500
    2280.5136      98.1273    -999.2500
    2280.6660      97.5754    -999.2500
    2280.8184      97.8462    -999.2500
    2280.9708      98.8945    -999.2500
