#------------------------------------------------------------------------------
#
#   Created by  : WOW Log Export Utility
#   Created on  : 2012-02-24 13:45:42
#   Project     : NORNE
#
#------------------------------------------------------------------------------
~Version Information Block
 VERS.                 2.0: CWLS Log ASCII Standard - version 2
 WRAP.                  NO: One line per depth step
~Well Information Block
#MNEMONIC    .UNIT                            Information: Data type
#------------------------------------------------------------------------------
 STRT        .M                                  472.7500: START DEPTH
 STOP        .M                                 2800.7500: STOP DEPTH
 STEP        .M                                    0.1250: SAMPLE RATE
 NULL        .                                  -999.2500: NULL VALUE
 COMP        .                                    STATOIL: Company
 WELL        .                                  6608/10-4: Well
 UWI         .                               NO 6608/10-4: Unique Well ID
 FLD         .                                      NORNE: Field
 CNTY        .                                    UNKNOWN: County
 STAT        .                                    UNKNOWN: State
 CTRY        .                                     Norway: Country
 XCOORD      .                               462006.74350: Surface X
 YCOORD      .                              7324847.22971: Surface Y
 LAT         .                                   66.04035: Latitude
 LON         .                                    8.16159: Longitude
 ELEV        .M                                   23.0000: Surface Elev
 ELEV_TYPE   .                                         KB: Elev Type
~Curve Information Block
#MNEMONIC                   .UNIT                 API CODE      : DESCRIPTION
#------------------------------------------------------------------------------
 DEPTH                      .M                                  :
 CALI                       .inches               UNKNOWN       : Run 1, Ver 1
 GR                         .API                  UNKNOWN       : Run 1, Ver 1
 KLOGH                      .mD                   UNKNOWN       : Run 1, Ver 4
 PHIF                       .v/v decimal          UNKNOWN       : Run 1, Ver 3
 RHOB                       .g/cm3                UNKNOWN       : Run 1, Ver 1
 RT                         .ohm.m                UNKNOWN       : Run 1, Ver 1
 SW                         .v/v decimal          UNKNOWN       : Run 1, Ver 3
~A      DEPTH         CALI           GR        KLOGH         PHIF         RHOB           RT           SW
# ...
    2234.1250      12.5125      75.6074    -999.2500    -999.2500       2.4542       2.4319    -999.2500
    2234.2500      12.4277      74.9138    -999.2500    -999.2500       2.4690       2.4476    -999.2500
    2234.3750      12.3532      75.8091    -999.2500    -999.2500       2.4757       2.4525    -999.2500
    2234.5000      12.3061      78.4711    -999.2500    -999.2500       2.4715       2.4592    -999.2500
    2234.6250      12.3291      81.5988    -999.2500    -999.2500       2.4554       2.4829    -999.2500
    2234.7500      12.3406      75.9989    -999.2500    -999.2500       2.4358       2.4996    -999.2500
    2234.8750      12.4125      74.8641    -999.2500    -999.2500       2.4196       2.4980    -999.2500
    2235.0000      12.4759      77.1729    -999.2500    -999.2500       2.4103       2.4924    -999.2500
    2235.1250      12.4661      79.4743    -999.2500    -999.2500       2.4101       2.4928    -999.2500
    2235.2500      12.3870      79.9580    -999.2500    -999.2500       2.4190       2.4920    -999.2500
    2235.3750      12.2227      80.7664    -999.2500    -999.2500       2.4341       2.5140    -999.2500
    2235.5000      12.1542      78.8368    -999.2500    -999.2500       2.4489       2.5413    -999.2500
    2235.6250      12.1483      77.3139    -999.2500    -999.2500       2.4605       2.5700    -999.2500
    2235.7500      12.1963      77.8228    -999.2500    -999.2500       2.4680       2.6006    -999.2500
    2235.8750      12.3037      80.3224    -999.2500    -999.2500       2.4715       2.6352    -999.2500
    2236.0000      12.4777      81.9470    -999.2500    -999.2500       2.4728       2.6704    -999.2500
    2236.1250      12.5769      81.0482    -999.2500    -999.2500       2.4738       2.6954    -999.2500
    2236.2500      12.6049      80.2407    -999.2500    -999.2500       2.4749       2.7214    -999.2500
    2236.3750      12.5684      77.0153    -999.2500    -999.2500       2.4752       2.7485    -999.2500
    2236.5000      12.4907      72.0415    -999.2500    -999.2500       2.4742       2.7708    -999.2500
    2236.6250      12.4145      71.0213    -999.2500    -999.2500       2.4712       2.7778    -999.2500
    2236.7500      12.4784      66.7054    -999.2500    -999.2500       2.4649       2.7663    -999.2500
    2236.8750      12.5147      67.0468    -999.2500    -999.2500       2.4568       2.7390    -999.2500
    2237.0000      12.4384      68.6243    -999.2500    -999.2500       2.4481       2.7102    -999.2500
    2237.1250      12.3444      69.0303    -999.2500    -999.2500       2.4407       2.6855    -999.2500
    2237.2500      12.3418      68.0309    -999.2500    -999.2500       2.4365       2.6627    -999.2500
    2237.3750      12.2860      71.4344    -999.2500    -999.2500       2.4381       2.6257    -999.2500
    2237.5000      12.2030      70.7512    -999.2500    -999.2500       2.4478       2.5934    -999.2500
    2237.6250      12.1368      69.0801    -999.2500    -999.2500       2.4624       2.5886    -999.2500
    2237.7500      12.1058      67.3710    -999.2500    -999.2500       2.4769       2.6084    -999.2500
    2237.8750      12.1263      65.6684    -999.2500    -999.2500       2.4851       2.6387    -999.2500
    2238.0000      12.2132      63.5539    -999.2500    -999.2500       2.4810       2.6621    -999.2500
    2238.1250      12.3746      66.2354    -999.2500    -999.2500       2.4600       2.7261    -999.2500
    2238.2500      12.5471      66.5684    -999.2500    -999.2500       2.4338       2.7656    -999.2500
    2238.3750      12.7208      68.2987    -999.2500    -999.2500       2.4109       2.7549    -999.2500
    2238.5000      12.7471      70.7909    -999.2500    -999.2500       2.3959       2.7114    -999.2500
    2238.6250      12.5820      72.1108    -999.2500    -999.2500       2.3906       2.6560    -999.2500
    2238.7500      12.5877      71.0039    -999.2500    -999.2500       2.3938       2.5748    -999.2500
    2238.8750      12.7514      67.3780    -999.2500    -999.2500       2.3988       2.4967    -999.2500
    2239.0000      13.0344      65.0045    -999.2500    -999.2500       2.4025       2.4905    -999.2500
    2239.1250      13.2054      63.4303    -999.2500    -999.2500       2.4056       2.5460    -999.2500
    2239.2500      13.4060      64.1099    -999.2500    -999.2500       2.4102       2.6376    -999.2500
    2239.3750      13.9261      69.2594    -999.2500    -999.2500       2.4190       2.7290    -999.2500
    2239.5000      13.3895      71.4830    -999.2500    -999.2500       2.4353       2.7553    -999.2500
    2239.6250      12.9155      73.2211    -999.2500    -999.2500       2.4564       2.7513    -999.2500
    2239.7500      12.6605      76.6068    -999.2500    -999.2500       2.4772       2.7490    -999.2500
    2239.8750      12.6065      81.1648    -999.2500    -999.2500       2.4934       2.7682    -999.2500
    2240.0000      12.6618      84.5352    -999.2500    -999.2500       2.5017       2.8193    -999.2500
    2240.1250      12.6953      82.0515    -999.2500    -999.2500       2.5001       2.9014    -999.2500
    2240.2500      12.7169      78.8526    -999.2500    -999.2500       2.4868       3.0245    -999.2500
    2240.3750      12.6839      74.6432    -999.2500    -999.2500       2.4680       3.1134    -999.2500
    2240.5000      12.6681      70.7275    -999.2500    -999.2500       2.4481       3.1370    -999.2500
    2240.6250      12.6863      69.7321    -999.2500    -999.2500       2.4307       3.0958    -999.2500
    2240.7500      12.7343      73.7129    -999.2500    -999.2500       2.4185       3.0145    -999.2500
    2240.8750      12.9501      76.8809    -999.2500    -999.2500       2.4138       2.9325    -999.2500
    2241.0000      12.8683      75.4899    -999.2500    -999.2500       2.4150       2.8475    -999.2500
    2241.1250      12.7444      75.3508    -999.2500    -999.2500       2.4186       2.7988    -999.2500
    2241.2500      12.7730      74.5312    -999.2500    -999.2500       2.4231       2.7842    -999.2500
    2241.3750      12.9772      71.5412    -999.2500    -999.2500       2.4284       2.8084    -999.2500
    2241.5000      13.1300      67.9990    -999.2500    -999.2500       2.4352       2.8980    -999.2500
    2241.6250      13.0357      64.1803    -999.2500    -999.2500       2.4462       3.0063    -999.2500
    2241.7500      12.8192      61.1247    -999.2500    -999.2500       2.4599       3.1177    -999.2500
    2241.8750      12.7129      59.3078    -999.2500    -999.2500       2.4739       3.2057    -999.2500
    2242.0000      12.7169      58.3980    -999.2500    -999.2500       2.4847       3.2826    -999.2500
    2242.1250      12.7255      58.0496    -999.2500    -999.2500       2.4884       3.3571    -999.2500
    2242.2500      12.7370      59.9261    -999.2500    -999.2500       2.4807       3.3276    -999.2500
    2242.3750      12.7649      62.3893    -999.2500    -999.2500       2.4630       3.2292    -999.2500
    2242.5000      12.8235      63.2637    -999.2500    -999.2500       2.4421       3.2061    -999.2500
    2242.6250      12.9240      63.9607    -999.2500    -999.2500       2.4233       3.2111    -999.2500
    2242.7500      12.9734      65.0455    -999.2500    -999.2500       2.4114       3.1809    -999.2500
    2242.8750      12.7800      65.3861    -999.2500    -999.2500       2.4095       3.0752    -999.2500
    2243.0000      12.6389      63.5687    -999.2500    -999.2500       2.4184       2.9948    -999.2500
    2243.1250      12.5614      67.3929    -999.2500    -999.2500       2.4303       2.8944    -999.2500
    2243.2500      12.5370      69.4779    -999.2500    -999.2500       2.4408       2.7787    -999.2500
    2243.3750      12.5498      68.8447    -999.2500    -999.2500       2.4485       2.6788    -999.2500
    2243.5000      12.5839      67.2247    -999.2500    -999.2500       2.4537       2.6308    -999.2500
    2243.6250      12.6340      66.3066    -999.2500    -999.2500       2.4586       2.6546    -999.2500
