#------------------------------------------------------------------------------
#
#   Created by  : WOW Log Export Utility
#   Created on  : 2012-02-24 13:45:43
#   Project     : NORNE
#
#------------------------------------------------------------------------------
~Version Information Block
 VERS.                 2.0: CWLS Log ASCII Standard - version 2
 WRAP.                  NO: One line per depth step
~Well Information Block
#MNEMONIC    .UNIT                            Information: Data type
#------------------------------------------------------------------------------
 STRT        .M                                 2460.3457: START DEPTH
 STOP        .M                                 2795.6255: STOP DEPTH
 STEP        .M                                    0.1524: SAMPLE RATE
 NULL        .                                  -999.2500: NULL VALUE
 COMP        .                                    STATOIL: Company
 WELL        .                                  6608/10-4: Well
 UWI         .                               NO 6608/10-4: Unique Well ID
 FLD         .                                      NORNE: Field
 CNTY        .                                    UNKNOWN: County
 STAT        .                                    UNKNOWN: State
 CTRY        .                                     Norway: Country
 XCOORD      .                               462006.74350: Surface X
 YCOORD      .                              7324847.22971: Surface Y
 LAT         .                                   66.04035: Latitude
 LON         .                                    8.16159: Longitude
 ELEV        .M                                   23.0000: Surface Elev
 ELEV_TYPE   .                                         KB: Elev Type
~Curve Information Block
#MNEMONIC                   .UNIT                 API CODE      : DESCRIPTION
#------------------------------------------------------------------------------
 DEPTH                      .M                                  :
 DTS                        .us/ft                UNKNOWN       : Run 1, Ver 1
 NPHI                       .v/v decimal          UNKNOWN       : Run 1, Ver 2
~A      DEPTH          DTS         NPHI
# ...
    2490.8257    -999.2500       0.3250
    2490.9781    -999.2500       0.3132
    2491.1305    -999.2500       0.2823
    2491.2829     177.7790       0.2496
    2491.4353     177.7790       0.2354
    2491.5877     177.7790       0.2426
    2491.7401     177.7790       0.2617
    2491.8925     177.7790       0.2781
    2492.0449     177.7790       0.2902
    2492.1973     177.7790       0.3012
    2492.3497     177.7790       0.3096
    2492.5021     177.7790       0.3140
    2492.6545     177.7790       0.3061
    2492.8069     177.7790       0.2815
    2492.9593     177.7790       0.2541
    2493.1117     177.7790       0.2559
    2493.2641     177.7790       0.2968
    2493.4165     177.7790       0.3407
    2493.5689     177.7790       0.3516
    2493.7213     177.7790       0.3263
    2493.8737     177.7790       0.2972
    2494.0261     177.7790       0.2918
    2494.1785     177.7790       0.3046
    2494.3309     177.7650       0.3141
    2494.4833     177.7770       0.3082
    2494.6357     177.8779       0.2891
    2494.7881     178.1177       0.2626
    2494.9405     178.3067       0.2361
    2495.0929     178.0743       0.2238
    2495.2453     177.5027       0.2299
    2495.3977     176.7959       0.2439
    2495.5501     176.1918       0.2542
    2495.7025     175.6487       0.2539
    2495.8549     175.5481       0.2462
    2496.0073     175.6249       0.2410
    2496.1597     176.4110       0.2469
    2496.3121     176.9423       0.2540
    2496.4645     176.9959       0.2523
    2496.6169     176.3778       0.2447
    2496.7693     175.8137       0.2337
    2496.9217     175.7031       0.2249
    2497.0741     176.1914       0.2251
    2497.2265     176.8182       0.2332
    2497.3789     177.1606       0.2404
    2497.5313     177.2389       0.2423
    2497.6837     177.0852       0.2372
    2497.8361     176.9042       0.2274
    2497.9885     176.3198       0.2226
    2498.1409     175.5600       0.2332
    2498.2933     175.1425       0.2559
    2498.4457     174.9642       0.2753
    2498.5981     174.9790       0.2756
    2498.7505     174.9670       0.2523
    2498.9029     175.1667       0.2221
    2499.0553     175.9290       0.2162
    2499.2077     177.2163       0.2485
    2499.3601     178.5133       0.3063
    2499.5125     179.4648       0.3607
    2499.6649     179.4560       0.3866
    2499.8173     179.2143       0.3829
    2499.9697     179.2480       0.3748
    2500.1221     179.7234       0.3746
    2500.2745     180.2873       0.3713
    2500.4269     180.5536       0.3421
    2500.5793     180.5320       0.2981
    2500.7317     180.3622       0.2700
    2500.8841     180.1573       0.2737
    2501.0365     179.9533       0.3087
    2501.1889     179.7493       0.3593
    2501.3413     179.5453       0.4140
    2501.4937     179.3403       0.4473
    2501.6461     179.1263       0.4436
    2501.7985     178.8883       0.4063
    2501.9509     178.7102       0.3621
    2502.1033     178.7779       0.3504
    2502.2557     179.4082       0.3727
    2502.4081     180.8082       0.4010
    2502.5605     183.1519       0.4019
    2502.7129     186.5535       0.3779
    2502.8653     190.6127       0.3587
    2503.0177     194.5808       0.3565
    2503.1701     199.0292       0.3735
    2503.3225     203.2804       0.4105
    2503.4749     205.9635       0.4626
    2503.6273     207.2373       0.5068
    2503.7797     208.1888       0.5014
    2503.9321     208.4916       0.4383
    2504.0845     206.2969       0.3563
    2504.2369     202.1235       0.3006
    2504.3893     197.6908       0.2785
    2504.5417     193.4915       0.2766
    2504.6941     189.9507       0.2824
    2504.8465     186.4626       0.2804
    2504.9989     183.9613       0.2615
    2505.1513     182.5848       0.2402
    2505.3037     181.5414       0.2369
    2505.4561     180.8249       0.2556
    2505.6085     180.1169       0.2739
    2505.7609     179.7724       0.2680
    2505.9133     179.8689       0.2472
    2506.0657     180.2135       0.2398
    2506.2181     180.5026       0.2571
    2506.3705     180.4541       0.2835
    2506.5229     180.2912       0.2960
    2506.6753     180.2211       0.2817
    2506.8277     180.3568       0.2473
    2506.9801     180.4349       0.2205
    2507.1325     180.6347       0.2172
    2507.2849     180.6570       0.2406
    2507.4373     180.3424       0.2778
    2507.5897     179.8706       0.2981
    2507.7421     178.9123       0.2934
    2507.8945     178.0212       0.2779
    2508.0469     177.2880       0.2654
    2508.1993     176.8276       0.2566
    2508.3517     176.9398       0.2456
    2508.5041     177.1947       0.2310
    2508.6565     177.9001       0.2220
    2508.8089     178.5012       0.2253
    2508.9613     178.7397       0.2320
    2509.1137     178.5193       0.2338
    2509.2661     177.7930       0.2335
    2509.4185     176.7024       0.2343
    2509.5709     175.2809       0.2360
    2509.7233     173.9547       0.2374
    2509.8757     173.2120       0.2394
    2510.0281     173.4277       0.2474
    2510.1805     174.0552       0.2573
    2510.3329     174.5164       0.2596
    2510.4853     174.8476       0.2512
    2510.6377     174.8490       0.2402
    2510.7901     174.7661       0.2420
    2510.9425     174.6861       0.2629
    2511.0949     174.3964       0.2891
    2511.2473     174.3411       0.3002
    2511.3997     174.5597       0.2902
    2511.5521     175.2601       0.2652
    2511.7045     176.1928       0.2384
    2511.8569     176.6574       0.2281
    2512.0093     177.1893       0.2403
    2512.1617     177.6334       0.2600
    2512.3141     178.1044       0.2675
    2512.4665     178.6373       0.2542
    2512.6189     178.6380       0.2308
    2512.7713     178.6380       0.2206
    2512.9237     178.6380       0.2324
    2513.0761     178.6380       0.2592
    2513.2285     178.6380       0.2921
    2513.3809     178.6380       0.3249
    2513.5333     178.6380       0.3382
    2513.6857     178.6380       0.3194
    2513.8381     178.6380       0.2720
    2513.9905     178.6380       0.2183
    2514.1429     178.6380       0.1937
    2514.2953     178.6380       0.2190
    2514.4477     178.6380       0.2756
    2514.6001     178.6380       0.3185
    2514.7525     178.6380       0.3200
    2514.9049     178.6380       0.2962
    2515.0573     178.6380       0.2786
    2515.2097     178.6380       0.2685
    2515.3621     178.6380       0.2489
    2515.5145     178.6380       0.2230
    2515.6669     178.6380       0.2163
    2515.8193     178.6380       0.2397
    2515.9717     178.6380       0.2725
    2516.1241     178.6380       0.2907
    2516.2765     178.6380       0.2909
    2516.4289     178.6380       0.2863
    2516.5813     178.6380       0.2758
    2516.7337     178.6380       0.2554
    2516.8861     178.6380       0.2390
    2517.0385     178.6380       0.2402
    2517.1909     178.6380       0.2540
    2517.3433     178.6380       0.2596
    2517.4957     178.6380       0.2542
    2517.6481     178.6380       0.2579
    2517.8005     178.6380       0.2763
    2517.9529     178.6380       0.2996
    2518.1053    -999.2500       0.3153
    2518.2577    -999.2500       0.3193
    2518.4101     178.6380       0.3131
    2518.5625     178.6380       0.2926
    2518.7149     178.6380       0.2607
    2518.8673    -999.2500       0.2317
    2519.0197    -999.2500       0.2228
    2519.1721     178.6380       0.2323
    2519.3245     178.6380       0.2513
    2519.4769     178.6380       0.2792
    2519.6293    -999.2500       0.3059
    2519.7817    -999.2500       0.3210
    2519.9341     178.6380       0.3189
    2520.0865     178.6380       0.2998
    2520.2389     178.6380       0.2699
    2520.3913    -999.2500       0.2437
    2520.5437    -999.2500       0.2527
    2520.6961     178.6380       0.3063
    2520.8485     178.6380       0.3725
    2521.0009     178.6380       0.4003
    2521.1533     178.6380       0.3649
