#------------------------------------------------------------------------------
#
#   Created by  : WOW Log Export Utility
#   Created on  : 2012-02-24 13:45:42
#   Project     : NORNE
#
#------------------------------------------------------------------------------
~Version Information Block
 VERS.                 2.0: CWLS Log ASCII Standard - version 2
 WRAP.                  NO: One line per depth step
~Well Information Block
#MNEMONIC    .UNIT                            Information: Data type
#------------------------------------------------------------------------------
 STRT        .M                                  472.7500: START DEPTH
 STOP        .M                                 2800.7500: STOP DEPTH
 STEP        .M                                    0.1250: SAMPLE RATE
 NULL        .                                  -999.2500: NULL VALUE
 COMP        .                                    STATOIL: Company
 WELL        .                                  6608/10-4: Well
 UWI         .                               NO 6608/10-4: Unique Well ID
 FLD         .                                      NORNE: Field
 CNTY        .                                    UNKNOWN: County
 STAT        .                                    UNKNOWN: State
 CTRY        .                                     Norway: Country
 XCOORD      .                               462006.74350: Surface X
 YCOORD      .                              7324847.22971: Surface Y
 LAT         .                                   66.04035: Latitude
 LON         .                                    8.16159: Longitude
 ELEV        .M                                   23.0000: Surface Elev
 ELEV_TYPE   .                                         KB: Elev Type
~Curve Information Block
#MNEMONIC                   .UNIT                 API CODE      : DESCRIPTION
#------------------------------------------------------------------------------
 DEPTH                      .M                                  :
 CALI                       .inches               UNKNOWN       : Run 1, Ver 1
 GR                         .API                  UNKNOWN       : Run 1, Ver 1
 KLOGH                      .mD                   UNKNOWN       : Run 1, Ver 4
 PHIF                       .v/v decimal          UNKNOWN       : Run 1, Ver 3
 RHOB                       .g/cm3                UNKNOWN       : Run 1, Ver 1
 RT                         .ohm.m                UNKNOWN       : Run 1, Ver 1
 SW                         .v/v decimal          UNKNOWN       : Run 1, Ver 3
~A      DEPTH         CALI           GR        KLOGH         PHIF         RHOB           RT           SW
# ...
    2686.5000       9.0430      91.0503    -999.2500    -999.2500       2.4257       1.1760    -999.2500
    2686.6250       9.0430      91.7752    -999.2500    -999.2500       2.4428       1.5879    -999.2500
    2686.7500       9.0430      90.1727    -999.2500    -999.2500       2.4488       1.9900    -999.2500
    2686.8750       9.0430      88.9020    -999.2500    -999.2500       2.4482       2.2702    -999.2500
    2687.0000       9.0430      89.7167    -999.2500    -999.2500       2.4453       2.3695    -999.2500
    2687.1250       9.0430      92.8513    -999.2500    -999.2500       2.4437       2.2932    -999.2500
    2687.2500       9.0430     100.1596    -999.2500    -999.2500       2.4431       2.2965    -999.2500
    2687.3750       9.0430     107.0089    -999.2500    -999.2500       2.4406       2.3985    -999.2500
    2687.5000       9.0430     107.1365    -999.2500    -999.2500       2.4361       2.5467    -999.2500
    2687.6250       9.0430     102.4587    -999.2500    -999.2500       2.4310       2.6322    -999.2500
    2687.7500       9.0430      98.7044    -999.2500    -999.2500       2.4275       2.5750    -999.2500
    2687.8750       9.0430     104.2447    -999.2500    -999.2500       2.4282       2.3972    -999.2500
    2688.0000       9.0430      95.8680    -999.2500    -999.2500       2.4318       2.2916    -999.2500
    2688.1250       9.0430      98.3671    -999.2500    -999.2500       2.4337       2.2993    -999.2500
    2688.2500       9.0430     100.9121    -999.2500    -999.2500       2.4336       2.3546    -999.2500
    2688.3750       9.0430     100.1930    -999.2500    -999.2500       2.4323       2.4425    -999.2500
    2688.5000       9.0430      99.7372    -999.2500    -999.2500       2.4319       2.5621    -999.2500
    2688.6250       9.0430     102.7148    -999.2500    -999.2500       2.4347       2.4989    -999.2500
    2688.7500       9.0430     102.1400    -999.2500    -999.2500       2.4409       2.4573    -999.2500
    2688.8750       9.0430      99.2808    -999.2500    -999.2500       2.4475       2.4322    -999.2500
    2689.0000       9.0430      99.7503    -999.2500    -999.2500       2.4525       2.3815    -999.2500
    2689.1250       9.0430     104.7884    -999.2500    -999.2500       2.4547       2.2852    -999.2500
    2689.2500       9.0430     106.5510    -999.2500    -999.2500       2.4547       2.1750    -999.2500
    2689.3750       9.0430     102.7693    -999.2500    -999.2500       2.4553       2.1373    -999.2500
    2689.5000       9.0430      97.8196    -999.2500    -999.2500       2.4583       1.7108    -999.2500
    2689.6250       9.0430      93.9068    -999.2500    -999.2500       2.4627       1.3775    -999.2500
    2689.7500       9.0430      88.8031    -999.2500    -999.2500       2.4653       1.2566    -999.2500
    2689.8750       9.0430      79.5067    -999.2500    -999.2500       2.4627       1.2407    -999.2500
    2690.0000       9.0430      71.3869    -999.2500    -999.2500       2.4529       1.2464    -999.2500
    2690.1250       9.1156      68.0293    -999.2500    -999.2500       2.4407       1.2470    -999.2500
    2690.2500       9.0860      61.0241    -999.2500    -999.2500       2.4301       1.2464    -999.2500
    2690.3750       9.0430      62.5249    -999.2500    -999.2500       2.4238       1.2452    -999.2500
    2690.5000       9.0430      75.5134    -999.2500    -999.2500       2.4240       1.2452    -999.2500
    2690.6250       9.0430      86.9950    -999.2500    -999.2500       2.4326       1.2568    -999.2500
    2690.7500       9.0430     102.8293    -999.2500    -999.2500       2.4517       1.5260    -999.2500
    2690.8750       9.0430     105.2358    -999.2500    -999.2500       2.4723       1.9572    -999.2500
    2691.0000       9.0430     102.5180    -999.2500    -999.2500       2.4860       2.2155    -999.2500
    2691.1250       9.0430      97.9157    -999.2500    -999.2500       2.4877       2.2889    -999.2500
    2691.2500       9.0430      94.1151    -999.2500    -999.2500       2.4758       2.2942    -999.2500
    2691.3750       9.0430     100.3403    -999.2500    -999.2500       2.4552       2.2688    -999.2500
    2691.5000       9.0430      92.5998    -999.2500    -999.2500       2.4391       2.3082    -999.2500
    2691.6250       9.0430      92.1739    -999.2500    -999.2500       2.4288       2.3449    -999.2500
    2691.7500       9.0430      93.9517    -999.2500    -999.2500       2.4214       2.3281    -999.2500
    2691.8750       9.0430      94.3450    -999.2500    -999.2500       2.4143       2.3023    -999.2500
    2692.0000       9.0430      94.1095    -999.2500    -999.2500       2.4068       2.3966    -999.2500
    2692.1250       9.0430      89.6434    -999.2500    -999.2500       2.4033       2.5779    -999.2500
    2692.2500       9.0430      92.1757    -999.2500    -999.2500       2.4064       2.6463    -999.2500
    2692.3750       9.0430      93.6028    -999.2500    -999.2500       2.4131       2.6368    -999.2500
    2692.5000       9.0430      93.7343    -999.2500    -999.2500       2.4198       2.6058    -999.2500
    2692.6250       9.0430      94.5132    -999.2500    -999.2500       2.4237       2.5798    -999.2500
    2692.7500       9.0430      96.4086    -999.2500    -999.2500       2.4234       2.4822    -999.2500
    2692.8750       9.0430      94.9352    -999.2500    -999.2500       2.4209       1.7893    -999.2500
    2693.0000       9.0430      92.3158    -999.2500    -999.2500       2.4169       1.5224    -999.2500
    2693.1250       9.0430      92.0728    -999.2500    -999.2500       2.4102       1.4731    -999.2500
    2693.2500       9.0430      92.5130    -999.2500    -999.2500       2.4002       1.4762    -999.2500
    2693.3750       9.0430      89.0213    -999.2500    -999.2500       2.3865       1.4488    -999.2500
    2693.5000       9.0430      90.5105    -999.2500    -999.2500       2.3702       1.0968    -999.2500
    2693.6250       9.0430      80.6920    -999.2500    -999.2500       2.3541       0.9335    -999.2500
    2693.7500       9.0430      74.0142    -999.2500    -999.2500       2.3388       0.8676    -999.2500
    2693.8750       9.0430      69.4651    -999.2500    -999.2500       2.3235       0.7845    -999.2500
    2694.0000       9.0430      65.7833    -999.2500    -999.2500       2.3075       0.6372    -999.2500
    2694.1250       9.0430      68.8964    -999.2500    -999.2500       2.2903       0.5297    -999.2500
    2694.2500       9.0430      71.6088    -999.2500    -999.2500       2.2732       0.4908    -999.2500
    2694.3750       9.0430      70.0710    -999.2500    -999.2500       2.2568       0.5159    -999.2500
    2694.5000       9.0430      67.0836    -999.2500    -999.2500       2.2410       0.5378    -999.2500
    2694.6250       9.0430      64.7652    -999.2500    -999.2500       2.2259       0.5127    -999.2500
    2694.7500       9.0430      63.7540    -999.2500    -999.2500       2.2118       0.4323    -999.2500
    2694.8750       9.0430      59.9648    -999.2500    -999.2500       2.1994       0.3789    -999.2500
    2695.0000       9.0430      55.8207    -999.2500    -999.2500       2.1889       0.3752    -999.2500
    2695.1250       9.0430      56.3285    -999.2500    -999.2500       2.1800       0.3755    -999.2500
    2695.2500       9.0430      57.4683    -999.2500    -999.2500       2.1717       0.3750    -999.2500
    2695.3750       9.0615      57.4565    -999.2500    -999.2500       2.1634       0.3756    -999.2500
    2695.5000       9.1410      60.5330    -999.2500    -999.2500       2.1561       0.3780    -999.2500
    2695.6250       9.0596      57.5205    -999.2500    -999.2500       2.1538       0.3805    -999.2500
    2695.7500       9.0430      61.4044    -999.2500    -999.2500       2.1589       0.4336    -999.2500
    2695.8750       9.0430      63.4446    -999.2500    -999.2500       2.1733       0.5700    -999.2500
    2696.0000       9.0430      62.9591    -999.2500    -999.2500       2.1960       0.7039    -999.2500
