#------------------------------------------------------------------------------
#
#   Created by  : WOW Log Export Utility
#   Created on  : 2012-02-24 13:45:43
#   Project     : NORNE
#
#------------------------------------------------------------------------------
~Version Information Block
 VERS.                 2.0: CWLS Log ASCII Standard - version 2
 WRAP.                  NO: One line per depth step
~Well Information Block
#MNEMONIC    .UNIT                            Information: Data type
#------------------------------------------------------------------------------
 STRT        .M                                 2460.3457: START DEPTH
 STOP        .M                                 2795.6255: STOP DEPTH
 STEP        .M                                    0.1524: SAMPLE RATE
 NULL        .                                  -999.2500: NULL VALUE
 COMP        .                                    STATOIL: Company
 WELL        .                                  6608/10-4: Well
 UWI         .                               NO 6608/10-4: Unique Well ID
 FLD         .                                      NORNE: Field
 CNTY        .                                    UNKNOWN: County
 STAT        .                                    UNKNOWN: State
 CTRY        .                                     Norway: Country
 XCOORD      .                               462006.74350: Surface X
 YCOORD      .                              7324847.22971: Surface Y
 LAT         .                                   66.04035: Latitude
 LON         .                                    8.16159: Longitude
 ELEV        .M                                   23.0000: Surface Elev
 ELEV_TYPE   .                                         KB: Elev Type
~Curve Information Block
#MNEMONIC                   .UNIT                 API CODE      : DESCRIPTION
#------------------------------------------------------------------------------
 DEPTH                      .M                                  :
 DTS                        .us/ft                UNKNOWN       : Run 1, Ver 1
 NPHI                       .v/v decimal          UNKNOWN       : Run 1, Ver 2
~A      DEPTH          DTS         NPHI
# ...
    2521.3057     178.6380       0.3074
    2521.4581     178.6380       0.2701
    2521.6105     178.6380       0.2694
    2521.7629     178.6380       0.2919
    2521.9153     178.6380       0.3209
    2522.0677     178.6380       0.3424
    2522.2201     178.6380       0.3304
    2522.3725     178.6380       0.2983
    2522.5249     178.6380       0.2998
    2522.6773     178.6380       0.3564
    2522.8297     178.6380       0.4399
    2522.9821     178.6380       0.4836
    2523.1345     178.6380       0.4671
    2523.2869     178.6380       0.4312
    2523.4393     178.6380       0.4461
    2523.5917     178.6380       0.4886
    2523.7441     178.6380       0.5032
    2523.8965     178.6380       0.4531
    2524.0489     178.6380       0.3729
    2524.2013     178.6380       0.3163
    2524.3537     178.6380       0.3116
    2524.5061     175.8287       0.3227
    2524.6585     167.7906       0.3143
    2524.8109     167.5583       0.2921
    2524.9633     167.5600       0.2740
    2525.1157     167.2943       0.2681
    2525.2681     167.6066       0.2611
    2525.4205     167.9805       0.2471
    2525.5729     168.3026       0.2400
    2525.7253     168.5806       0.2426
    2525.8777     169.2771       0.2487
    2526.0301     170.3096       0.2622
    2526.1825     171.6113       0.2945
    2526.3349     171.7498       0.3327
    2526.4873     170.3598       0.3394
    2526.6397     169.8876       0.3080
    2526.7921     171.1573       0.2728
    2526.9445     174.9480       0.2692
    2527.0969     176.7506       0.2848
    2527.2493     177.5240       0.2862
    2527.4017     176.7650       0.2695
    2527.5541     175.1841       0.2492
    2527.7065     174.0085       0.2399
    2527.8589     173.5306       0.2446
    2528.0113     173.7887       0.2580
    2528.1637     173.7021       0.2684
    2528.3161     173.4264       0.2623
    2528.4685     173.1983       0.2427
    2528.6209     173.1620       0.2266
    2528.7733     173.4526       0.2298
    2528.9257     173.4071       0.2475
    2529.0781     172.8797       0.2593
    2529.2305     172.8940       0.2505
    2529.3829     173.2016       0.2242
    2529.5353     173.1181       0.1949
    2529.6877     172.7005       0.1749
    2529.8401     172.5242       0.1651
    2529.9925     173.9861       0.1686
    2530.1449     176.4058       0.1921
    2530.2973     178.8867       0.2301
    2530.4497     181.5525       0.2659
    2530.6021     185.1023       0.2740
    2530.7545     187.0345       0.2518
    2530.9069     187.3925       0.2231
    2531.0593     177.1255       0.2084
    2531.2117     168.7979       0.2048
    2531.3641     163.6338       0.2011
    2531.5165     162.7771       0.2000
    2531.6689     163.6808       0.2045
    2531.8213     165.4856       0.2099
    2531.9737     168.2104       0.2051
    2532.1261     171.1232       0.1865
    2532.2785     173.1234       0.1699
    2532.4309     174.1986       0.1687
    2532.5833     173.2972       0.1807
    2532.7357     172.0976       0.1954
    2532.8881     171.6196       0.2081
    2533.0405     170.7082       0.2188
    2533.1929     168.1643       0.2332
    2533.3453     163.1426       0.2491
    2533.4977     158.9904       0.2662
    2533.6501     158.0093       0.2908
    2533.8025     159.5989       0.3162
    2533.9549     163.1224       0.3299
    2534.1073     166.3308       0.3233
    2534.2597     166.6176       0.3026
    2534.4121     165.7372       0.3695
    2534.5645     165.8449       0.3692
    2534.7169     166.6370       0.3586
    2534.8693     168.8581       0.3515
    2535.0217     171.9609       0.3836
    2535.1741     171.9650       0.4484
    2535.3265     171.9650       0.4969
    2535.4789     171.9650       0.4945
    2535.6313     171.9650       0.4566
    2535.7837     171.9650       0.4431
    2535.9361     171.9650       0.5075
    2536.0885     171.9650       0.6390
    2536.2409     171.9650       0.7361
    2536.3933     171.9650       0.7554
    2536.5457     171.9650       0.7603
    2536.6981     171.9650       0.8218
    2536.8505     171.9650       0.9329
    2537.0029     171.9650       0.9780
    2537.1553     171.9650       0.8716
    2537.3077     171.9650       0.6798
    2537.4601     171.9650       0.5597
    2537.6125     171.9650       0.5670
    2537.7649     171.9650       0.6324
    2537.9173     171.9650       0.6569
    2538.0697     171.9650       0.5976
    2538.2221     171.9650       0.5159
    2538.3745     171.9650       0.4803
    2538.5269     171.9650       0.4760
    2538.6793     171.9650       0.4565
    2538.8317     171.9650       0.4173
    2538.9841     171.9650       0.3823
    2539.1365     171.9650       0.3797
    2539.2889     171.9650       0.4087
    2539.4413     171.9650       0.4341
    2539.5937     171.9650       0.4484
    2539.7461     171.9650       0.5134
    2539.8985     171.9650       0.6756
    2540.0509     171.9650       0.8580
    2540.2033     171.9650       0.9310
    2540.3557     171.9650       0.8451
    2540.5081     171.9650       0.6884
    2540.6605     171.9650       0.6008
    2540.8129     171.9650       0.6169
    2540.9653     171.9650       0.6621
    2541.1177     171.9650       0.6700
    2541.2701     171.9650       0.6426
    2541.4225     171.9650       0.6047
    2541.5749     171.9650       0.5843
    2541.7273     171.9650       0.5909
    2541.8797     171.9650       0.6330
    2542.0321     171.9650       0.7046
    2542.1845     171.9650       0.7799
    2542.3369     171.9650       0.8308
    2542.4893     171.9650       0.8022
    2542.6417     171.9650       0.7014
    2542.7941     171.9650       0.6236
    2542.9465     171.9650       0.6350
    2543.0989     171.9650       0.7247
    2543.2513     171.9650       0.8519
    2543.4037     171.9650       0.9916
    2543.5561     171.9650       1.0974
    2543.7085     171.9650       1.1467
    2543.8609     171.9650       1.1310
    2544.0133     171.9650       1.0583
    2544.1657     171.9650       0.9567
    2544.3181     171.9650       0.8752
    2544.4705     171.9650       0.8587
    2544.6229     171.9650       0.9116
    2544.7753     171.9650       0.9613
    2544.9277     171.9650       0.9288
    2545.0801     171.9650       0.8365
    2545.2325     171.9650       0.7935
    2545.3849     171.9650       0.7997
    2545.5373     171.9650       0.7799
    2545.6897     171.9650       0.7532
    2545.8421     171.9650       0.7804
    2545.9945     171.9650       0.8760
    2546.1469     171.9650       0.9755
    2546.2993     171.9650       1.0129
    2546.4517     171.9650       0.9439
    2546.6041     171.9650       0.8119
    2546.7565     171.9650       0.6815
    2546.9089     171.9650       0.6026
    2547.0613     171.9650       0.6229
    2547.2137     171.9650       0.7049
    2547.3661     171.9650       0.7947
    2547.5185     171.9650       0.8698
    2547.6709     171.9650       0.9526
    2547.8233     171.9650       1.0051
    2547.9757     171.9650       1.0128
    2548.1281     171.9650       1.0758
    2548.2805     171.9650       1.1855
    2548.4329     171.9650       1.2716
    2548.5853     171.9650       1.2346
    2548.7377     171.9650       1.0514
    2548.8901     171.9650       0.8861
    2549.0425     171.9650       0.8592
    2549.1949     171.9650       0.9228
    2549.3473     171.9650       0.9477
    2549.4997     171.9650       0.9392
    2549.6521     171.9650       0.9993
    2549.8045     171.9650       1.1537
    2549.9569     171.9650       1.3271
    2550.1093     171.9650       1.4008
    2550.2617     171.9650       1.3648
    2550.4141     171.9650       1.3125
    2550.5665     171.9650       1.3173
    2550.7189     171.9650       1.3809
    2550.8713     171.9650       1.4645
    2551.0237     171.9650       1.5115
    2551.1761     171.9650       1.4650
    2551.3285     171.9650       1.3835
    2551.4809     171.9650       1.3390
    2551.6333     171.9650       1.3153
