#------------------------------------------------------------------------------
#
#   Created by  : WOW Log Export Utility
#   Created on  : 2012-02-24 13:45:43
#   Project     : NORNE
#
#------------------------------------------------------------------------------
~Version Information Block
 VERS.                 2.0: CWLS Log ASCII Standard - version 2
 WRAP.                  NO: One line per depth step
~Well Information Block
#MNEMONIC    .UNIT                            Information: Data type
#------------------------------------------------------------------------------
 STRT        .M                                 2460.3457: START DEPTH
 STOP        .M                                 2795.6255: STOP DEPTH
 STEP        .M                                    0.1524: SAMPLE RATE
 NULL        .                                  -999.2500: NULL VALUE
 COMP        .                                    STATOIL: Company
 WELL        .                                  6608/10-4: Well
 UWI         .                               NO 6608/10-4: Unique Well ID
 FLD         .                                      NORNE: Field
 CNTY        .                                    UNKNOWN: County
 STAT        .                                    UNKNOWN: State
 CTRY        .                                     Norway: Country
 XCOORD      .                               462006.74350: Surface X
 YCOORD      .                              7324847.22971: Surface Y
 LAT         .                                   66.04035: Latitude
 LON         .                                    8.16159: Longitude
 ELEV        .M                                   23.0000: Surface Elev
 ELEV_TYPE   .                                         KB: Elev Type
~Curve Information Block
#MNEMONIC                   .UNIT                 API CODE      : DESCRIPTION
#------------------------------------------------------------------------------
 DEPTH                      .M                                  :
 DTS                        .us/ft                UNKNOWN       : Run 1, Ver 1
 NPHI                       .v/v decimal          UNKNOWN       : Run 1, Ver 2
~A      DEPTH          DTS         NPHI
# ...
    2765.1457     162.7639       0.2479
    2765.2981     161.2839       0.2467
    2765.4505     159.9198       0.2555
    2765.6029     158.4649       0.2714
    2765.7553     157.7979       0.2837
    2765.9077     157.3096       0.2817
    2766.0601     153.7936       0.2742
    2766.2125     148.2473       0.2775
    2766.3649     142.8810       0.2875
    2766.5173     140.8846       0.2768
    2766.6697     141.5791       0.2264
    2766.8221     145.2442       0.1616
    2766.9745     149.0320       0.1278
    2767.1269     155.2029       0.1421
    2767.2793     159.9917       0.1807
    2767.4317     164.0337       0.2144
    2767.5841     164.0540       0.2325
    2767.7365     162.9085       0.2384
    2767.8889     160.3963       0.2391
    2768.0413     159.4542       0.2370
    2768.1937     159.5489       0.2456
    2768.3461     160.6506       0.2700
    2768.4985     162.6034       0.2996
    2768.6509     163.5777       0.3157
    2768.8033     163.0187       0.3135
    2768.9557     161.7756       0.3019
    2769.1081     161.0070       0.2854
    2769.2605     160.1152       0.2672
    2769.4129     159.1662       0.2556
    2769.5653     157.9696       0.2571
    2769.7177     156.9304       0.2658
    2769.8701     155.6077       0.2661
    2770.0225     154.9968       0.2505
    2770.1749     154.4977       0.2318
    2770.3273     155.1721       0.2302
    2770.4797     157.7866       0.2448
    2770.6321     162.9332       0.2519
    2770.7845     169.9288       0.2432
    2770.9369     174.8356       0.2240
    2771.0893     177.8710       0.2130
    2771.2417     178.3783       0.2160
    2771.3941     178.6217       0.2234
    2771.5465     178.2785       0.2267
    2771.6989     176.5173       0.2313
    2771.8513     171.4407       0.2428
    2772.0037     165.9902       0.2556
    2772.1561     160.8687       0.2588
    2772.3085     157.1499       0.2581
    2772.4609     154.9689       0.2669
    2772.6133     154.3438       0.2882
    2772.7657     155.2049       0.3118
    2772.9181     157.1594       0.3262
    2773.0705     159.8165       0.3280
    2773.2229     161.7645       0.3125
    2773.3753     163.1761       0.2801
    2773.5277     164.2875       0.2448
    2773.6801     164.7424       0.2322
    2773.8325     163.5216       0.2530
    2773.9849     160.7367       0.2877
    2774.1373     158.2762       0.3097
    2774.2897     157.4001       0.3034
    2774.4421     158.5625       0.2889
    2774.5945     161.5171       0.2891
    2774.7469     164.0037       0.3032
    2774.8993     167.1818       0.3172
    2775.0517     169.8864       0.3054
    2775.2041     174.5219       0.2780
    2775.3565     176.9618       0.2632
    2775.5089     179.4427       0.2568
    2775.6613     181.6052       0.2957
    2775.8137     184.7868       0.4726
    2775.9661     188.3923       0.7888
    2776.1185     192.2300       1.0687
    2776.2709     196.0730       1.1083
    2776.4233     199.9209       0.9038
    2776.5757     201.1214       0.6499
    2776.7281     198.7441       0.5248
    2776.8805     189.2075       0.5059
    2777.0329     181.4771       0.4663
    2777.1853     175.0115       0.3815
    2777.3377     171.5146       0.2978
    2777.4901     168.1814       0.2541
    2777.6425     164.5947       0.2492
    2777.7949     159.3978       0.2571
    2777.9473     154.6023       0.2641
    2778.0997     152.3739       0.2636
    2778.2521     152.2621       0.2610
    2778.4045     153.7321       0.2614
    2778.5569     155.8992       0.2597
    2778.7093     158.4716       0.2532
    2778.8617     159.5925       0.2473
    2779.0141     162.4722       0.2483
    2779.1665     170.2338       0.2518
    2779.3189     181.6800       0.2506
    2779.4713     187.6931       0.2476
    2779.6237     191.3842       0.2509
    2779.7761     188.2122       0.2654
    2779.9285     186.4982       0.2809
    2780.0809     180.5069       0.2861
    2780.2333     177.0485       0.2781
    2780.3857     172.9833       0.2633
    2780.5381     169.5086       0.2552
    2780.6905     165.4304       0.2581
    2780.8429     162.7795       0.2658
    2780.9953     160.9304       0.2714
    2781.1477     159.7466       0.2710
    2781.3001     158.4217       0.2660
    2781.4525     157.5392       0.2598
    2781.6049     157.2054       0.2551
    2781.7573     157.2310       0.2531
    2781.9097     157.5186       0.2544
    2782.0621     158.5786       0.2576
    2782.2145     160.7012       0.2618
    2782.3669     164.0246       0.2699
    2782.5193     165.4152       0.2852
    2782.6717     163.8361       0.3048
    2782.8241     162.3350       0.3215
    2782.9765     162.3719       0.3248
    2783.1289     163.7841       0.3093
    2783.2813     163.8210       0.2804
    2783.4337     162.9052       0.2565
    2783.5861     159.8221       0.2556
    2783.7385     157.4241       0.2766
    2783.8909     155.1080       0.2995
    2784.0433     153.7658       0.3011
    2784.1957     153.1818       0.2797
    2784.3481     153.2679       0.2534
    2784.5005     153.6924       0.2428
    2784.6529     153.8538       0.2501
    2784.8053     153.3197       0.2604
    2784.9577     151.7451       0.2574
    2785.1101     150.1671       0.2450
    2785.2625    -999.2500       0.2371
    2785.4149    -999.2500    -999.2500
    2785.5673    -999.2500    -999.2500
    2785.7197    -999.2500    -999.2500
    2785.8721     148.6380    -999.2500
    2786.0245    -999.2500       0.4070
    2786.1769    -999.2500    -999.2500
    2786.3293    -999.2500    -999.2500
    2786.4817    -999.2500    -999.2500
    2786.6341     148.6380    -999.2500
    2786.7865    -999.2500       0.2601
    2786.9389    -999.2500    -999.2500
    2787.0913    -999.2500    -999.2500
    2787.2437    -999.2500    -999.2500
    2787.3961    -999.2500       0.2756
    2787.5485    -999.2500    -999.2500
    2787.7009    -999.2500    -999.2500
    2787.8533    -999.2500    -999.2500
    2788.0057    -999.2500    -999.2500
    2788.1581    -999.2500       0.2476
    2788.3105    -999.2500    -999.2500
    2788.4629    -999.2500    -999.2500
    2788.6153    -999.2500    -999.2500
    2788.7677    -999.2500       0.2913
    2788.9201    -999.2500    -999.2500
    2789.0725    -999.2500    -999.2500
    2789.2249    -999.2500    -999.2500
    2789.3773    -999.2500    -999.2500
    2789.5297    -999.2500       0.2759
    2789.6821    -999.2500    -999.2500
    2789.8345    -999.2500    -999.2500
    2789.9869    -999.2500    -999.2500
    2790.1393    -999.2500       0.2470
    2790.2917    -999.2500    -999.2500
    2790.4441    -999.2500    -999.2500
    2790.5965    -999.2500    -999.2500
    2790.7489    -999.2500    -999.2500
    2790.9013    -999.2500       0.3039
    2791.0537    -999.2500    -999.2500
    2791.2061    -999.2500    -999.2500
    2791.3585    -999.2500    -999.2500
    2791.5109    -999.2500    -999.2500
    2791.6633    -999.2500       0.2563
    2791.8157    -999.2500    -999.2500
    2791.9681    -999.2500    -999.2500
    2792.1205    -999.2500    -999.2500
    2792.2729    -999.2500       0.2890
    2792.4253    -999.2500    -999.2500
    2792.5777    -999.2500    -999.2500
    2792.7301    -999.2500    -999.2500
    2792.8825    -999.2500    -999.2500
    2793.0349    -999.2500       0.2964
    2793.1873    -999.2500    -999.2500
    2793.3397    -999.2500    -999.2500
    2793.4921    -999.2500    -999.2500
    2793.6445    -999.2500       0.3018
    2793.7969    -999.2500    -999.2500
    2793.9493    -999.2500    -999.2500
    2794.1017    -999.2500    -999.2500
    2794.2541    -999.2500    -999.2500
    2794.4065    -999.2500       0.2842
    2794.5589    -999.2500    -999.2500
    2794.7113    -999.2500    -999.2500
    2794.8637    -999.2500    -999.2500
    2795.0161    -999.2500      -0.1485
    2795.1685    -999.2500    -999.2500
    2795.3209    -999.2500    -999.2500
    2795.4733    -999.2500    -999.2500
