#------------------------------------------------------------------------------
#
#   Created by  : WOW Log Export Utility
#   Created on  : 2012-02-24 13:45:42
#   Project     : NORNE
#
#------------------------------------------------------------------------------
~Version Information Block
 VERS.                 2.0: CWLS Log ASCII Standard - version 2
 WRAP.                  NO: One line per depth step
~Well Information Block
#MNEMONIC    .UNIT                            Information: Data type
#------------------------------------------------------------------------------
 STRT        .M                                  472.7500: START DEPTH
 STOP        .M                                 2800.7500: STOP DEPTH
 STEP        .M                                    0.1250: SAMPLE RATE
 NULL        .                                  -999.2500: NULL VALUE
 COMP        .                                    STATOIL: Company
 WELL        .                                  6608/10-4: Well
 UWI         .                               NO 6608/10-4: Unique Well ID
 FLD         .                                      NORNE: Field
 CNTY        .                                    UNKNOWN: County
 STAT        .                                    UNKNOWN: State
 CTRY        .                                     Norway: Country
 XCOORD      .                               462006.74350: Surface X
 YCOORD      .                              7324847.22971: Surface Y
 LAT         .                                   66.04035: Latitude
 LON         .                                    8.16159: Longitude
 ELEV        .M                                   23.0000: Surface Elev
 ELEV_TYPE   .                                         KB: Elev Type
~Curve Information Block
#MNEMONIC                   .UNIT                 API CODE      : DESCRIPTION
#------------------------------------------------------------------------------
 DEPTH                      .M                                  :
 CALI                       .inches               UNKNOWN       : Run 1, Ver 1
 GR                         .API                  UNKNOWN       : Run 1, Ver 1
 KLOGH                      .mD                   UNKNOWN       : Run 1, Ver 4
 PHIF                       .v/v decimal          UNKNOWN       : Run 1, Ver 3
 RHOB                       .g/cm3                UNKNOWN       : Run 1, Ver 1
 RT                         .ohm.m                UNKNOWN       : Run 1, Ver 1
 SW                         .v/v decimal          UNKNOWN       : Run 1, Ver 3
~A      DEPTH         CALI           GR        KLOGH         PHIF         RHOB           RT           SW
# ...
    2503.6250      12.5430      70.6787    -999.2500    -999.2500       2.4006       2.1093    -999.2500
    2503.7500      12.5430      70.0616    -999.2500    -999.2500       2.4031       2.1609    -999.2500
    2503.8750      12.4814      70.7869    -999.2500    -999.2500       2.4108       2.2169    -999.2500
    2504.0000      12.4011      70.1628    -999.2500    -999.2500       2.4159       2.2917    -999.2500
    2504.1250      12.3208      66.7502    -999.2500    -999.2500       2.4122       2.3865    -999.2500
    2504.2500      12.2404      60.9023    -999.2500    -999.2500       2.3966       2.4931    -999.2500
    2504.3750      12.1600      57.3585    -999.2500    -999.2500       2.3737       2.6055    -999.2500
    2504.5000      12.0788      55.2146    -999.2500    -999.2500       2.3572       2.7396    -999.2500
    2504.6250      12.1063      56.4908    -999.2500    -999.2500       2.3490       2.8513    -999.2500
    2504.7500      12.1510      56.5564    -999.2500    -999.2500       2.3430       2.9366    -999.2500
    2504.8750      12.1510      53.5828    -999.2500    -999.2500       2.3315       3.0098    -999.2500
    2505.0000      12.1510      52.0380    -999.2500    -999.2500       2.3085       3.0990    -999.2500
    2505.1250      12.1510      49.1853    -999.2500    -999.2500       2.2819       3.1985    -999.2500
    2505.2500      12.2148      49.5189    -999.2500    -999.2500       2.2716       3.2599    -999.2500
    2505.3750      12.2490      52.0967    -999.2500    -999.2500       2.2824       3.2951    -999.2500
    2505.5000      12.2774      56.5274    -999.2500    -999.2500       2.3111       3.3033    -999.2500
    2505.6250      12.3470      62.0154    -999.2500    -999.2500       2.3466       3.2818    -999.2500
    2505.7500      12.3470      64.9201    -999.2500    -999.2500       2.3671       3.2432    -999.2500
    2505.8750      12.4207      62.7552    -999.2500    -999.2500       2.3573       3.2175    -999.2500
    2506.0000      12.4450      60.9493    -999.2500    -999.2500       2.3319       3.1666    -999.2500
    2506.1250      12.3684      59.6616    -999.2500    -999.2500       2.3041       3.1004    -999.2500
    2506.2500      12.2490      58.6220    -999.2500    -999.2500       2.2845       3.0376    -999.2500
    2506.3750      12.2490      57.8120    -999.2500    -999.2500       2.2789       2.9971    -999.2500
    2506.5000      12.2490      57.2991    -999.2500    -999.2500       2.2866       2.9479    -999.2500
    2506.6250      12.2490      55.0029    -999.2500    -999.2500       2.3013       2.8880    -999.2500
    2506.7500      12.2490      54.7968    -999.2500    -999.2500       2.3226       2.8271    -999.2500
    2506.8750      12.2490      57.5464    -999.2500    -999.2500       2.3486       2.7894    -999.2500
    2507.0000      12.2490      61.8049    -999.2500    -999.2500       2.3754       2.7905    -999.2500
    2507.1250      12.2490      62.9764    -999.2500    -999.2500       2.3925       2.8061    -999.2500
    2507.2500      12.2490      64.7173    -999.2500    -999.2500       2.3883       2.8170    -999.2500
    2507.3750      12.2490      66.7623    -999.2500    -999.2500       2.3729       2.8319    -999.2500
    2507.5000      12.2490      66.7228    -999.2500    -999.2500       2.3552       2.8189    -999.2500
    2507.6250      12.2490      64.0209    -999.2500    -999.2500       2.3420       2.7729    -999.2500
    2507.7500      12.2490      60.0989    -999.2500    -999.2500       2.3367       2.7174    -999.2500
    2507.8750      12.2490      56.9508    -999.2500    -999.2500       2.3367       2.6781    -999.2500
    2508.0000      12.2490      59.4488    -999.2500    -999.2500       2.3350       2.7116    -999.2500
    2508.1250      12.2490      59.5458    -999.2500    -999.2500       2.3315       2.7542    -999.2500
    2508.2500      12.2818      56.9963    -999.2500    -999.2500       2.3284       2.7921    -999.2500
    2508.3750      12.3470      53.7238    -999.2500    -999.2500       2.3284       2.8254    -999.2500
    2508.5000      12.3470      51.1097    -999.2500    -999.2500       2.3345       2.8541    -999.2500
    2508.6250      12.3470      51.1067    -999.2500    -999.2500       2.3451       2.8733    -999.2500
    2508.7500      12.3470      52.7227    -999.2500    -999.2500       2.3545       2.8854    -999.2500
    2508.8750      12.3470      55.2635    -999.2500    -999.2500       2.3601       2.9209    -999.2500
    2509.0000      12.3470      58.0206    -999.2500    -999.2500       2.3600       2.9720    -999.2500
    2509.1250      12.3470      60.1708    -999.2500    -999.2500       2.3536       3.0039    -999.2500
    2509.2500      12.3470      59.5481    -999.2500    -999.2500       2.3460       3.0031    -999.2500
    2509.3750      12.3470      59.8207    -999.2500    -999.2500       2.3471       2.9880    -999.2500
    2509.5000      12.3470      59.6577    -999.2500    -999.2500       2.3537       2.9380    -999.2500
    2509.6250      12.3470      59.3491    -999.2500    -999.2500       2.3615       2.8886    -999.2500
    2509.7500      12.3470      58.9692    -999.2500    -999.2500       2.3666       2.8700    -999.2500
    2509.8750      12.3470      57.6090    -999.2500    -999.2500       2.3677       2.8790    -999.2500
    2510.0000      12.3470      58.4124    -999.2500    -999.2500       2.3703       2.8300    -999.2500
    2510.1250      12.3470      58.5359    -999.2500    -999.2500       2.3769       2.7807    -999.2500
    2510.2500      12.3470      60.5074    -999.2500    -999.2500       2.3821       2.7411    -999.2500
    2510.3750      12.3470      62.5888    -999.2500    -999.2500       2.3806       2.7122    -999.2500
    2510.5000      12.3470      61.8286    -999.2500    -999.2500       2.3687       2.6910    -999.2500
    2510.6250      12.3470      61.6744    -999.2500    -999.2500       2.3493       2.6828    -999.2500
    2510.7500      12.3470      59.4397    -999.2500    -999.2500       2.3427       2.6886    -999.2500
    2510.8750      12.3470      59.1052    -999.2500    -999.2500       2.3527       2.6949    -999.2500
    2511.0000      12.3470      59.5958    -999.2500    -999.2500       2.3726       2.7067    -999.2500
    2511.1250      12.3470      60.0275    -999.2500    -999.2500       2.3934       2.7258    -999.2500
    2511.2500      12.3470      60.8534    -999.2500    -999.2500       2.4059       2.7452    -999.2500
    2511.3750      12.3470      60.0616    -999.2500    -999.2500       2.4045       2.7559    -999.2500
    2511.5000      12.3470      60.2200    -999.2500    -999.2500       2.3977       2.7844    -999.2500
    2511.6250      12.3470      60.4925    -999.2500    -999.2500       2.3907       2.8124    -999.2500
    2511.7500      12.3175      60.4867    -999.2500    -999.2500       2.3864       2.8319    -999.2500
    2511.8750      12.2490      60.0769    -999.2500    -999.2500       2.3858       2.8399    -999.2500
    2512.0000      12.2490      59.2843    -999.2500    -999.2500       2.3854       2.8325    -999.2500
    2512.1250      12.2490      58.5526    -999.2500    -999.2500       2.3761       2.8046    -999.2500
    2512.2500      12.2490      55.3870    -999.2500    -999.2500       2.3594       2.7815    -999.2500
    2512.3750      12.2490      52.8429    -999.2500    -999.2500       2.3402       2.7565    -999.2500
    2512.5000      12.2490      52.2389    -999.2500    -999.2500       2.3258       2.7286    -999.2500
    2512.6250      12.2490      52.4569    -999.2500    -999.2500       2.3239       2.7055    -999.2500
    2512.7500      12.2490      55.2310    -999.2500    -999.2500       2.3394       2.6948    -999.2500
    2512.8750      12.2490      59.8102    -999.2500    -999.2500       2.3604       2.6882    -999.2500
    2513.0000      12.2490      62.6429    -999.2500    -999.2500       2.3804       2.6915    -999.2500
    2513.1250      12.2490      63.6526    -999.2500    -999.2500       2.3954       2.7060    -999.2500
