#------------------------------------------------------------------------------
#
#   Created by  : WOW Log Export Utility
#   Created on  : 2012-02-24 13:45:43
#   Project     : NORNE
#
#------------------------------------------------------------------------------
~Version Information Block
 VERS.                 2.0: CWLS Log ASCII Standard - version 2
 WRAP.                  NO: One line per depth step
~Well Information Block
#MNEMONIC    .UNIT                            Information: Data type
#------------------------------------------------------------------------------
 STRT        .M                                 1275.2832: START DEPTH
 STOP        .M                                 2804.7695: STOP DEPTH
 STEP        .M                                    0.1524: SAMPLE RATE
 NULL        .                                  -999.2500: NULL VALUE
 COMP        .                                    STATOIL: Company
 WELL        .                                  6608/10-4: Well
 UWI         .                               NO 6608/10-4: Unique Well ID
 FLD         .                                      NORNE: Field
 CNTY        .                                    UNKNOWN: County
 STAT        .                                    UNKNOWN: State
 CTRY        .                                     Norway: Country
 XCOORD      .                               462006.74350: Surface X
 YCOORD      .                              7324847.22971: Surface Y
 LAT         .                                   66.04035: Latitude
 LON         .                                    8.16159: Longitude
 ELEV        .M                                   23.0000: Surface Elev
 ELEV_TYPE   .                                         KB: Elev Type
~Curve Information Block
#MNEMONIC                   .UNIT                 API CODE      : DESCRIPTION
#------------------------------------------------------------------------------
 DEPTH                      .M                                  :
 DT                         .us/ft                UNKNOWN       : Run 1, Ver 1
 RS                         .OHM.M                UNKNOWN       : Run 1, Ver 1
~A      DEPTH           DT           RS
# ...
    1488.6432     126.5370    -999.2500
    1488.7956     125.7131    -999.2500
    1488.9480     125.0529    -999.2500
    1489.1004     124.2680    -999.2500
    1489.2528     123.2134    -999.2500
    1489.4052     122.5069    -999.2500
    1489.5576     123.1721    -999.2500
    1489.7100     125.9703    -999.2500
    1489.8624     130.4941    -999.2500
    1490.0148     134.8183    -999.2500
    1490.1672     136.7744    -999.2500
    1490.3196     135.7194    -999.2500
    1490.4720     132.7459    -999.2500
    1490.6244     129.8468    -999.2500
    1490.7768     128.3400    -999.2500
    1490.9292     127.8726    -999.2500
    1491.0816     127.2288    -999.2500
    1491.2340     126.0176    -999.2500
    1491.3864     124.9344    -999.2500
    1491.5388     124.9410    -999.2500
    1491.6912     126.2233    -999.2500
    1491.8436     127.6481    -999.2500
    1491.9960     127.6780    -999.2500
    1492.1484     125.9273    -999.2500
    1492.3008     123.6130    -999.2500
    1492.4532     122.4785    -999.2500
    1492.6056     123.5616    -999.2500
    1492.7580     126.1186    -999.2500
    1492.9104     128.4719    -999.2500
    1493.0628     129.6015    -999.2500
    1493.2152     129.5750    -999.2500
    1493.3676     129.0996    -999.2500
    1493.5200     128.7884    -999.2500
    1493.6724     128.7880    -999.2500
    1493.8248     128.7960    -999.2500
    1493.9772     128.7121    -999.2500
    1494.1296     128.3465    -999.2500
    1494.2820     127.6339    -999.2500
    1494.4344     127.3134    -999.2500
    1494.5868     127.9651    -999.2500
    1494.7392     129.3472    -999.2500
    1494.8916     130.6343    -999.2500
    1495.0440     131.1693    -999.2500
    1495.1964     131.2050    -999.2500
    1495.3488     131.4946    -999.2500
    1495.5012     132.0752    -999.2500
    1495.6536     132.2987    -999.2500
    1495.8060     132.0923    -999.2500
    1495.9584     132.1869    -999.2500
    1496.1108     133.2146    -999.2500
    1496.2632     134.8648    -999.2500
    1496.4156     135.9556    -999.2500
    1496.5680     135.8631    -999.2500
    1496.7204     135.2228    -999.2500
    1496.8728     134.9394    -999.2500
    1497.0252     135.2186    -999.2500
    1497.1776     135.5016    -999.2500
    1497.3300     135.1664    -999.2500
    1497.4824     134.2093    -999.2500
    1497.6348     133.1474    -999.2500
    1497.7872     132.3830    -999.2500
    1497.9396     132.0195    -999.2500
    1498.0920     132.0360    -999.2500
    1498.2444     132.1369    -999.2500
    1498.3968     131.8434    -999.2500
    1498.5492     130.9092    -999.2500
    1498.7016     129.4889    -999.2500
    1498.8540     128.1867    -999.2500
    1499.0064     127.4719    -999.2500
    1499.1588     127.2872    -999.2500
    1499.3112     127.1482    -999.2500
    1499.4636     126.6766    -999.2500
    1499.6160     126.2286    -999.2500
    1499.7684     126.3019    -999.2500
    1499.9208     127.1059    -999.2500
    1500.0732     128.3504    -999.2500
    1500.2256     129.4426    -999.2500
    1500.3780     129.9953    -999.2500
    1500.5304     130.0000    -999.2500
    1500.6828     129.7853    -999.2500
    1500.8352     129.5633    -999.2500
    1500.9876     129.5001    -999.2500
    1501.1400     129.5779    -999.2500
    1501.2924     129.5271    -999.2500
    1501.4448     129.3163    -999.2500
    1501.5972     129.0713    -999.2500
    1501.7496     128.8892    -999.2500
    1501.9020     128.8940    -999.2500
    1502.0544     129.1277    -999.2500
    1502.2068     129.3737    -999.2500
    1502.3592     129.4359    -999.2500
    1502.5116     129.3192    -999.2500
    1502.6640     129.1402    -999.2500
    1502.8164     129.2538    -999.2500
    1502.9688     129.9151    -999.2500
    1503.1212     130.7389    -999.2500
    1503.2736     131.1405    -999.2500
    1503.4260     130.9992    -999.2500
    1503.5784     130.6984    -999.2500
    1503.7308     130.8278    -999.2500
    1503.8832     131.6000    -999.2500
    1504.0356     132.7725    -999.2500
    1504.1880     134.0074    -999.2500
    1504.3404     135.1145    -999.2500
    1504.4928     135.8700    -999.2500
    1504.6452     135.8630    -999.2500
    1504.7976     134.8623    -999.2500
    1504.9500     133.1233    -999.2500
    1505.1024     131.4392    -999.2500
    1505.2548     130.6530    -999.2500
    1505.4072     131.2133    -999.2500
    1505.5596     132.8948    -999.2500
    1505.7120     134.9323    -999.2500
    1505.8644     136.5159    -999.2500
    1506.0168     137.0663    -999.2500
    1506.1692     136.4498    -999.2500
    1506.3216     135.1897    -999.2500
    1506.4740     134.1314    -999.2500
    1506.6264     133.7924    -999.2500
    1506.7788     134.2234    -999.2500
    1506.9312     134.9460    -999.2500
    1507.0836     135.3754    -999.2500
    1507.2360     135.3590    -999.2500
    1507.3884     135.1842    -999.2500
    1507.5408     134.9803    -999.2500
    1507.6932     134.4747    -999.2500
    1507.8456     133.4174    -999.2500
    1507.9980     131.7712    -999.2500
    1508.1504     130.2370    -999.2500
    1508.3028     129.7037    -999.2500
    1508.4552     130.3941    -999.2500
    1508.6076     131.9040    -999.2500
    1508.7600     133.4540    -999.2500
    1508.9124     134.3219    -999.2500
    1509.0648     134.1922    -999.2500
    1509.2172     133.4729    -999.2500
    1509.3696     132.7330    -999.2500
    1509.5220     132.4733    -999.2500
    1509.6744     133.1142    -999.2500
    1509.8268     134.7478    -999.2500
    1509.9792     137.1449    -999.2500
    1510.1316     139.5718    -999.2500
    1510.2840     140.9512    -999.2500
    1510.4364     140.5645    -999.2500
    1510.5888     138.8393    -999.2500
    1510.7412     137.1972    -999.2500
    1510.8936     136.8205    -999.2500
    1511.0460     137.3793    -999.2500
    1511.1984     137.2632    -999.2500
    1511.3508     135.0709    -999.2500
    1511.5032     130.9784    -999.2500
    1511.6556     126.9303    -999.2500
    1511.8080     124.9246    -999.2500
    1511.9604     125.3634    -999.2500
    1512.1128     127.2046    -999.2500
    1512.2652     129.0765    -999.2500
    1512.4176     130.3743    -999.2500
    1512.5700     131.3537    -999.2500
    1512.7224     132.3577    -999.2500
    1512.8748     133.2378    -999.2500
    1513.0272     133.7463    -999.2500
    1513.1796     133.9887    -999.2500
    1513.3320     134.2037    -999.2500
    1513.4844     134.6294    -999.2500
    1513.6368     135.1753    -999.2500
    1513.7892     135.6094    -999.2500
    1513.9416     135.8457    -999.2500
    1514.0940     135.9279    -999.2500
    1514.2464     135.9699    -999.2500
    1514.3988     136.0399    -999.2500
    1514.5512     136.0959    -999.2500
    1514.7036     135.9672    -999.2500
    1514.8560     135.6185    -999.2500
    1515.0084     135.3513    -999.2500
    1515.1608     135.6526    -999.2500
    1515.3132     136.6377    -999.2500
    1515.4656     137.8065    -999.2500
    1515.6180     138.4252    -999.2500
    1515.7704     138.1973    -999.2500
    1515.9228     137.4999    -999.2500
    1516.0752     136.8818    -999.2500
    1516.2276     136.6603    -999.2500
    1516.3800     136.8278    -999.2500
    1516.5324     137.2934    -999.2500
    1516.6848     137.9771    -999.2500
    1516.8372     138.6421    -999.2500
    1516.9896     138.9766    -999.2500
    1517.1420     138.8092    -999.2500
    1517.2944     138.2238    -999.2500
    1517.4468     137.4181    -999.2500
    1517.5992     136.6001    -999.2500
    1517.7516     135.8610    -999.2500
    1517.9040     135.3317    -999.2500
    1518.0564     135.1672    -999.2500
    1518.2088     135.2898    -999.2500
    1518.3612     135.4947    -999.2500
    1518.5136     135.5439    -999.2500
    1518.6660     135.3992    -999.2500
    1518.8184     135.2732    -999.2500
    1518.9708     135.3739    -999.2500
