#------------------------------------------------------------------------------
#
#   Created by  : WOW Log Export Utility
#   Created on  : 2012-02-24 13:45:43
#   Project     : NORNE
#
#------------------------------------------------------------------------------
~Version Information Block
 VERS.                 2.0: CWLS Log ASCII Standard - version 2
 WRAP.                  NO: One line per depth step
~Well Information Block
#MNEMONIC    .UNIT                            Information: Data type
#------------------------------------------------------------------------------
 STRT        .M                                 1275.2832: START DEPTH
 STOP        .M                                 2804.7695: STOP DEPTH
 STEP        .M                                    0.1524: SAMPLE RATE
 NULL        .                                  -999.2500: NULL VALUE
 COMP        .                                    STATOIL: Company
 WELL        .                                  6608/10-4: Well
 UWI         .                               NO 6608/10-4: Unique Well ID
 FLD         .                                      NORNE: Field
 CNTY        .                                    UNKNOWN: County
 STAT        .                                    UNKNOWN: State
 CTRY        .                                     Norway: Country
 XCOORD      .                               462006.74350: Surface X
 YCOORD      .                              7324847.22971: Surface Y
 LAT         .                                   66.04035: Latitude
 LON         .                                    8.16159: Longitude
 ELEV        .M                                   23.0000: Surface Elev
 ELEV_TYPE   .                                         KB: Elev Type
~Curve Information Block
#MNEMONIC                   .UNIT                 API CODE      : DESCRIPTION
#------------------------------------------------------------------------------
 DEPTH                      .M                                  :
 DT                         .us/ft                UNKNOWN       : Run 1, Ver 1
 RS                         .OHM.M                UNKNOWN       : Run 1, Ver 1
~A      DEPTH           DT           RS
# ...
    1397.2032     113.3349    -999.2500
    1397.3556     110.4618    -999.2500
    1397.5080     107.4130    -999.2500
    1397.6604     105.0641    -999.2500
    1397.8128     104.0693    -999.2500
    1397.9652     104.6642    -999.2500
    1398.1176     106.4826    -999.2500
    1398.2700     108.8219    -999.2500
    1398.4224     110.8453    -999.2500
    1398.5748     112.0344    -999.2500
    1398.7272     112.5214    -999.2500
    1398.8796     112.5889    -999.2500
    1399.0320     112.4662    -999.2500
    1399.1844     112.5289    -999.2500
    1399.3368     113.4877    -999.2500
    1399.4892     116.0446    -999.2500
    1399.6416     120.0957    -999.2500
    1399.7940     124.4493    -999.2500
    1399.9464     127.4331    -999.2500
    1400.0988     128.4167    -999.2500
    1400.2512     128.1114    -999.2500
    1400.4036     127.6216    -999.2500
    1400.5560     127.5821    -999.2500
    1400.7084     127.5271    -999.2500
    1400.8608     126.7400    -999.2500
    1401.0132     125.3209    -999.2500
    1401.1656     124.0726    -999.2500
    1401.3180     123.5757    -999.2500
    1401.4704     123.6309    -999.2500
    1401.6228     122.8211    -999.2500
    1401.7752     119.5293    -999.2500
    1401.9276     114.0382    -999.2500
    1402.0800     108.5971    -999.2500
    1402.2324     106.3649    -999.2500
    1402.3848     109.2602    -999.2500
    1402.5372     116.2648    -999.2500
    1402.6896     124.1507    -999.2500
    1402.8420     129.6168    -999.2500
    1402.9944     131.0112    -999.2500
    1403.1468     128.6920    -999.2500
    1403.2992     124.7332    -999.2500
    1403.4516     121.2536    -999.2500
    1403.6040     119.3095    -999.2500
    1403.7564     119.0014    -999.2500
    1403.9088     119.4155    -999.2500
    1404.0612     119.7915    -999.2500
    1404.2136     120.1955    -999.2500
    1404.3660     121.2516    -999.2500
    1404.5184     123.4931    -999.2500
    1404.6708     126.4711    -999.2500
    1404.8232     128.8679    -999.2500
    1404.9756     129.2375    -999.2500
    1405.1280     127.4334    -999.2500
    1405.2804     124.6796    -999.2500
    1405.4328     122.3401    -999.2500
    1405.5852     121.0836    -999.2500
    1405.7376     120.3320    -999.2500
    1405.8900     119.3693    -999.2500
    1406.0424     118.4632    -999.2500
    1406.1948     118.3322    -999.2500
    1406.3472     119.2168    -999.2500
    1406.4996     120.3975    -999.2500
    1406.6520     121.0032    -999.2500
    1406.8044     120.9491    -999.2500
    1406.9568     120.9390    -999.2500
    1407.1092     121.6011    -999.2500
    1407.2616     122.8913    -999.2500
    1407.4140     124.3041    -999.2500
    1407.5664     125.0630    -999.2500
    1407.7188     125.0810    -999.2500
    1407.8712     125.0141    -999.2500
    1408.0236     125.2747    -999.2500
    1408.1760     125.8922    -999.2500
    1408.3284     126.1557    -999.2500
    1408.4808     125.2782    -999.2500
    1408.6332     123.8409    -999.2500
    1408.7856     123.6163    -999.2500
    1408.9380     125.5674    -999.2500
    1409.0904     128.9685    -999.2500
    1409.2428     132.0070    -999.2500
    1409.3952     132.6422    -999.2500
    1409.5476     130.8743    -999.2500
    1409.7000     128.7019    -999.2500
    1409.8524     127.8931    -999.2500
    1410.0048     128.9836    -999.2500
    1410.1572     131.0723    -999.2500
    1410.3096     132.3703    -999.2500
    1410.4620     131.6979    -999.2500
    1410.6144     129.5338    -999.2500
    1410.7668     127.0183    -999.2500
    1410.9192     125.2773    -999.2500
    1411.0716     125.0783    -999.2500
    1411.2240     126.2435    -999.2500
    1411.3764     128.1345    -999.2500
    1411.5288     129.8368    -999.2500
    1411.6812     130.2565    -999.2500
    1411.8336     129.0216    -999.2500
    1411.9860     126.9577    -999.2500
    1412.1384     125.5379    -999.2500
    1412.2908     125.7937    -999.2500
    1412.4432     127.4298    -999.2500
    1412.5956     129.2246    -999.2500
    1412.7480     129.9990    -999.2500
    1412.9004     129.3618    -999.2500
    1413.0528     127.8780    -999.2500
    1413.2052     126.5208    -999.2500
    1413.3576     125.9937    -999.2500
    1413.5100     126.3146    -999.2500
    1413.6624     127.1449    -999.2500
    1413.8148     127.8880    -999.2500
    1413.9672     128.0458    -999.2500
    1414.1196     127.4558    -999.2500
    1414.2720     126.2526    -999.2500
    1414.4244     125.1295    -999.2500
    1414.5768     124.9392    -999.2500
    1414.7292     126.1324    -999.2500
    1414.8816     128.4260    -999.2500
    1415.0340     130.6910    -999.2500
    1415.1864     131.5389    -999.2500
    1415.3388     130.5393    -999.2500
    1415.4912     128.3758    -999.2500
    1415.6436     126.3437    -999.2500
    1415.7960     125.5261    -999.2500
    1415.9484     125.9884    -999.2500
    1416.1008     127.0107    -999.2500
    1416.2532     127.9198    -999.2500
    1416.4056     128.5242    -999.2500
    1416.5580     128.6808    -999.2500
    1416.7104     128.6630    -999.2500
    1416.8628     128.5172    -999.2500
    1417.0152     127.6871    -999.2500
    1417.1676     126.0062    -999.2500
    1417.3200     123.6221    -999.2500
    1417.4724     121.4289    -999.2500
    1417.6248     120.9067    -999.2500
    1417.7772     122.9283    -999.2500
    1417.9296     126.7809    -999.2500
    1418.0820     130.6110    -999.2500
    1418.2344     132.8321    -999.2500
    1418.3868     132.8979    -999.2500
    1418.5392     131.5158    -999.2500
    1418.6916     129.6005    -999.2500
    1418.8440     127.7205    -999.2500
    1418.9964     126.2809    -999.2500
    1419.1488     125.7107    -999.2500
    1419.3012     126.4251    -999.2500
    1419.4536     128.2216    -999.2500
    1419.6060     130.3892    -999.2500
    1419.7584     132.0428    -999.2500
    1419.9108     132.3506    -999.2500
    1420.0632     131.1516    -999.2500
    1420.2156     129.1966    -999.2500
    1420.3680     127.6450    -999.2500
    1420.5204     127.3803    -999.2500
    1420.6728     128.6074    -999.2500
    1420.8252     130.5305    -999.2500
    1420.9776     131.9272    -999.2500
    1421.1300     132.2356    -999.2500
    1421.2824     131.2982    -999.2500
    1421.4348     129.2507    -999.2500
    1421.5872     126.3977    -999.2500
    1421.7396     123.1622    -999.2500
    1421.8920     120.5265    -999.2500
    1422.0444     119.6721    -999.2500
    1422.1968     121.2090    -999.2500
    1422.3492     124.5276    -999.2500
    1422.5016     128.3180    -999.2500
    1422.6540     131.1363    -999.2500
    1422.8064     132.0688    -999.2500
    1422.9588     131.1542    -999.2500
    1423.1112     129.0767    -999.2500
    1423.2636     126.9318    -999.2500
    1423.4160     125.7206    -999.2500
    1423.5684     125.8458    -999.2500
    1423.7208     126.8277    -999.2500
    1423.8732     127.8387    -999.2500
    1424.0256     128.1865    -999.2500
    1424.1780     127.8704    -999.2500
    1424.3304     127.4945    -999.2500
    1424.4828     127.3991    -999.2500
    1424.6352     127.2442    -999.2500
    1424.7876     126.2982    -999.2500
    1424.9400     124.3715    -999.2500
    1425.0924     122.3057    -999.2500
    1425.2448     121.7597    -999.2500
    1425.3972     123.8203    -999.2500
    1425.5496     127.7898    -999.2500
    1425.7020     131.5950    -999.2500
    1425.8544     133.2888    -999.2500
    1426.0068     132.2554    -999.2500
    1426.1592     129.5146    -999.2500
    1426.3116     126.7826    -999.2500
    1426.4640     125.0992    -999.2500
    1426.6164     124.7584    -999.2500
    1426.7688     125.4022    -999.2500
    1426.9212     126.1870    -999.2500
    1427.0736     126.4547    -999.2500
    1427.2260     126.0655    -999.2500
    1427.3784     125.4977    -999.2500
    1427.5308     125.6618    -999.2500
