#------------------------------------------------------------------------------
#
#   Created by  : WOW Log Export Utility
#   Created on  : 2012-02-24 13:45:43
#   Project     : NORNE
#
#------------------------------------------------------------------------------
~Version Information Block
 VERS.                 2.0: CWLS Log ASCII Standard - version 2
 WRAP.                  NO: One line per depth step
~Well Information Block
#MNEMONIC    .UNIT                            Information: Data type
#------------------------------------------------------------------------------
 STRT        .M                                 1275.2832: START DEPTH
 STOP        .M                                 2804.7695: STOP DEPTH
 STEP        .M                                    0.1524: SAMPLE RATE
 NULL        .                                  -999.2500: NULL VALUE
 COMP        .                                    STATOIL: Company
 WELL        .                                  6608/10-4: Well
 UWI         .                               NO 6608/10-4: Unique Well ID
 FLD         .                                      NORNE: Field
 CNTY        .                                    UNKNOWN: County
 STAT        .                                    UNKNOWN: State
 CTRY        .                                     Norway: Country
 XCOORD      .                               462006.74350: Surface X
 YCOORD      .                              7324847.22971: Surface Y
 LAT         .                                   66.04035: Latitude
 LON         .                                    8.16159: Longitude
 ELEV        .M                                   23.0000: Surface Elev
 ELEV_TYPE   .                                         KB: Elev Type
~Curve Information Block
#MNEMONIC                   .UNIT                 API CODE      : DESCRIPTION
#------------------------------------------------------------------------------
 DEPTH                      .M                                  :
 DT                         .us/ft                UNKNOWN       : Run 1, Ver 1
 RS                         .OHM.M                UNKNOWN       : Run 1, Ver 1
~A      DEPTH           DT           RS
# ...
    2067.7632     121.8401    -999.2500
    2067.9156     123.7425    -999.2500
    2068.0680     124.8136    -999.2500
    2068.2204     124.4395    -999.2500
    2068.3728     123.2366    -999.2500
    2068.5252     122.3831    -999.2500
    2068.6776     122.6057    -999.2500
    2068.8300     123.9942    -999.2500
    2068.9824     126.2031    -999.2500
    2069.1348     128.6588    -999.2500
    2069.2872     130.8651    -999.2500
    2069.4396     132.1943    -999.2500
    2069.5920     131.9234    -999.2500
    2069.7444     129.9915    -999.2500
    2069.8968     127.5812    -999.2500
    2070.0492     126.3676    -999.2500
    2070.2016     127.4316    -999.2500
    2070.3540     130.3312    -999.2500
    2070.5064     132.9366    -999.2500
    2070.6588     133.1218    -999.2500
    2070.8112     130.4116    -999.2500
    2070.9636     126.1696    -999.2500
    2071.1160     122.6286    -999.2500
    2071.2684     121.2997    -999.2500
    2071.4208     121.3899    -999.2500
    2071.5732     120.7289    -999.2500
    2071.7256     118.2902    -999.2500
    2071.8780     115.2440    -999.2500
    2072.0304     114.0895    -999.2500
    2072.1828     116.2801    -999.2500
    2072.3352     120.7112    -999.2500
    2072.4876     124.6548    -999.2500
    2072.6400     126.4017    -999.2500
    2072.7924     126.3890    -999.2500
    2072.9448     126.1303    -999.2500
    2073.0972     126.8980    -999.2500
    2073.2496     128.4110    -999.2500
    2073.4020     129.5166    -999.2500
    2073.5544     129.4021    -999.2500
    2073.7068     127.9239    -999.2500
    2073.8592     125.9196    -999.2500
    2074.0116     124.7216    -999.2500
    2074.1640     125.2763    -999.2500
    2074.3164     127.4062    -999.2500
    2074.4688     129.9317    -999.2500
    2074.6212     131.1784    -999.2500
    2074.7736     130.3291    -999.2500
    2074.9260     128.1379    -999.2500
    2075.0784     125.8939    -999.2500
    2075.2308     124.7185    -999.2500
    2075.3832     124.8558    -999.2500
    2075.5356     125.4682    -999.2500
    2075.6880     125.6108    -999.2500
    2075.8404     124.9469    -999.2500
    2075.9928     123.7146    -999.2500
    2076.1452     122.4566    -999.2500
    2076.2976     121.7739    -999.2500
    2076.4500     121.9687    -999.2500
    2076.6024     122.8369    -999.2500
    2076.7548     124.0344    -999.2500
    2076.9072     125.2214    -999.2500
    2077.0596     126.2886    -999.2500
    2077.2120     127.2957    -999.2500
    2077.3644     128.0910    -999.2500
    2077.5168     128.4565    -999.2500
    2077.6692     128.0745    -999.2500
    2077.8216     126.9485    -999.2500
    2077.9740     125.3701    -999.2500
    2078.1264     123.5274    -999.2500
    2078.2788     121.5855    -999.2500
    2078.4312     119.7754    -999.2500
    2078.5836     118.7194    -999.2500
    2078.7360     118.9367    -999.2500
    2078.8884     120.4880    -999.2500
    2079.0408     122.7051    -999.2500
    2079.1932     124.5376    -999.2500
    2079.3456     125.7584    -999.2500
    2079.4980     126.5909    -999.2500
    2079.6504     127.3240    -999.2500
    2079.8028     127.8883    -999.2500
    2079.9552     127.6923    -999.2500
    2080.1076     126.3797    -999.2500
    2080.2600     124.1669    -999.2500
    2080.4124     122.1656    -999.2500
    2080.5648     121.6297    -999.2500
    2080.7172     122.8943    -999.2500
    2080.8696     125.0901    -999.2500
    2081.0220     126.6460    -999.2500
    2081.1744     126.4882    -999.2500
    2081.3268     124.6574    -999.2500
    2081.4792     122.0964    -999.2500
    2081.6316     119.7291    -999.2500
    2081.7840     118.0292    -999.2500
    2081.9364     117.2271    -999.2500
    2082.0888     117.3029    -999.2500
    2082.2412     118.0920    -999.2500
    2082.3936     119.2395    -999.2500
    2082.5460     120.1218    -999.2500
    2082.6984     120.6203    -999.2500
    2082.8508     121.2642    -999.2500
    2083.0032     122.3536    -999.2500
    2083.1556     123.5584    -999.2500
    2083.3080     124.0294    -999.2500
    2083.4604     123.1192    -999.2500
    2083.6128     121.3024    -999.2500
    2083.7652     119.7660    -999.2500
    2083.9176     119.2876    -999.2500
    2084.0700     119.7124    -999.2500
    2084.2224     120.2123    -999.2500
    2084.3748     120.2969    -999.2500
    2084.5272     120.2291    -999.2500
    2084.6796     120.4367    -999.2500
    2084.8320     120.9493    -999.2500
    2084.9844     121.4354    -999.2500
    2085.1368     121.7426    -999.2500
    2085.2892     122.2364    -999.2500
    2085.4416     123.3046    -999.2500
    2085.5940     124.6822    -999.2500
    2085.7464     125.5309    -999.2500
    2085.8988     125.3802    -999.2500
    2086.0512     124.4832    -999.2500
    2086.2036     123.6900    -999.2500
    2086.3560     123.6940    -999.2500
    2086.5084     123.9646    -999.2500
    2086.6608     123.3109    -999.2500
    2086.8132     121.0939    -999.2500
    2086.9656     117.6625    -999.2500
    2087.1180     114.1326    -999.2500
    2087.2704     111.7761    -999.2500
    2087.4228     111.1219    -999.2500
    2087.5752     112.2275    -999.2500
    2087.7276     114.9205    -999.2500
    2087.8800     118.4793    -999.2500
    2088.0324     121.7697    -999.2500
    2088.1848     123.6495    -999.2500
    2088.3372     123.8328    -999.2500
    2088.4896     122.9761    -999.2500
    2088.6420     122.4247    -999.2500
    2088.7944     123.0032    -999.2500
    2088.9468     124.3492    -999.2500
    2089.0992     125.8640    -999.2500
    2089.2516     126.8847    -999.2500
    2089.4040     127.0198    -999.2500
    2089.5564     126.3419    -999.2500
    2089.7088     125.0078    -999.2500
    2089.8612     123.3452    -999.2500
    2090.0136     122.2255    -999.2500
    2090.1660     122.4797    -999.2500
    2090.3184     123.8582    -999.2500
    2090.4708     125.3351    -999.2500
    2090.6232     125.8603    -999.2500
    2090.7756     125.0800    -999.2500
    2090.9280     123.7897    -999.2500
    2091.0804     123.0630    -999.2500
    2091.2328     122.9951    -999.2500
    2091.3852     123.1428    -999.2500
    2091.5376     123.2828    -999.2500
    2091.6900     123.5037    -999.2500
    2091.8424     124.1492    -999.2500
    2091.9948     125.2056    -999.2500
    2092.1472     126.1538    -999.2500
    2092.2996     126.3008    -999.2500
    2092.4520     125.6319    -999.2500
    2092.6044     124.7402    -999.2500
    2092.7568     124.1008    -999.2500
    2092.9092     123.8653    -999.2500
    2093.0616     123.6403    -999.2500
    2093.2140     122.9998    -999.2500
    2093.3664     122.0732    -999.2500
    2093.5188     121.4628    -999.2500
    2093.6712     121.2113    -999.2500
    2093.8236     120.8545    -999.2500
    2093.9760     120.4036    -999.2500
    2094.1284     120.1154    -999.2500
    2094.2808     120.2508    -999.2500
    2094.4332     120.5127    -999.2500
    2094.5856     120.0796    -999.2500
    2094.7380     118.8706    -999.2500
    2094.8904     118.0171    -999.2500
    2095.0428     118.6911    -999.2500
    2095.1952     120.6604    -999.2500
    2095.3476     122.6414    -999.2500
    2095.5000     123.3551    -999.2500
    2095.6524     122.7079    -999.2500
    2095.8048     121.8611    -999.2500
    2095.9572     121.7571    -999.2500
    2096.1096     122.3003    -999.2500
    2096.2620     122.6785    -999.2500
    2096.4144     122.3634    -999.2500
    2096.5668     121.5401    -999.2500
    2096.7192     120.9997    -999.2500
    2096.8716     121.3875    -999.2500
    2097.0240     122.3907    -999.2500
    2097.1764     123.3737    -999.2500
    2097.3288     123.7845    -999.2500
    2097.4812     123.3126    -999.2500
    2097.6336     122.0826    -999.2500
    2097.7860     120.5900    -999.2500
    2097.9384     119.8300    -999.2500
    2098.0908     120.5660    -999.2500
