#------------------------------------------------------------------------------
#
#   Created by  : WOW Log Export Utility
#   Created on  : 2012-02-24 13:45:43
#   Project     : NORNE
#
#------------------------------------------------------------------------------
~Version Information Block
 VERS.                 2.0: CWLS Log ASCII Standard - version 2
 WRAP.                  NO: One line per depth step
~Well Information Block
#MNEMONIC    .UNIT                            Information: Data type
#------------------------------------------------------------------------------
 STRT        .M                                 1275.2832: START DEPTH
 STOP        .M                                 2804.7695: STOP DEPTH
 STEP        .M                                    0.1524: SAMPLE RATE
 NULL        .                                  -999.2500: NULL VALUE
 COMP        .                                    STATOIL: Company
 WELL        .                                  6608/10-4: Well
 UWI         .                               NO 6608/10-4: Unique Well ID
 FLD         .                                      NORNE: Field
 CNTY        .                                    UNKNOWN: County
 STAT        .                                    UNKNOWN: State
 CTRY        .                                     Norway: Country
 XCOORD      .                               462006.74350: Surface X
 YCOORD      .                              7324847.22971: Surface Y
 LAT         .                                   66.04035: Latitude
 LON         .                                    8.16159: Longitude
 ELEV        .M                                   23.0000: Surface Elev
 ELEV_TYPE   .                                         KB: Elev Type
~Curve Information Block
#MNEMONIC                   .UNIT                 API CODE      : DESCRIPTION
#------------------------------------------------------------------------------
 DEPTH                      .M                                  :
 DT                         .us/ft                UNKNOWN       : Run 1, Ver 1
 RS                         .OHM.M                UNKNOWN       : Run 1, Ver 1
~A      DEPTH           DT           RS
# ...
    1793.4432     147.5672    -999.2500
    1793.5956     147.6509    -999.2500
    1793.7480     146.2598    -999.2500
    1793.9004     144.1777    -999.2500
    1794.0528     142.7948    -999.2500
    1794.2052     143.1705    -999.2500
    1794.3576     145.1324    -999.2500
    1794.5100     147.3950    -999.2500
    1794.6624     148.6274    -999.2500
    1794.8148     148.3633    -999.2500
    1794.9672     147.5750    -999.2500
    1795.1196     147.8187    -999.2500
    1795.2720     149.7125    -999.2500
    1795.4244     152.3585    -999.2500
    1795.5768     154.0418    -999.2500
    1795.7292     153.6635    -999.2500
    1795.8816     151.5288    -999.2500
    1796.0340     149.0812    -999.2500
    1796.1864     147.8536    -999.2500
    1796.3388     148.4662    -999.2500
    1796.4912     150.5563    -999.2500
    1796.6436     153.1296    -999.2500
    1796.7960     155.0185    -999.2500
    1796.9484     155.4824    -999.2500
    1797.1008     154.3735    -999.2500
    1797.2532     152.1939    -999.2500
    1797.4056     149.9370    -999.2500
    1797.5580     148.4000    -999.2500
    1797.7104     147.9216    -999.2500
    1797.8628     148.1118    -999.2500
    1798.0152     148.0291    -999.2500
    1798.1676     147.0273    -999.2500
    1798.3200     145.3033    -999.2500
    1798.4724     143.9358    -999.2500
    1798.6248     143.7373    -999.2500
    1798.7772     144.5270    -999.2500
    1798.9296     145.4408    -999.2500
    1799.0820     145.8505    -999.2500
    1799.2344     146.2395    -999.2500
    1799.3868     147.3645    -999.2500
    1799.5392     149.1846    -999.2500
    1799.6916     150.4513    -999.2500
    1799.8440     149.7649    -999.2500
    1799.9964     146.8239    -999.2500
    1800.1488     142.6605    -999.2500
    1800.3012     139.1396    -999.2500
    1800.4536     137.4512    -999.2500
    1800.6060     137.8065    -999.2500
    1800.7584     139.5847    -999.2500
    1800.9108     141.7112    -999.2500
    1801.0632     143.3978    -999.2500
    1801.2156     144.3877    -999.2500
    1801.3680     144.6037    -999.2500
    1801.5204     143.9968    -999.2500
    1801.6728     142.9684    -999.2500
    1801.8252     142.1700    -999.2500
    1801.9776     142.4646    -999.2500
    1802.1300     144.0299    -999.2500
    1802.2824     145.8416    -999.2500
    1802.4348     146.7298    -999.2500
    1802.5872     146.3255    -999.2500
    1802.7396     145.2574    -999.2500
    1802.8920     144.4690    -999.2500
    1803.0444     144.3222    -999.2500
    1803.1968     144.3290    -999.2500
    1803.3492     143.9874    -999.2500
    1803.5016     143.4217    -999.2500
    1803.6540     142.9456    -999.2500
    1803.8064     142.6774    -999.2500
    1803.9588     142.4413    -999.2500
    1804.1112     141.7479    -999.2500
    1804.2636     140.3878    -999.2500
    1804.4160     138.7102    -999.2500
    1804.5684     137.5006    -999.2500
    1804.7208     137.4641    -999.2500
    1804.8732     138.6534    -999.2500
    1805.0256     140.3737    -999.2500
    1805.1780     141.6014    -999.2500
    1805.3304     141.9336    -999.2500
    1805.4828     141.6614    -999.2500
    1805.6352     141.5511    -999.2500
    1805.7876     142.3180    -999.2500
    1805.9400     144.0048    -999.2500
    1806.0924     146.4098    -999.2500
    1806.2448     148.9407    -999.2500
    1806.3972     150.7107    -999.2500
    1806.5496     151.0975    -999.2500
    1806.7020     149.9895    -999.2500
    1806.8544     148.0665    -999.2500
    1807.0068     146.4991    -999.2500
    1807.1592     146.0716    -999.2500
    1807.3116     146.4944    -999.2500
    1807.4640     147.0043    -999.2500
    1807.6164     146.9301    -999.2500
    1807.7688     146.1021    -999.2500
    1807.9212     145.2901    -999.2500
    1808.0736     145.2610    -999.2500
    1808.2260     146.0829    -999.2500
    1808.3784     147.0577    -999.2500
    1808.5308     147.1399    -999.2500
    1808.6832     145.8657    -999.2500
    1808.8356     143.7198    -999.2500
    1808.9880     141.7885    -999.2500
    1809.1404     141.0190    -999.2500
    1809.2928     141.7141    -999.2500
    1809.4452     143.3039    -999.2500
    1809.5976     144.7012    -999.2500
    1809.7500     144.8907    -999.2500
    1809.9024     143.5618    -999.2500
    1810.0548     141.5247    -999.2500
    1810.2072     140.1169    -999.2500
    1810.3596     140.1430    -999.2500
    1810.5120     141.2535    -999.2500
    1810.6644     142.4474    -999.2500
    1810.8168     142.7246    -999.2500
    1810.9692     141.8102    -999.2500
    1811.1216     140.0383    -999.2500
    1811.2740     137.7200    -999.2500
    1811.4264     135.3931    -999.2500
    1811.5788     133.7142    -999.2500
    1811.7312     133.3155    -999.2500
    1811.8836     134.2767    -999.2500
    1812.0360     136.0557    -999.2500
    1812.1884     137.8307    -999.2500
    1812.3408     138.9665    -999.2500
    1812.4932     139.7799    -999.2500
    1812.6456     140.7927    -999.2500
    1812.7980     142.2321    -999.2500
    1812.9504     143.8459    -999.2500
    1813.1028     144.9246    -999.2500
    1813.2552     145.0568    -999.2500
    1813.4076     144.3549    -999.2500
    1813.5600     143.3383    -999.2500
    1813.7124     142.3563    -999.2500
    1813.8648     141.5351    -999.2500
    1814.0172     140.9028    -999.2500
    1814.1696     140.2908    -999.2500
    1814.3220     139.4621    -999.2500
    1814.4744     138.2216    -999.2500
    1814.6268     136.7829    -999.2500
    1814.7792     135.7024    -999.2500
    1814.9316     135.6371    -999.2500
    1815.0840     136.8754    -999.2500
    1815.2364     139.0811    -999.2500
    1815.3888     141.5208    -999.2500
    1815.5412     143.4954    -999.2500
    1815.6936     144.6754    -999.2500
    1815.8460     144.9157    -999.2500
    1815.9984     144.4286    -999.2500
    1816.1508     143.5941    -999.2500
    1816.3032     142.8150    -999.2500
    1816.4556     142.5004    -999.2500
    1816.6080     142.5010    -999.2500
    1816.7604     142.2004    -999.2500
    1816.9128     141.1344    -999.2500
    1817.0652     139.2834    -999.2500
    1817.2176     137.0310    -999.2500
    1817.3700     134.9178    -999.2500
    1817.5224     133.1783    -999.2500
    1817.6748     131.6450    -999.2500
    1817.8272     130.1819    -999.2500
    1817.9796     128.9127    -999.2500
    1818.1320     128.2888    -999.2500
    1818.2844     128.6485    -999.2500
    1818.4368     129.5858    -999.2500
    1818.5892     130.1862    -999.2500
    1818.7416     129.6887    -999.2500
    1818.8940     128.0611    -999.2500
    1819.0464     126.3972    -999.2500
    1819.1988     125.9965    -999.2500
    1819.3512     127.2474    -999.2500
    1819.5036     129.7986    -999.2500
    1819.6560     133.0098    -999.2500
    1819.8084     136.2467    -999.2500
    1819.9608     139.0693    -999.2500
    1820.1132     140.7338    -999.2500
    1820.2656     140.2866    -999.2500
    1820.4180     137.5166    -999.2500
    1820.5704     133.2126    -999.2500
    1820.7228     129.1433    -999.2500
    1820.8752     127.0358    -999.2500
    1821.0276     127.7031    -999.2500
    1821.1800     130.7730    -999.2500
    1821.3324     134.8477    -999.2500
    1821.4848     138.1926    -999.2500
    1821.6372     139.3555    -999.2500
    1821.7896     137.7961    -999.2500
    1821.9420     134.2027    -999.2500
    1822.0944     130.4010    -999.2500
    1822.2468     127.7415    -999.2500
    1822.3992     126.3868    -999.2500
    1822.5516     125.7139    -999.2500
    1822.7040     125.2426    -999.2500
    1822.8564     125.4188    -999.2500
    1823.0088     126.8641    -999.2500
    1823.1612     129.2279    -999.2500
    1823.3136     130.8858    -999.2500
    1823.4660     130.5245    -999.2500
    1823.6184     128.2869    -999.2500
    1823.7708     125.9381    -999.2500
