#------------------------------------------------------------------------------
#
#   Created by  : WOW Log Export Utility
#   Created on  : 2012-02-24 13:45:43
#   Project     : NORNE
#
#------------------------------------------------------------------------------
~Version Information Block
 VERS.                 2.0: CWLS Log ASCII Standard - version 2
 WRAP.                  NO: One line per depth step
~Well Information Block
#MNEMONIC    .UNIT                            Information: Data type
#------------------------------------------------------------------------------
 STRT        .M                                 2460.3457: START DEPTH
 STOP        .M                                 2795.6255: STOP DEPTH
 STEP        .M                                    0.1524: SAMPLE RATE
 NULL        .                                  -999.2500: NULL VALUE
 COMP        .                                    STATOIL: Company
 WELL        .                                  6608/10-4: Well
 UWI         .                               NO 6608/10-4: Unique Well ID
 FLD         .                                      NORNE: Field
 CNTY        .                                    UNKNOWN: County
 STAT        .                                    UNKNOWN: State
 CTRY        .                                     Norway: Country
 XCOORD      .                               462006.74350: Surface X
 YCOORD      .                              7324847.22971: Surface Y
 LAT         .                                   66.04035: Latitude
 LON         .                                    8.16159: Longitude
 ELEV        .M                                   23.0000: Surface Elev
 ELEV_TYPE   .                                         KB: Elev Type
~Curve Information Block
#MNEMONIC                   .UNIT                 API CODE      : DESCRIPTION
#------------------------------------------------------------------------------
 DEPTH                      .M                                  :
 DTS                        .us/ft                UNKNOWN       : Run 1, Ver 1
 NPHI                       .v/v decimal          UNKNOWN       : Run 1, Ver 2
~A      DEPTH          DTS         NPHI
# ...
    2582.2657     175.5309       0.3628
    2582.4181     171.7420       0.3687
    2582.5705     172.1345       0.3649
    2582.7229     176.2985       0.3460
    2582.8753     181.2934       0.3127
    2583.0277     184.8443       0.2787
    2583.1801     186.3540       0.2644
    2583.3325     183.5836       0.2768
    2583.4849     178.7783       0.2975
    2583.6373     175.1727       0.3048
    2583.7897     176.4503       0.2973
    2583.9421     180.4937       0.2871
    2584.0945     183.2414       0.2868
    2584.2469     183.1771       0.2965
    2584.3993     181.4223       0.3096
    2584.5517     179.5824       0.3275
    2584.7041     178.7401       0.3465
    2584.8565     178.1987       0.3491
    2585.0089     177.8305       0.3239
    2585.1613     179.8474       0.2765
    2585.3137     184.2173       0.2384
    2585.4661     189.1405       0.2409
    2585.6185     191.8854       0.2865
    2585.7709     191.9689       0.3390
    2585.9233     190.6767       0.3603
    2586.0757     187.8787       0.3444
    2586.2281     185.5081       0.3111
    2586.3805     185.0526       0.2955
    2586.5329     184.9841       0.3074
    2586.6853     185.2317       0.3268
    2586.8377     184.4420       0.3295
    2586.9901     183.1837       0.3184
    2587.1425     180.1320       0.3126
    2587.2949     178.1926       0.3145
    2587.4473     175.6284       0.3208
    2587.5997     174.2338       0.3374
    2587.7521     173.2443       0.3674
    2587.9045     174.0330       0.3833
    2588.0569     174.6202       0.3470
    2588.2093     175.1533       0.2735
    2588.3617     175.0302       0.2135
    2588.5141     175.7181       0.2045
    2588.6665     176.3392       0.2271
    2588.8189     178.7229       0.2413
    2588.9713     180.1202       0.2398
    2589.1237     181.4323       0.2345
    2589.2761     181.6587       0.2310
    2589.4285     182.5698       0.2241
    2589.5809     184.6193       0.2128
    2589.7333     187.8038       0.2057
    2589.8857     190.1190       0.2144
    2590.0381     189.3820       0.2358
    2590.1905     187.3347       0.2581
    2590.3429     183.8945       0.2711
    2590.4953     182.3850       0.2745
    2590.6477     182.3441       0.2741
    2590.8001     184.0518       0.2756
    2590.9525     185.8576       0.2796
    2591.1049     186.7808       0.2753
    2591.2573     187.0896       0.2631
    2591.4097     185.8257       0.2479
    2591.5621     183.5899       0.2403
    2591.7145     182.5554       0.2414
    2591.8669     182.0517       0.2465
    2592.0193     181.4768       0.2483
    2592.1717     180.5302       0.2486
    2592.3241     180.3962       0.2529
    2592.4765     180.8784       0.2609
    2592.6289     182.3461       0.2666
    2592.7813     184.2974       0.2620
    2592.9337     186.1436       0.2510
    2593.0861     187.2525       0.2464
    2593.2385     185.9238       0.2562
    2593.3909     185.2449       0.2781
    2593.5433     185.6295       0.2993
    2593.6957     186.9603       0.3077
    2593.8481     187.5203       0.3004
    2594.0005     187.7587       0.2862
    2594.1529     186.7493       0.2709
    2594.3053     183.8918       0.2558
    2594.4577     181.4113       0.2430
    2594.6101     179.0681       0.2310
    2594.7625     177.5060       0.2275
    2594.9149     176.6381       0.2364
    2595.0673     174.8843       0.2558
    2595.2197     176.1204       0.2795
    2595.3721     177.6340       0.2986
    2595.5245     177.9855       0.3015
    2595.6769     178.3275       0.2889
    2595.8293     179.7931       0.2669
    2595.9817     182.5913       0.2480
    2596.1341     183.4968       0.2388
    2596.2865     181.4966       0.2401
    2596.4389     179.6674       0.2479
    2596.5913     178.2509       0.2589
    2596.7437     178.5456       0.2702
    2596.8961     177.8309       0.2767
    2597.0485     178.5421       0.2785
    2597.2009     179.2531       0.2779
    2597.3533     179.5876       0.2712
    2597.5057     181.7322       0.2586
    2597.6581     179.9673       0.2512
    2597.8105     180.6591       0.2573
    2597.9629     176.3846       0.2760
    2598.1153     174.0600       0.2955
    2598.2677     173.2890       0.3034
    2598.4201     174.9418       0.2792
    2598.5725     176.1125       0.2578
    2598.7249     174.0837       0.2665
    2598.8773     172.2574       0.3180
    2599.0297     164.2355       0.3538
    2599.1821     160.1843       0.3717
    2599.3345     156.4040       0.3953
    2599.4869     156.7635       0.4123
    2599.6393     156.3475       0.4072
    2599.7917     154.9059       0.3722
    2599.9441     158.3585       0.3956
    2600.0965     166.0329       0.4878
    2600.2489     179.2686       0.6008
    2600.4013     177.3565       0.6756
    2600.5537     174.4528       0.7243
    2600.7061     178.2081       0.8007
    2600.8585     186.9935       0.9106
    2601.0109     202.4387       0.9944
    2601.1633     211.1376       0.9531
    2601.3157     212.7599       0.8359
    2601.4681     206.0448       0.7004
    2601.6205     196.0062       0.6193
    2601.7729     190.8577       0.5943
    2601.9253     189.2881       0.6211
    2602.0777     190.1469       0.6825
    2602.2301     191.1876       0.7733
    2602.3825     193.0905       0.8804
    2602.5349     194.5950       0.9480
    2602.6873     193.2008       0.9231
    2602.8397     183.8363       0.8117
    2602.9921     168.9276       0.6970
    2603.1445     155.2160       0.6119
    2603.2969     155.5306       0.5552
    2603.4493     156.1542       0.5628
    2603.6017     156.1171       0.6514
    2603.7541     153.0810       0.7732
    2603.9065     150.8369       0.8556
    2604.0589     149.1971       0.8851
    2604.2113     148.2752       0.9032
    2604.3637     149.7261       0.9454
    2604.5161     152.6202       0.8958
    2604.6685     155.3015       0.7673
    2604.8209     156.4175       0.5911
    2604.9733     154.2878       0.4329
    2605.1257     162.5032       0.3272
    2605.2781     167.5634       0.2682
    2605.4305     172.3427       0.2468
    2605.5829     171.7997       0.2415
    2605.7353     170.5956       0.2329
    2605.8877     169.0740       0.2251
    2606.0401     168.5167       0.2275
    2606.1925     168.3832       0.2334
    2606.3449     173.0179       0.2320
    2606.4973     179.1829       0.2252
    2606.6497     184.4072       0.2264
    2606.8021     185.3578       0.2406
    2606.9545     184.2085       0.2558
    2607.1069     181.7512       0.2584
    2607.2593     179.6298       0.2466
    2607.4117     178.4406       0.2318
    2607.5641     179.2609       0.2218
    2607.7165     180.2117       0.2168
    2607.8689     180.6864       0.2189
    2608.0213     181.3941       0.2284
    2608.1737     183.4164       0.2414
    2608.3261     184.8012       0.2537
    2608.4785     184.8499       0.2609
    2608.6309     183.8164       0.2578
    2608.7833     182.5607       0.2424
    2608.9357     180.4008       0.2213
    2609.0881     176.6200       0.2121
    2609.2405     169.2377       0.2314
    2609.3929     161.6110       0.2698
    2609.5453     155.4361       0.2956
    2609.6977     151.3693       0.2907
    2609.8501     148.5078       0.2651
    2610.0025     146.8672       0.2398
    2610.1549     147.6869       0.2219
    2610.3073     150.8528       0.2040
    2610.4597     155.4540       0.1867
    2610.6121     160.9128       0.1820
    2610.7645     166.9431       0.1923
    2610.9169     170.3595       0.2059
    2611.0693     171.3487       0.2129
    2611.2217     171.1553       0.2144
    2611.3741     172.5971       0.2208
    2611.5265     175.1417       0.2385
    2611.6789     176.2206       0.2618
    2611.8313     175.9663       0.2798
    2611.9837     175.2310       0.2832
    2612.1361     174.8565       0.2694
    2612.2885     174.7142       0.2492
    2612.4409     174.8698       0.2387
    2612.5933     174.9998       0.2451
