#------------------------------------------------------------------------------
#
#   Created by  : WOW Log Export Utility
#   Created on  : 2012-02-24 13:45:42
#   Project     : NORNE
#
#------------------------------------------------------------------------------
~Version Information Block
 VERS.                 2.0: CWLS Log ASCII Standard - version 2
 WRAP.                  NO: One line per depth step
~Well Information Block
#MNEMONIC    .UNIT                            Information: Data type
#------------------------------------------------------------------------------
 STRT        .M                                  472.7500: START DEPTH
 STOP        .M                                 2800.7500: STOP DEPTH
 STEP        .M                                    0.1250: SAMPLE RATE
 NULL        .                                  -999.2500: NULL VALUE
 COMP        .                                    STATOIL: Company
 WELL        .                                  6608/10-4: Well
 UWI         .                               NO 6608/10-4: Unique Well ID
 FLD         .                                      NORNE: Field
 CNTY        .                                    UNKNOWN: County
 STAT        .                                    UNKNOWN: State
 CTRY        .                                     Norway: Country
 XCOORD      .                               462006.74350: Surface X
 YCOORD      .                              7324847.22971: Surface Y
 LAT         .                                   66.04035: Latitude
 LON         .                                    8.16159: Longitude
 ELEV        .M                                   23.0000: Surface Elev
 ELEV_TYPE   .                                         KB: Elev Type
~Curve Information Block
#MNEMONIC                   .UNIT                 API CODE      : DESCRIPTION
#------------------------------------------------------------------------------
 DEPTH                      .M                                  :
 CALI                       .inches               UNKNOWN       : Run 1, Ver 1
 GR                         .API                  UNKNOWN       : Run 1, Ver 1
 KLOGH                      .mD                   UNKNOWN       : Run 1, Ver 4
 PHIF                       .v/v decimal          UNKNOWN       : Run 1, Ver 3
 RHOB                       .g/cm3                UNKNOWN       : Run 1, Ver 1
 RT                         .ohm.m                UNKNOWN       : Run 1, Ver 1
 SW                         .v/v decimal          UNKNOWN       : Run 1, Ver 3
~A      DEPTH         CALI           GR        KLOGH         PHIF         RHOB           RT           SW
# ...
    2551.7500      10.1971      48.8104    -999.2500    -999.2500       2.2524       1.8737    -999.2500
    2551.8750      10.2304      48.6570    -999.2500    -999.2500       2.2474       2.4402    -999.2500
    2552.0000      10.3502      48.5221    -999.2500    -999.2500       2.2408       2.7220    -999.2500
    2552.1250      10.3799      48.5158    -999.2500    -999.2500       2.2333       2.5450    -999.2500
    2552.2500       9.6902      48.9537    -999.2500    -999.2500       2.2239       2.3054    -999.2500
    2552.3750       9.5288      45.5699    -999.2500    -999.2500       2.2119       2.2447    -999.2500
    2552.5000       9.5030      48.2110    -999.2500    -999.2500       2.1981       2.2274    -999.2500
    2552.6250       9.5030      51.7481    -999.2500    -999.2500       2.1854       2.2067    -999.2500
    2552.7500       9.5030      53.8788    -999.2500    -999.2500       2.1797       2.3624    -999.2500
    2552.8750       9.5474      53.4609    -999.2500    -999.2500       2.1856       2.6576    -999.2500
    2553.0000       9.7890      49.9426    -999.2500    -999.2500       2.2015       2.3523    -999.2500
    2553.1250      10.0303      50.8541    -999.2500    -999.2500       2.2234       1.8820    -999.2500
    2553.2500      10.1518      50.4264    -999.2500    -999.2500       2.2459       1.6965    -999.2500
    2553.3750      10.1900      49.0538    -999.2500    -999.2500       2.2636       1.6551    -999.2500
    2553.5000      10.2147      49.3165    -999.2500    -999.2500       2.2744       1.6513    -999.2500
    2553.6250      10.2527      53.3513    -999.2500    -999.2500       2.2806       1.6341    -999.2500
    2553.7500       9.8513      48.4791    -999.2500    -999.2500       2.2850       1.5307    -999.2500
    2553.8750       9.6578      49.2408    -999.2500    -999.2500       2.2884       1.5042    -999.2500
    2554.0000       9.5489      51.1283    -999.2500    -999.2500       2.2897       1.4181    -999.2500
    2554.1250       9.5030      52.4602    -999.2500    -999.2500       2.2866       1.3459    -999.2500
    2554.2500      11.6767      52.7244    -999.2500    -999.2500       2.2783       1.3622    -999.2500
    2554.3750      22.0820      52.4510    -999.2500    -999.2500       2.2673       1.4500    -999.2500
    2554.5000      22.0820      54.9974    -999.2500    -999.2500       2.2561       1.5174    -999.2500
    2554.6250      22.0820      55.1672    -999.2500    -999.2500       2.2475       1.6134    -999.2500
    2554.7500      22.0820      57.9868    -999.2500    -999.2500       2.2443       1.7315    -999.2500
    2554.8750      22.0820      63.1699    -999.2500    -999.2500       2.2486       1.8679    -999.2500
    2555.0000      22.0820      68.5712    -999.2500    -999.2500       2.2599       2.0027    -999.2500
    2555.1250      22.0820      81.2932    -999.2500    -999.2500       2.2763       2.0174    -999.2500
    2555.2500      22.0820      77.7922    -999.2500    -999.2500       2.2951       2.0403    -999.2500
    2555.3750      22.0820      76.9499    -999.2500    -999.2500       2.3134       2.2025    -999.2500
    2555.5000      21.6410      84.8302    -999.2500    -999.2500       2.3271       2.3333    -999.2500
    2555.6250      21.0590     100.1453    -999.2500    -999.2500       2.3316       2.3673    -999.2500
    2555.7500      21.6942     114.0777    -999.2500    -999.2500       2.3282       2.4702    -999.2500
    2555.8750      21.9355     120.0321    -999.2500    -999.2500       2.3215       2.8239    -999.2500
    2556.0000      21.9840     117.5549    -999.2500    -999.2500       2.3153       2.9291    -999.2500
    2556.1250      22.0773     114.9173    -999.2500    -999.2500       2.3142       2.8301    -999.2500
    2556.2500      21.0484     111.0740    -999.2500    -999.2500       2.3210       2.6273    -999.2500
    2556.3750      18.2438     103.6137    -999.2500    -999.2500       2.3316       2.4248    -999.2500
    2556.5000      17.4389     102.6660    -999.2500    -999.2500       2.3403       2.2386    -999.2500
    2556.6250      19.1558     107.5828    -999.2500    -999.2500       2.3452       2.0568    -999.2500
    2556.7500      20.2950     109.4751    -999.2500    -999.2500       2.3463       1.9805    -999.2500
    2556.8750      20.7878     117.0625    -999.2500    -999.2500       2.3464       2.0325    -999.2500
    2557.0000      20.5878     126.5388    -999.2500    -999.2500       2.3483       2.1273    -999.2500
    2557.1250      19.4675     120.2098    -999.2500    -999.2500       2.3504       2.0885    -999.2500
    2557.2500      20.1921     123.1874    -999.2500    -999.2500       2.3491       2.0105    -999.2500
    2557.3750      18.8558     123.9277    -999.2500    -999.2500       2.3431       1.9828    -999.2500
    2557.5000      18.6983     120.7566    -999.2500    -999.2500       2.3341       1.9243    -999.2500
    2557.6250      19.2390     114.9772    -999.2500    -999.2500       2.3265       1.8409    -999.2500
    2557.7500      19.4282     109.8213    -999.2500    -999.2500       2.3230       1.7730    -999.2500
    2557.8750      20.5548     110.6328    -999.2500    -999.2500       2.3221       1.7673    -999.2500
    2558.0000      19.2373     111.3166    -999.2500    -999.2500       2.3223       1.8013    -999.2500
    2558.1250      19.1407     110.1173    -999.2500    -999.2500       2.3233       1.7595    -999.2500
    2558.2500      19.3781     109.1210    -999.2500    -999.2500       2.3269       1.7635    -999.2500
    2558.3750      18.8731     107.8829    -999.2500    -999.2500       2.3369       1.8249    -999.2500
    2558.5000      17.0355     104.2811    -999.2500    -999.2500       2.3544       1.8527    -999.2500
    2558.6250      16.3922     104.8218    -999.2500    -999.2500       2.3759       1.8896    -999.2500
    2558.7500      16.3666     106.1701    -999.2500    -999.2500       2.3976       1.9090    -999.2500
    2558.8750      16.3960     104.9174    -999.2500    -999.2500       2.4189       1.9622    -999.2500
    2559.0000      16.2628      96.8638    -999.2500    -999.2500       2.4392       2.0012    -999.2500
    2559.1250      15.5955      83.4710    -999.2500    -999.2500       2.4549       1.9957    -999.2500
    2559.2500      13.5040      78.4634    -999.2500    -999.2500       2.4599       2.0146    -999.2500
    2559.3750      16.5183      83.4924    -999.2500    -999.2500       2.4494       2.0310    -999.2500
    2559.5000      17.7052      99.6115    -999.2500    -999.2500       2.4245       2.0542    -999.2500
    2559.6250      17.7919     110.8756    -999.2500    -999.2500       2.3917       2.0369    -999.2500
    2559.7500      17.9314     111.3166    -999.2500    -999.2500       2.3609       2.0010    -999.2500
    2559.8750      19.0171     105.2222    -999.2500    -999.2500       2.3390       1.9944    -999.2500
    2560.0000      19.7408     110.0936    -999.2500    -999.2500       2.3250       1.8975    -999.2500
    2560.1250      20.8193     109.9603    -999.2500    -999.2500       2.3150       1.8355    -999.2500
    2560.2500      19.9769     114.9560    -999.2500    -999.2500       2.3060       1.8268    -999.2500
    2560.3750      19.9747     118.4602    -999.2500    -999.2500       2.2974       1.8374    -999.2500
    2560.5000      21.3581     115.4512    -999.2500    -999.2500       2.2920       1.8420    -999.2500
    2560.6250      19.4350     109.5200    -999.2500    -999.2500       2.2937       1.8510    -999.2500
    2560.7500      19.5964     109.7914    -999.2500    -999.2500       2.3042       1.9135    -999.2500
    2560.8750      20.4511     104.7623    -999.2500    -999.2500       2.3211       1.8923    -999.2500
    2561.0000      18.6811      98.4951    -999.2500    -999.2500       2.3380       1.8466    -999.2500
    2561.1250      15.8796      96.5688    -999.2500    -999.2500       2.3464       1.8149    -999.2500
    2561.2500      15.8593     102.5914    -999.2500    -999.2500       2.3424       1.8078    -999.2500
