#------------------------------------------------------------------------------
#
#   Created by  : WOW Log Export Utility
#   Created on  : 2012-02-24 13:45:43
#   Project     : NORNE
#
#------------------------------------------------------------------------------
~Version Information Block
 VERS.                 2.0: CWLS Log ASCII Standard - version 2
 WRAP.                  NO: One line per depth step
~Well Information Block
#MNEMONIC    .UNIT                            Information: Data type
#------------------------------------------------------------------------------
 STRT        .M                                 2460.3457: START DEPTH
 STOP        .M                                 2795.6255: STOP DEPTH
 STEP        .M                                    0.1524: SAMPLE RATE
 NULL        .                                  -999.2500: NULL VALUE
 COMP        .                                    STATOIL: Company
 WELL        .                                  6608/10-4: Well
 UWI         .                               NO 6608/10-4: Unique Well ID
 FLD         .                                      NORNE: Field
 CNTY        .                                    UNKNOWN: County
 STAT        .                                    UNKNOWN: State
 CTRY        .                                     Norway: Country
 XCOORD      .                               462006.74350: Surface X
 YCOORD      .                              7324847.22971: Surface Y
 LAT         .                                   66.04035: Latitude
 LON         .                                    8.16159: Longitude
 ELEV        .M                                   23.0000: Surface Elev
 ELEV_TYPE   .                                         KB: Elev Type
~Curve Information Block
#MNEMONIC                   .UNIT                 API CODE      : DESCRIPTION
#------------------------------------------------------------------------------
 DEPTH                      .M                                  :
 DTS                        .us/ft                UNKNOWN       : Run 1, Ver 1
 NPHI                       .v/v decimal          UNKNOWN       : Run 1, Ver 2
~A      DEPTH          DTS         NPHI
# ...
    2612.7457     175.1258       0.2677
    2612.8981     174.3310       0.2935
    2613.0505     172.8619       0.3044
    2613.2029     170.8267       0.2931
    2613.3553     169.0394       0.2705
    2613.5077     168.5446       0.2503
    2613.6601     169.5886       0.2402
    2613.8125     171.0830       0.2401
    2613.9649     170.7435       0.2432
    2614.1173     169.9550       0.2423
    2614.2697     170.2027       0.2360
    2614.4221     172.3152       0.2327
    2614.5745     174.5650       0.2377
    2614.7269     175.3580       0.2484
    2614.8793     175.0025       0.2519
    2615.0317     174.1012       0.2376
    2615.1841     172.0397       0.2142
    2615.3365     168.0313       0.1997
    2615.4889     162.2546       0.2039
    2615.6413     156.6843       0.2227
    2615.7937     152.9129       0.2447
    2615.9461     151.5358       0.2544
    2616.0985     152.8503       0.2441
    2616.2509     157.2962       0.2207
    2616.4033     163.9603       0.1951
    2616.5557     170.2567       0.1798
    2616.7081     175.7448       0.1848
    2616.8605     180.3320       0.2134
    2617.0129     183.1393       0.2549
    2617.1653     183.9829       0.2911
    2617.3177     182.7376       0.3084
    2617.4701     180.7197       0.3054
    2617.6225     178.2912       0.2906
    2617.7749     176.3855       0.2743
    2617.9273     175.2595       0.2609
    2618.0797     175.3888       0.2520
    2618.2321     176.3597       0.2497
    2618.3845     177.3757       0.2525
    2618.5369     178.1350       0.2546
    2618.6893     178.1030       0.2511
    2618.8417     177.7275       0.2432
    2618.9941     177.4374       0.2365
    2619.1465     177.2992       0.2385
    2619.2989     177.1502       0.2505
    2619.4513     176.2951       0.2626
    2619.6037     175.6808       0.2661
    2619.7561     175.9147       0.2586
    2619.9085     176.6850       0.2457
    2620.0609     177.7157       0.2343
    2620.2133     178.7656       0.2292
    2620.3657     179.9704       0.2292
    2620.5181     180.5403       0.2293
    2620.6705     179.7850       0.2292
    2620.8229     178.2910       0.2328
    2620.9753     177.5560       0.2395
    2621.1277     177.8786       0.2464
    2621.2801     178.7079       0.2503
    2621.4325     179.2343       0.2486
    2621.5849     178.8805       0.2437
    2621.7373     177.5278       0.2367
    2621.8897     175.4787       0.2264
    2622.0421     173.4427       0.2147
    2622.1945     172.4433       0.2082
    2622.3469     172.5638       0.2100
    2622.4993     173.0124       0.2154
    2622.6517     172.9581       0.2207
    2622.8041     172.5665       0.2257
    2622.9565     172.6059       0.2324
    2623.1089     172.9336       0.2410
    2623.2613     173.4373       0.2474
    2623.4137     174.1071       0.2486
    2623.5661     174.6673       0.2441
    2623.7185     174.6510       0.2383
    2623.8709     173.7312       0.2379
    2624.0233     172.3648       0.2426
    2624.1757     171.2495       0.2483
    2624.3281     170.7706       0.2496
    2624.4805     170.8040       0.2459
    2624.6329     170.9668       0.2404
    2624.7853     171.0709       0.2367
    2624.9377     171.1049       0.2359
    2625.0901     171.3007       0.2391
    2625.2425     171.8523       0.2439
    2625.3949     172.4212       0.2439
    2625.5473     172.6866       0.2397
    2625.6997     172.5582       0.2375
    2625.8521     172.1685       0.2408
    2626.0045     171.5788       0.2449
    2626.1569     170.8140       0.2435
    2626.3093     170.2268       0.2359
    2626.4617     170.0173       0.2275
    2626.6141     170.2207       0.2227
    2626.7665     170.7773       0.2215
    2626.9189     171.5899       0.2231
    2627.0713     172.3640       0.2237
    2627.2237     172.8364       0.2179
    2627.3761     173.1086       0.2097
    2627.5285     173.1679       0.2068
    2627.6809     172.9783       0.2112
    2627.8333     172.4547       0.2217
    2627.9857     171.2945       0.2322
    2628.1381     169.6502       0.2396
    2628.2905     167.9722       0.2454
    2628.4429     166.7356       0.2498
    2628.5953     166.2117       0.2495
    2628.7477     166.2340       0.2458
    2628.9001     166.7174       0.2438
    2629.0525     167.8565       0.2446
    2629.2049     169.4559       0.2464
    2629.3573     170.8012       0.2457
    2629.5097     171.5320       0.2449
    2629.6621     171.7367       0.2495
    2629.8145     171.7640       0.2582
    2629.9669     171.8049       0.2619
    2630.1193     171.9248       0.2552
    2630.2717     171.9929       0.2425
    2630.4241     171.8252       0.2306
    2630.5765     171.4934       0.2252
    2630.7289     171.0985       0.2257
    2630.8813     170.5697       0.2310
    2631.0337     169.7770       0.2421
    2631.1861     168.8642       0.2536
    2631.3385     168.3227       0.2580
    2631.4909     168.3110       0.2513
    2631.6433     168.5467       0.2376
    2631.7957     168.7777       0.2216
    2631.9481     168.9737       0.2091
    2632.1005     169.3245       0.2055
    2632.2529     169.8763       0.2068
    2632.4053     170.3354       0.2069
    2632.5577     170.6006       0.2020
    2632.7101     170.7758       0.1954
    2632.8625     170.9638       0.1949
    2633.0149     171.3046       0.2037
    2633.1673     171.7075       0.2187
    2633.3197     172.0326       0.2338
    2633.4721     172.1588       0.2457
    2633.6245    -999.2500       0.2499
    2633.7769    -999.2500       0.2471
    2633.9293     171.6723       0.2448
    2634.0817     171.3884       0.2467
    2634.2341     171.1903       0.2498
    2634.3865    -999.2500       0.2486
    2634.5389    -999.2500       0.2402
    2634.6913     171.5538       0.2280
    2634.8437     171.7128       0.2214
    2634.9961     171.7639       0.2239
    2635.1485    -999.2500       0.2296
    2635.3009    -999.2500       0.2291
    2635.4533     170.2617       0.2161
    2635.6057     169.7087       0.1993
    2635.7581     169.2396       0.1952
    2635.9105    -999.2500       0.2091
    2636.0629    -999.2500       0.2296
    2636.2153     168.9887       0.2420
    2636.3677     169.7110       0.2415
    2636.5201     170.5110       0.2319
    2636.6725     171.3609       0.2238
    2636.8249     172.2468       0.2219
    2636.9773     173.0669       0.2236
    2637.1297     173.6502       0.2265
    2637.2821     174.0295       0.2317
    2637.4345     173.9581       0.2385
    2637.5869     173.5765       0.2452
    2637.7393     172.9328       0.2525
    2637.8917     172.5535       0.2578
    2638.0441     172.3603       0.2561
    2638.1965     172.1463       0.2453
    2638.3489     171.9523       0.2278
    2638.5013     171.9340       0.2142
    2638.6537     172.0578       0.2108
    2638.8061     172.0810       0.2155
    2638.9585     171.8573       0.2200
    2639.1109     171.7362       0.2185
    2639.2633     171.9307       0.2119
    2639.4157     172.3704       0.2069
    2639.5681     172.9932       0.2100
    2639.7205     173.7790       0.2210
    2639.8729     174.5090       0.2305
    2640.0253     174.8475       0.2298
    2640.1777     174.8969       0.2223
    2640.3301     174.6593       0.2168
    2640.4825     174.0997       0.2173
    2640.6349     173.3080       0.2205
    2640.7873     172.1485       0.2204
    2640.9397     171.2092       0.2179
    2641.0921     170.3291       0.2217
    2641.2445     169.9994       0.2343
    2641.3969     169.9750       0.2467
    2641.5493     170.4084       0.2504
    2641.7017     170.9972       0.2449
    2641.8541     171.7600       0.2347
    2642.0065     172.6029       0.2258
    2642.1589     173.0964       0.2193
    2642.3113     173.1779       0.2165
    2642.4637     172.8774       0.2209
    2642.6161     172.3537       0.2318
    2642.7685     171.8417       0.2417
    2642.9209     171.5184       0.2424
    2643.0733     171.7018       0.2329
