#------------------------------------------------------------------------------
#
#   Created by  : WOW Log Export Utility
#   Created on  : 2012-02-24 13:45:42
#   Project     : NORNE
#
#------------------------------------------------------------------------------
~Version Information Block
 VERS.                 2.0: CWLS Log ASCII Standard - version 2
 WRAP.                  NO: One line per depth step
~Well Information Block
#MNEMONIC    .UNIT                            Information: Data type
#------------------------------------------------------------------------------
 STRT        .M                                  472.7500: START DEPTH
 STOP        .M                                 2800.7500: STOP DEPTH
 STEP        .M                                    0.1250: SAMPLE RATE
 NULL        .                                  -999.2500: NULL VALUE
 COMP        .                                    STATOIL: Company
 WELL        .                                  6608/10-4: Well
 UWI         .                               NO 6608/10-4: Unique Well ID
 FLD         .                                      NORNE: Field
 CNTY        .                                    UNKNOWN: County
 STAT        .                                    UNKNOWN: State
 CTRY        .                                     Norway: Country
 XCOORD      .                               462006.74350: Surface X
 YCOORD      .                              7324847.22971: Surface Y
 LAT         .                                   66.04035: Latitude
 LON         .                                    8.16159: Longitude
 ELEV        .M                                   23.0000: Surface Elev
 ELEV_TYPE   .                                         KB: Elev Type
~Curve Information Block
#MNEMONIC                   .UNIT                 API CODE      : DESCRIPTION
#------------------------------------------------------------------------------
 DEPTH                      .M                                  :
 CALI                       .inches               UNKNOWN       : Run 1, Ver 1
 GR                         .API                  UNKNOWN       : Run 1, Ver 1
 KLOGH                      .mD                   UNKNOWN       : Run 1, Ver 4
 PHIF                       .v/v decimal          UNKNOWN       : Run 1, Ver 3
 RHOB                       .g/cm3                UNKNOWN       : Run 1, Ver 1
 RT                         .ohm.m                UNKNOWN       : Run 1, Ver 1
 SW                         .v/v decimal          UNKNOWN       : Run 1, Ver 3
~A      DEPTH         CALI           GR        KLOGH         PHIF         RHOB           RT           SW
# ...
    2186.0000      12.3203      65.0730    -999.2500    -999.2500       2.3286       1.1028    -999.2500
    2186.1250      12.3707      66.6820    -999.2500    -999.2500       2.3212       1.1085    -999.2500
    2186.2500      12.4753      66.9957    -999.2500    -999.2500       2.3105       1.1219    -999.2500
    2186.3750      12.5165      68.8729    -999.2500    -999.2500       2.2994       1.1430    -999.2500
    2186.5000      12.3993      74.1982    -999.2500    -999.2500       2.2911       1.1712    -999.2500
    2186.6250      12.3222      69.6780    -999.2500    -999.2500       2.2893       1.2016    -999.2500
    2186.7500      12.3530      69.5394    -999.2500    -999.2500       2.2979       1.2553    -999.2500
    2186.8750      12.4536      68.1209    -999.2500    -999.2500       2.3158       1.3248    -999.2500
    2187.0000      12.6631      65.3780    -999.2500    -999.2500       2.3411       1.4204    -999.2500
    2187.1250      12.8929      62.6643    -999.2500    -999.2500       2.3709       1.5545    -999.2500
    2187.2500      12.9264      61.6768    -999.2500    -999.2500       2.4013       1.7423    -999.2500
    2187.3750      12.8648      55.4352    -999.2500    -999.2500       2.4294       2.0754    -999.2500
    2187.5000      12.8723      49.9760    -999.2500    -999.2500       2.4590       2.4890    -999.2500
    2187.6250      12.8060      45.8584    -999.2500    -999.2500       2.4916       2.8415    -999.2500
    2187.7500      12.6948      43.4582    -999.2500    -999.2500       2.5233       3.0601    -999.2500
    2187.8750      12.6191      42.3841    -999.2500    -999.2500       2.5451       3.1255    -999.2500
    2188.0000      12.6200      40.3246    -999.2500    -999.2500       2.5392       3.0861    -999.2500
    2188.1250      12.8065      44.0890    -999.2500    -999.2500       2.4950       2.9278    -999.2500
    2188.2500      13.1224      47.7324    -999.2500    -999.2500       2.4384       2.7565    -999.2500
    2188.3750      13.4180      52.6761    -999.2500    -999.2500       2.3862       2.6214    -999.2500
    2188.5000      13.6243      56.2354    -999.2500    -999.2500       2.3497       2.5100    -999.2500
    2188.6250      13.7347      53.0791    -999.2500    -999.2500       2.3341       2.3644    -999.2500
    2188.7500      13.4598      52.3545    -999.2500    -999.2500       2.3388       2.2134    -999.2500
    2188.8750      13.3366      56.1243    -999.2500    -999.2500       2.3512       2.0878    -999.2500
    2189.0000      13.2153      59.4448    -999.2500    -999.2500       2.3652       1.9861    -999.2500
    2189.1250      13.0983      62.0419    -999.2500    -999.2500       2.3792       1.9100    -999.2500
    2189.2500      13.0182      63.7388    -999.2500    -999.2500       2.3935       1.8718    -999.2500
    2189.3750      12.9829      61.6949    -999.2500    -999.2500       2.4101       1.9071    -999.2500
    2189.5000      12.9204      63.8501    -999.2500    -999.2500       2.4278       1.9840    -999.2500
    2189.6250      12.7543      67.5040    -999.2500    -999.2500       2.4414       2.0569    -999.2500
    2189.7500      12.6250      71.4423    -999.2500    -999.2500       2.4483       2.1128    -999.2500
    2189.8750      12.5598      72.2903    -999.2500    -999.2500       2.4475       2.1526    -999.2500
    2190.0000      12.5151      67.3670    -999.2500    -999.2500       2.4399       2.1820    -999.2500
    2190.1250      12.5873      67.9611    -999.2500    -999.2500       2.4285       2.1713    -999.2500
    2190.2500      12.6962      69.7135    -999.2500    -999.2500       2.4176       2.1599    -999.2500
    2190.3750      12.6669      70.5333    -999.2500    -999.2500       2.4080       2.1306    -999.2500
    2190.5000      12.6079      70.8816    -999.2500    -999.2500       2.3996       2.0975    -999.2500
    2190.6250      12.6113      71.1681    -999.2500    -999.2500       2.3927       2.0721    -999.2500
    2190.7500      12.6350      70.8070    -999.2500    -999.2500       2.3874       2.0500    -999.2500
    2190.8750      12.6292      69.6160    -999.2500    -999.2500       2.3844       2.0779    -999.2500
    2191.0000      12.6383      66.5720    -999.2500    -999.2500       2.3815       2.0904    -999.2500
    2191.1250      12.6089      66.5448    -999.2500    -999.2500       2.3779       2.0769    -999.2500
    2191.2500      12.5474      68.6389    -999.2500    -999.2500       2.3732       2.0646    -999.2500
    2191.3750      12.4964      69.4209    -999.2500    -999.2500       2.3680       2.0846    -999.2500
    2191.5000      12.5079      69.4283    -999.2500    -999.2500       2.3638       2.0895    -999.2500
    2191.6250      12.4607      66.4705    -999.2500    -999.2500       2.3640       2.0796    -999.2500
    2191.7500      12.4795      66.0757    -999.2500    -999.2500       2.3683       2.0884    -999.2500
    2191.8750      12.5763      67.2721    -999.2500    -999.2500       2.3754       2.1072    -999.2500
    2192.0000      12.7468      68.8610    -999.2500    -999.2500       2.3837       2.1196    -999.2500
    2192.1250      12.9749      70.6287    -999.2500    -999.2500       2.3917       2.1095    -999.2500
    2192.2500      12.9044      70.4468    -999.2500    -999.2500       2.3982       2.0940    -999.2500
    2192.3750      12.7994      71.8909    -999.2500    -999.2500       2.4034       2.0777    -999.2500
    2192.5000      12.7511      72.1081    -999.2500    -999.2500       2.4069       2.0608    -999.2500
    2192.6250      12.7377      70.5620    -999.2500    -999.2500       2.4087       2.0448    -999.2500
    2192.7500      12.7099      68.4227    -999.2500    -999.2500       2.4087       2.0326    -999.2500
    2192.8750      12.6959      69.0445    -999.2500    -999.2500       2.4073       2.0302    -999.2500
    2193.0000      12.7325      71.3191    -999.2500    -999.2500       2.4056       2.0292    -999.2500
    2193.1250      12.7323      72.6481    -999.2500    -999.2500       2.4041       2.0425    -999.2500
    2193.2500      12.7122      71.6592    -999.2500    -999.2500       2.4017       2.0455    -999.2500
    2193.3750      12.6887      69.4030    -999.2500    -999.2500       2.3979       2.0306    -999.2500
    2193.5000      12.6616      69.1357    -999.2500    -999.2500       2.3931       2.0115    -999.2500
    2193.6250      12.5656      72.8205    -999.2500    -999.2500       2.3900       2.0025    -999.2500
    2193.7500      12.4690      72.6863    -999.2500    -999.2500       2.3896       2.0099    -999.2500
    2193.8750      12.4112      69.5997    -999.2500    -999.2500       2.3907       2.0155    -999.2500
    2194.0000      12.4100      66.1952    -999.2500    -999.2500       2.3925       2.0324    -999.2500
    2194.1250      12.4648      64.9440    -999.2500    -999.2500       2.3944       2.0740    -999.2500
    2194.2500      12.5526      66.2965    -999.2500    -999.2500       2.3962       2.1297    -999.2500
    2194.3750      12.7489      64.4895    -999.2500    -999.2500       2.3984       2.1831    -999.2500
    2194.5000      12.9006      61.2063    -999.2500    -999.2500       2.4007       2.2322    -999.2500
    2194.6250      12.9235      61.0454    -999.2500    -999.2500       2.4016       2.2691    -999.2500
    2194.7500      12.8576      63.3342    -999.2500    -999.2500       2.3997       2.2850    -999.2500
    2194.8750      12.8248      63.6865    -999.2500    -999.2500       2.3950       2.2781    -999.2500
    2195.0000      12.8100      64.2051    -999.2500    -999.2500       2.3912       2.3035    -999.2500
    2195.1250      12.7655      64.1591    -999.2500    -999.2500       2.3907       2.3304    -999.2500
    2195.2500      12.7015      66.5035    -999.2500    -999.2500       2.3912       2.3543    -999.2500
    2195.3750      12.6450      66.4529    -999.2500    -999.2500       2.3900       2.3625    -999.2500
    2195.5000      12.6141      62.6824    -999.2500    -999.2500       2.3848       2.3509    -999.2500
