#------------------------------------------------------------------------------
#
#   Created by  : WOW Log Export Utility
#   Created on  : 2012-02-24 13:45:43
#   Project     : NORNE
#
#------------------------------------------------------------------------------
~Version Information Block
 VERS.                 2.0: CWLS Log ASCII Standard - version 2
 WRAP.                  NO: One line per depth step
~Well Information Block
#MNEMONIC    .UNIT                            Information: Data type
#------------------------------------------------------------------------------
 STRT        .M                                 1275.2832: START DEPTH
 STOP        .M                                 2804.7695: STOP DEPTH
 STEP        .M                                    0.1524: SAMPLE RATE
 NULL        .                                  -999.2500: NULL VALUE
 COMP        .                                    STATOIL: Company
 WELL        .                                  6608/10-4: Well
 UWI         .                               NO 6608/10-4: Unique Well ID
 FLD         .                                      NORNE: Field
 CNTY        .                                    UNKNOWN: County
 STAT        .                                    UNKNOWN: State
 CTRY        .                                     Norway: Country
 XCOORD      .                               462006.74350: Surface X
 YCOORD      .                              7324847.22971: Surface Y
 LAT         .                                   66.04035: Latitude
 LON         .                                    8.16159: Longitude
 ELEV        .M                                   23.0000: Surface Elev
 ELEV_TYPE   .                                         KB: Elev Type
~Curve Information Block
#MNEMONIC                   .UNIT                 API CODE      : DESCRIPTION
#------------------------------------------------------------------------------
 DEPTH                      .M                                  :
 DT                         .us/ft                UNKNOWN       : Run 1, Ver 1
 RS                         .OHM.M                UNKNOWN       : Run 1, Ver 1
~A      DEPTH           DT           RS
# ...
    1580.0832     140.6771    -999.2500
    1580.2356     140.3984    -999.2500
    1580.3880     140.7206    -999.2500
    1580.5404     141.3112    -999.2500
    1580.6928     141.7305    -999.2500
    1580.8452     141.8928    -999.2500
    1580.9976     142.0498    -999.2500
    1581.1500     142.4715    -999.2500
    1581.3024     143.1601    -999.2500
    1581.4548     143.8042    -999.2500
    1581.6072     144.1406    -999.2500
    1581.7596     144.1360    -999.2500
    1581.9120     143.9512    -999.2500
    1582.0644     143.7433    -999.2500
    1582.2168     143.5123    -999.2500
    1582.3692     143.2933    -999.2500
    1582.5216     143.2441    -999.2500
    1582.6740     143.4977    -999.2500
    1582.8264     144.0353    -999.2500
    1582.9788     144.6772    -999.2500
    1583.1312     145.2303    -999.2500
    1583.2836     145.6405    -999.2500
    1583.4360     145.8357    -999.2500
    1583.5884     145.6722    -999.2500
    1583.7408     145.1287    -999.2500
    1583.8932     144.3960    -999.2500
    1584.0456     143.8068    -999.2500
    1584.1980     143.7531    -999.2500
    1584.3504     144.3722    -999.2500
    1584.5028     145.4276    -999.2500
    1584.6552     146.5525    -999.2500
    1584.8076     147.2691    -999.2500
    1584.9600     147.2470    -999.2500
    1585.1124     146.4830    -999.2500
    1585.2648     145.2676    -999.2500
    1585.4172     144.0456    -999.2500
    1585.5696     143.2351    -999.2500
    1585.7220     143.0243    -999.2500
    1585.8744     143.2108    -999.2500
    1586.0268     143.4497    -999.2500
    1586.1792     143.3901    -999.2500
    1586.3316     142.8827    -999.2500
    1586.4840     142.0491    -999.2500
    1586.6364     141.0952    -999.2500
    1586.7888     140.2002    -999.2500
    1586.9412     139.5638    -999.2500
    1587.0936     139.4342    -999.2500
    1587.2460     139.9314    -999.2500
    1587.3984     140.9107    -999.2500
    1587.5508     141.9756    -999.2500
    1587.7032     142.6981    -999.2500
    1587.8556     142.8498    -999.2500
    1588.0080     142.4725    -999.2500
    1588.1604     141.7489    -999.2500
    1588.3128     140.9780    -999.2500
    1588.4652     140.5026    -999.2500
    1588.6176     140.4940    -999.2500
    1588.7700     140.9174    -999.2500
    1588.9224     141.5412    -999.2500
    1589.0748     142.0134    -999.2500
    1589.2272     142.1638    -999.2500
    1589.3796     141.8943    -999.2500
    1589.5320     141.1550    -999.2500
    1589.6844     140.1453    -999.2500
    1589.8368     139.1703    -999.2500
    1589.9892     138.6217    -999.2500
    1590.1416     138.6470    -999.2500
    1590.2940     139.0525    -999.2500
    1590.4464     139.5743    -999.2500
    1590.5988     140.1053    -999.2500
    1590.7512     140.7791    -999.2500
    1590.9036     141.5730    -999.2500
    1591.0560     142.3150    -999.2500
    1591.2084     142.7694    -999.2500
    1591.3608     142.8040    -999.2500
    1591.5132     142.6282    -999.2500
    1591.6656     142.4113    -999.2500
    1591.8180     142.2153    -999.2500
    1591.9704     142.0173    -999.2500
    1592.1228     141.7713    -999.2500
    1592.2752     141.5853    -999.2500
    1592.4276     141.5101    -999.2500
    1592.5800     141.5999    -999.2500
    1592.7324     141.7738    -999.2500
    1592.8848     141.8639    -999.2500
    1593.0372     141.8910    -999.2500
    1593.1896     141.8630    -999.2500
    1593.3420     141.7422    -999.2500
    1593.4944     141.4813    -999.2500
    1593.6468     141.1275    -999.2500
    1593.7992     140.9123    -999.2500
    1593.9516     141.1207    -999.2500
    1594.1040     141.7662    -999.2500
    1594.2564     142.3692    -999.2500
    1594.4088     142.3850    -999.2500
    1594.5612     141.6739    -999.2500
    1594.7136     140.5625    -999.2500
    1594.8660     139.6832    -999.2500
    1595.0184     139.5092    -999.2500
    1595.1708     140.0523    -999.2500
    1595.3232     140.9858    -999.2500
    1595.4756     141.8898    -999.2500
    1595.6280     142.4583    -999.2500
    1595.7804     142.7027    -999.2500
    1595.9328     142.9057    -999.2500
    1596.0852     143.2745    -999.2500
    1596.2376     143.8383    -999.2500
    1596.3900     144.4292    -999.2500
    1596.5424     144.8674    -999.2500
    1596.6948     145.0198    -999.2500
    1596.8472     144.7424    -999.2500
    1596.9996     144.1378    -999.2500
    1597.1520     143.4609    -999.2500
    1597.3044     143.0336    -999.2500
    1597.4568     143.0080    -999.2500
    1597.6092     143.1658    -999.2500
    1597.7616     143.2109    -999.2500
    1597.9140     143.0752    -999.2500
    1598.0664     142.8902    -999.2500
    1598.2188     142.6803    -999.2500
    1598.3712     142.3784    -999.2500
    1598.5236     141.9496    -999.2500
    1598.6760     141.5016    -999.2500
    1598.8284     141.3752    -999.2500
    1598.9808     141.6596    -999.2500
    1599.1332     142.0025    -999.2500
    1599.2856     141.9431    -999.2500
    1599.4380     141.2899    -999.2500
    1599.5904     140.3652    -999.2500
    1599.7428     139.7897    -999.2500
    1599.8952     139.9338    -999.2500
    1600.0476     140.5871    -999.2500
    1600.2000     141.2252    -999.2500
    1600.3524     141.3928    -999.2500
    1600.5048     141.1174    -999.2500
    1600.6572     140.7545    -999.2500
    1600.8096     140.5682    -999.2500
    1600.9620     140.6069    -999.2500
    1601.1144     140.6489    -999.2500
    1601.2668     140.4503    -999.2500
    1601.4192     139.9786    -999.2500
    1601.5716     139.3998    -999.2500
    1601.7240     138.9046    -999.2500
    1601.8764     138.6264    -999.2500
    1602.0288     138.5331    -999.2500
    1602.1812     138.5000    -999.2500
    1602.3336     138.5220    -999.2500
    1602.4860     138.5769    -999.2500
    1602.6384     138.5820    -999.2500
    1602.7908     138.4751    -999.2500
    1602.9432     138.1924    -999.2500
    1603.0956     137.8215    -999.2500
    1603.2480     137.5693    -999.2500
    1603.4004     137.5780    -999.2500
    1603.5528     137.9196    -999.2500
    1603.7052     138.5152    -999.2500
    1603.8576     139.2281    -999.2500
    1604.0100     139.9261    -999.2500
    1604.1624     140.5052    -999.2500
    1604.3148     140.8735    -999.2500
    1604.4672     140.9369    -999.2500
    1604.6196     140.6873    -999.2500
    1604.7720     140.2086    -999.2500
    1604.9244     139.7426    -999.2500
    1605.0768     139.6641    -999.2500
    1605.2292     140.3032    -999.2500
    1605.3816     141.6742    -999.2500
    1605.5340     143.3838    -999.2500
    1605.6864     144.8930    -999.2500
    1605.8388     145.7918    -999.2500
    1605.9912     146.0547    -999.2500
    1606.1436     145.9561    -999.2500
    1606.2960     145.6654    -999.2500
    1606.4484     145.1537    -999.2500
    1606.6008     144.3750    -999.2500
    1606.7532     143.4842    -999.2500
    1606.9056     142.7839    -999.2500
    1607.0580     142.4335    -999.2500
    1607.2104     142.3371    -999.2500
    1607.3628     142.2941    -999.2500
    1607.5152     142.1352    -999.2500
    1607.6676     142.0042    -999.2500
    1607.8200     142.2317    -999.2500
    1607.9724     143.0320    -999.2500
    1608.1248     144.4741    -999.2500
    1608.2772     146.1788    -999.2500
    1608.4296     147.5911    -999.2500
    1608.5820     148.3750    -999.2500
    1608.7344     148.4829    -999.2500
    1608.8868     148.1694    -999.2500
    1609.0392     147.7505    -999.2500
    1609.1916     147.4254    -999.2500
    1609.3440     147.1823    -999.2500
    1609.4964     147.0492    -999.2500
    1609.6488     147.0570    -999.2500
    1609.8012     147.1189    -999.2500
    1609.9536     147.0910    -999.2500
    1610.1060     146.7854    -999.2500
    1610.2584     146.0749    -999.2500
    1610.4108     144.9375    -999.2500
