#------------------------------------------------------------------------------
#
#   Created by  : WOW Log Export Utility
#   Created on  : 2012-02-24 13:45:43
#   Project     : NORNE
#
#------------------------------------------------------------------------------
~Version Information Block
 VERS.                 2.0: CWLS Log ASCII Standard - version 2
 WRAP.                  NO: One line per depth step
~Well Information Block
#MNEMONIC    .UNIT                            Information: Data type
#------------------------------------------------------------------------------
 STRT        .M                                 1275.2832: START DEPTH
 STOP        .M                                 2804.7695: STOP DEPTH
 STEP        .M                                    0.1524: SAMPLE RATE
 NULL        .                                  -999.2500: NULL VALUE
 COMP        .                                    STATOIL: Company
 WELL        .                                  6608/10-4: Well
 UWI         .                               NO 6608/10-4: Unique Well ID
 FLD         .                                      NORNE: Field
 CNTY        .                                    UNKNOWN: County
 STAT        .                                    UNKNOWN: State
 CTRY        .                                     Norway: Country
 XCOORD      .                               462006.74350: Surface X
 YCOORD      .                              7324847.22971: Surface Y
 LAT         .                                   66.04035: Latitude
 LON         .                                    8.16159: Longitude
 ELEV        .M                                   23.0000: Surface Elev
 ELEV_TYPE   .                                         KB: Elev Type
~Curve Information Block
#MNEMONIC                   .UNIT                 API CODE      : DESCRIPTION
#------------------------------------------------------------------------------
 DEPTH                      .M                                  :
 DT                         .us/ft                UNKNOWN       : Run 1, Ver 1
 RS                         .OHM.M                UNKNOWN       : Run 1, Ver 1
~A      DEPTH           DT           RS
# ...
    2738.3232      87.3227   -9999.0000
    2738.4756      85.7147   -9999.0000
    2738.6280      85.7604   -9999.0000
    2738.7804      87.1812   -9999.0000
    2738.9328      88.7797   -9999.0000
    2739.0852      89.7447   -9999.0000
    2739.2376      90.1108   -9999.0000
    2739.3900      90.1889   -9999.0000
    2739.5424      90.3547   -9999.0000
    2739.6948      90.6790   -9999.0000
    2739.8472      91.3453   -9999.0000
    2739.9996      92.7181   -9999.0000
    2740.1520      94.7498   -9999.0000
    2740.3044      96.7313   -9999.0000
    2740.4568      97.6390   -9999.0000
    2740.6092      97.0802   -9999.0000
    2740.7616      95.5535   -9999.0000
    2740.9140      93.9714   -9999.0000
    2741.0664      93.0897   -9999.0000
    2741.2188      93.1284   -9999.0000
    2741.3712      93.7601   -9999.0000
    2741.5236      94.4780   -9999.0000
    2741.6760      94.7637   -9999.0000
    2741.8284      94.1210   -9999.0000
    2741.9808      92.6059   -9999.0000
    2742.1332      90.8298   -9999.0000
    2742.2856      89.3331   -9999.0000
    2742.4380      88.4619   -9999.0000
    2742.5904      88.2746   -9999.0000
    2742.7428      88.5482   -9999.0000
    2742.8952      89.1954   -9999.0000
    2743.0476      90.0186   -9999.0000
    2743.2000      90.4385   -9999.0000
    2743.3524      90.0873   -9999.0000
    2743.5048      89.2151   -9999.0000
    2743.6572      88.4797   -9999.0000
    2743.8096      88.4743   -9999.0000
    2743.9620      89.0301   -9999.0000
    2744.1144      89.4866   -9999.0000
    2744.2668      89.5737   -9999.0000
    2744.4192      89.5434   -9999.0000
    2744.5716      89.9356   -9999.0000
    2744.7240      90.8975   -9999.0000
    2744.8764      91.7793   -9999.0000
    2745.0288      91.8590   -9999.0000
    2745.1812      91.0612   -9999.0000
    2745.3336      89.8143   -9999.0000
    2745.4860      88.7984   -9999.0000
    2745.6384      88.5703   -9999.0000
    2745.7908      89.0190   -9999.0000
    2745.9432      89.7430   -9999.0000
    2746.0956      90.4615   -9999.0000
    2746.2480      90.9553   -9999.0000
    2746.4004      91.2915   -9999.0000
    2746.5528      91.5700   -9999.0000
    2746.7052      91.5927   -9999.0000
    2746.8576      91.1980   -9999.0000
    2747.0100      90.5196   -9999.0000
    2747.1624      89.8753   -9999.0000
    2747.3148      89.5041   -9999.0000
    2747.4672      89.3977   -9999.0000
    2747.6196      89.2968   -9999.0000
    2747.7720      88.9393   -9999.0000
    2747.9244      88.3791   -9999.0000
    2748.0768      87.9475   -9999.0000
    2748.2292      87.9062   -9999.0000
    2748.3816      88.4359   -9999.0000
    2748.5340      89.5875   -9999.0000
    2748.6864      90.8402   -9999.0000
    2748.8388      91.3922   -9999.0000
    2748.9912      90.7009   -9999.0000
    2749.1436      88.8410   -9999.0000
    2749.2960      86.8119   -9999.0000
    2749.4484      86.2259   -9999.0000
    2749.6008      87.5999   -9999.0000
    2749.7532      89.8556   -9999.0000
    2749.9056      91.6011   -9999.0000
    2750.0580      91.9529   -9999.0000
    2750.2104      91.5338   -9999.0000
    2750.3628      91.6551   -9999.0000
    2750.5152      92.6598   -9999.0000
    2750.6676      93.7481   -9999.0000
    2750.8200      94.1202   -9999.0000
    2750.9724      93.7440   -9999.0000
    2751.1248      93.2487   -9999.0000
    2751.2772      93.4631   -9999.0000
    2751.4296      94.3017   -9999.0000
    2751.5820      95.1400   -9999.0000
    2751.7344      95.5168   -9999.0000
    2751.8868      95.3317   -9999.0000
    2752.0392      94.8154   -9999.0000
    2752.1916      94.2571   -9999.0000
    2752.3440      93.9532   -9999.0000
    2752.4964      94.0506   -9999.0000
    2752.6488      94.4586   -9999.0000
    2752.8012      94.7903   -9999.0000
    2752.9536      94.7599   -9999.0000
    2753.1060      94.3876   -9999.0000
    2753.2584      93.9599   -9999.0000
    2753.4108      93.8409   -9999.0000
    2753.5632      94.0216   -9999.0000
    2753.7156      94.1738   -9999.0000
    2753.8680      94.0370   -9999.0000
    2754.0204      93.5801   -9999.0000
    2754.1728      92.7380   -9999.0000
    2754.3252      91.4904   -9999.0000
    2754.4776      90.0841   -9999.0000
    2754.6300      89.1049   -9999.0000
    2754.7824      89.2319   -9999.0000
    2754.9348      90.4654   -9999.0000
    2755.0872      91.7172   -9999.0000
    2755.2396      91.5356   -9999.0000
    2755.3920      89.5670   -9999.0000
    2755.5444      86.9191   -9999.0000
    2755.6968      85.3739   -9999.0000
    2755.8492      86.0089   -9999.0000
    2756.0016      88.1277   -9999.0000
    2756.1540      90.0462   -9999.0000
    2756.3064      90.5864   -9999.0000
    2756.4588      89.7860   -9999.0000
    2756.6112      88.6298   -9999.0000
    2756.7636      88.1514   -9999.0000
    2756.9160      88.7903   -9999.0000
    2757.0684      90.1757   -9999.0000
    2757.2208      91.7570   -9999.0000
    2757.3732      93.2347   -9999.0000
    2757.5256      94.3875   -9999.0000
    2757.6780      95.1859   -9999.0000
    2757.8304      95.4255   -9999.0000
    2757.9828      95.1478   -9999.0000
    2758.1352      94.9176   -9999.0000
    2758.2876      95.2106   -9999.0000
    2758.4400      96.0678   -9999.0000
    2758.5924      96.8007   -9999.0000
    2758.7448      96.6339   -9999.0000
    2758.8972      95.4281   -9999.0000
    2759.0496      93.8652   -9999.0000
    2759.2020      92.7128   -9999.0000
    2759.3544      92.1564   -9999.0000
    2759.5068      92.0912   -9999.0000
    2759.6592      92.1593   -9999.0000
    2759.8116      92.2831   -9999.0000
    2759.9640      92.7391   -9999.0000
    2760.1164      93.6308   -9999.0000
    2760.2688      94.8688   -9999.0000
    2760.4212      96.0487   -9999.0000
    2760.5736      96.5517   -9999.0000
    2760.7260      96.1523   -9999.0000
    2760.8784      95.2568   -9999.0000
    2761.0308      94.4427   -9999.0000
    2761.1832      94.0111   -9999.0000
    2761.3356      93.8071   -9999.0000
    2761.4880      93.4928   -9999.0000
    2761.6404      93.0190   -9999.0000
    2761.7928      92.6203   -9999.0000
    2761.9452      92.4585   -9999.0000
    2762.0976      92.4439   -9999.0000
    2762.2500      92.4313   -9999.0000
    2762.4024      92.3387   -9999.0000
    2762.5548      92.1203   -9999.0000
    2762.7072      91.8834   -9999.0000
    2762.8596      91.7200   -9999.0000
    2763.0120      91.7758   -9999.0000
    2763.1644      92.3280   -9999.0000
    2763.3168      93.2891   -9999.0000
    2763.4692      94.0633   -9999.0000
    2763.6216      94.0966   -9999.0000
    2763.7740      93.5503   -9999.0000
    2763.9264      93.1045   -9999.0000
    2764.0788      93.3798   -9999.0000
    2764.2312      94.2424   -9999.0000
    2764.3836      94.8161   -9999.0000
    2764.5360      94.6649   -9999.0000
    2764.6884      94.2762   -9999.0000
    2764.8408      94.2237   -9999.0000
    2764.9932      94.4085   -9999.0000
    2765.1456      94.2169   -9999.0000
    2765.2980      93.1473   -9999.0000
    2765.4504      91.6132   -9999.0000
    2765.6028      90.3326   -9999.0000
    2765.7552      89.3749   -9999.0000
    2765.9076      88.2654   -9999.0000
    2766.0600      86.5308   -9999.0000
    2766.2124      84.2223   -9999.0000
    2766.3648      81.8288   -9999.0000
    2766.5172      80.2212   -9999.0000
    2766.6696      80.1377   -9999.0000
    2766.8220      82.1121   -9999.0000
    2766.9744      86.0934   -9999.0000
    2767.1268      90.7468   -9999.0000
    2767.2792      94.2659   -9999.0000
    2767.4316      95.4075   -9999.0000
    2767.5840      94.0066   -9999.0000
    2767.7364      91.0317   -9999.0000
    2767.8888      88.0027   -9999.0000
    2768.0412      85.9775   -9999.0000
    2768.1936      85.6884   -9999.0000
    2768.3460      87.4031   -9999.0000
    2768.4984      90.3209   -9999.0000
    2768.6508      92.8684   -9999.0000
