#------------------------------------------------------------------------------
#
#   Created by  : WOW Log Export Utility
#   Created on  : 2012-02-24 13:45:43
#   Project     : NORNE
#
#------------------------------------------------------------------------------
~Version Information Block
 VERS.                 2.0: CWLS Log ASCII Standard - version 2
 WRAP.                  NO: One line per depth step
~Well Information Block
#MNEMONIC    .UNIT                            Information: Data type
#------------------------------------------------------------------------------
 STRT        .M                                 1275.2832: START DEPTH
 STOP        .M                                 2804.7695: STOP DEPTH
 STEP        .M                                    0.1524: SAMPLE RATE
 NULL        .                                  -999.2500: NULL VALUE
 COMP        .                                    STATOIL: Company
 WELL        .                                  6608/10-4: Well
 UWI         .                               NO 6608/10-4: Unique Well ID
 FLD         .                                      NORNE: Field
 CNTY        .                                    UNKNOWN: County
 STAT        .                                    UNKNOWN: State
 CTRY        .                                     Norway: Country
 XCOORD      .                               462006.74350: Surface X
 YCOORD      .                              7324847.22971: Surface Y
 LAT         .                                   66.04035: Latitude
 LON         .                                    8.16159: Longitude
 ELEV        .M                                   23.0000: Surface Elev
 ELEV_TYPE   .                                         KB: Elev Type
~Curve Information Block
#MNEMONIC                   .UNIT                 API CODE      : DESCRIPTION
#------------------------------------------------------------------------------
 DEPTH                      .M                                  :
 DT                         .us/ft                UNKNOWN       : Run 1, Ver 1
 RS                         .OHM.M                UNKNOWN       : Run 1, Ver 1
~A      DEPTH           DT           RS
# ...
    2159.2032     124.3779    -999.2500
    2159.3556     125.2269    -999.2500
    2159.5080     125.5835    -999.2500
    2159.6604     125.3313    -999.2500
    2159.8128     124.6749    -999.2500
    2159.9652     123.8611    -999.2500
    2160.1176     122.9552    -999.2500
    2160.2700     122.1421    -999.2500
    2160.4224     121.5478    -999.2500
    2160.5748     120.9168    -999.2500
    2160.7272     119.9563    -999.2500
    2160.8796     118.9873    -999.2500
    2161.0320     118.7733    -999.2500
    2161.1844     119.9694    -999.2500
    2161.3368     122.2860    -999.2500
    2161.4892     124.3553    -999.2500
    2161.6416     125.1619    -999.2500
    2161.7940     124.8035    -999.2500
    2161.9464     124.1339    -999.2500
    2162.0988     123.8024    -999.2500
    2162.2512     123.7141    -999.2500
    2162.4036     123.3665    -999.2500
    2162.5560     122.4702    -999.2500
    2162.7084     121.3205    -999.2500
    2162.8608     120.5770    -999.2500
    2163.0132     120.8417    -999.2500
    2163.1656     121.9955    -999.2500
    2163.3180     123.3792    -999.2500
    2163.4704     124.3028    -999.2500
    2163.6228     124.3749    -999.2500
    2163.7752     123.9765    -999.2500
    2163.9276     123.3898    -999.2500
    2164.0800     122.3643    -999.2500
    2164.2324     120.7691    -999.2500
    2164.3848     118.9394    -999.2500
    2164.5372     117.9044    -999.2500
    2164.6896     118.6430    -999.2500
    2164.8420     120.8092    -999.2500
    2164.9944     122.9791    -999.2500
    2165.1468     124.0536    -999.2500
    2165.2992     123.9042    -999.2500
    2165.4516     123.1450    -999.2500
    2165.6040     122.6596    -999.2500
    2165.7564     122.7229    -999.2500
    2165.9088     123.0825    -999.2500
    2166.0612     123.4765    -999.2500
    2166.2136     123.4610    -999.2500
    2166.3660     122.7699    -999.2500
    2166.5184     121.7823    -999.2500
    2166.6708     121.1538    -999.2500
    2166.8232     121.1141    -999.2500
    2166.9756     121.4635    -999.2500
    2167.1280     121.7097    -999.2500
    2167.2804     121.5552    -999.2500
    2167.4328     121.3363    -999.2500
    2167.5852     121.3340    -999.2500
    2167.7376     121.3949    -999.2500
    2167.8900     121.3990    -999.2500
    2168.0424     121.4360    -999.2500
    2168.1948     121.6907    -999.2500
    2168.3472     122.3042    -999.2500
    2168.4996     122.8902    -999.2500
    2168.6520     122.7682    -999.2500
    2168.8044     121.7124    -999.2500
    2168.9568     120.1870    -999.2500
    2169.1092     119.0575    -999.2500
    2169.2616     119.0860    -999.2500
    2169.4140     120.4532    -999.2500
    2169.5664     122.5652    -999.2500
    2169.7188     124.7012    -999.2500
    2169.8712     125.9374    -999.2500
    2170.0236     125.5655    -999.2500
    2170.1760     123.7314    -999.2500
    2170.3284     121.2393    -999.2500
    2170.4808     119.4084    -999.2500
    2170.6332     118.8947    -999.2500
    2170.7856     119.2316    -999.2500
    2170.9380     119.3818    -999.2500
    2171.0904     118.9336    -999.2500
    2171.2428     118.5305    -999.2500
    2171.3952     118.8316    -999.2500
    2171.5476     119.8487    -999.2500
    2171.7000     120.8157    -999.2500
    2171.8524     121.0916    -999.2500
    2172.0048     120.8134    -999.2500
    2172.1572     120.4395    -999.2500
    2172.3096     120.3411    -999.2500
    2172.4620     120.5937    -999.2500
    2172.6144     121.0844    -999.2500
    2172.7668     121.9019    -999.2500
    2172.9192     123.0635    -999.2500
    2173.0716     124.1506    -999.2500
    2173.2240     124.6404    -999.2500
    2173.3764     124.3634    -999.2500
    2173.5288     123.6499    -999.2500
    2173.6812     123.0518    -999.2500
    2173.8336     122.7664    -999.2500
    2173.9860     122.4005    -999.2500
    2174.1384     121.6480    -999.2500
    2174.2908     120.7062    -999.2500
    2174.4432     119.9280    -999.2500
    2174.5956     119.6414    -999.2500
    2174.7480     119.8517    -999.2500
    2174.9004     120.1926    -999.2500
    2175.0528     120.5765    -999.2500
    2175.2052     121.0664    -999.2500
    2175.3576     121.5534    -999.2500
    2175.5100     121.8536    -999.2500
    2175.6624     121.7691    -999.2500
    2175.8148     121.4025    -999.2500
    2175.9672     121.3511    -999.2500
    2176.1196     122.1649    -999.2500
    2176.2720     123.4893    -999.2500
    2176.4244     124.6635    -999.2500
    2176.5768     125.4859    -999.2500
    2176.7292     126.1971    -999.2500
    2176.8816     127.2946    -999.2500
    2177.0340     128.5693    -999.2500
    2177.1864     129.2691    -999.2500
    2177.3388     129.1312    -999.2500
    2177.4912     128.7745    -999.2500
    2177.6436     128.6262    -999.2500
    2177.7960     128.5741    -999.2500
    2177.9484     128.4811    -999.2500
    2178.1008     128.0905    -999.2500
    2178.2532     127.6186    -999.2500
    2178.4056     127.3174    -999.2500
    2178.5580     127.1642    -999.2500
    2178.7104     127.2349    -999.2500
    2178.8628     127.8452    -999.2500
    2179.0152     129.0844    -999.2500
    2179.1676     130.3443    -999.2500
    2179.3200     131.0641    -999.2500
    2179.4724     130.8962    -999.2500
    2179.6248     129.9762    -999.2500
    2179.7772     128.9004    -999.2500
    2179.9296     128.2249    -999.2500
    2180.0820     128.3069    -999.2500
    2180.2344     128.9282    -999.2500
    2180.3868     129.5602    -999.2500
    2180.5392     129.3992    -999.2500
    2180.6916     127.8930    -999.2500
    2180.8440     125.2804    -999.2500
    2180.9964     122.1881    -999.2500
    2181.1488     119.3967    -999.2500
    2181.3012     117.7611    -999.2500
    2181.4536     117.9258    -999.2500
    2181.6060     119.2912    -999.2500
    2181.7584     120.7591    -999.2500
    2181.9108     121.4171    -999.2500
    2182.0632     120.8018    -999.2500
    2182.2156     119.6954    -999.2500
    2182.3680     118.7992    -999.2500
    2182.5204     117.9741    -999.2500
    2182.6728     116.9823    -999.2500
    2182.8252     116.1890    -999.2500
    2182.9776     116.2509    -999.2500
    2183.1300     117.3825    -999.2500
    2183.2824     118.6364    -999.2500
    2183.4348     118.2116    -999.2500
    2183.5872     115.6294    -999.2500
    2183.7396     112.4072    -999.2500
    2183.8920     110.6633    -999.2500
    2184.0444     111.7066    -999.2500
    2184.1968     115.0017    -999.2500
    2184.3492     118.7571    -999.2500
    2184.5016     121.6332    -999.2500
    2184.6540     123.2229    -999.2500
    2184.8064     123.8002    -999.2500
    2184.9588     123.7321    -999.2500
    2185.1112     123.0179    -999.2500
    2185.2636     121.5429    -999.2500
    2185.4160     119.3189    -999.2500
    2185.5684     116.8922    -999.2500
    2185.7208     115.3960    -999.2500
    2185.8732     115.7166    -999.2500
    2186.0256     117.8861    -999.2500
    2186.1780     120.9240    -999.2500
    2186.3304     123.3608    -999.2500
    2186.4828     123.8354    -999.2500
    2186.6352     121.3553    -999.2500
    2186.7876     115.9881    -999.2500
    2186.9400     109.0801    -999.2500
    2187.0924     102.4717    -999.2500
    2187.2448      96.8305    -999.2500
    2187.3972      91.2519    -999.2500
    2187.5496      85.2903    -999.2500
    2187.7020      80.9306    -999.2500
    2187.8544      81.8354    -999.2500
    2188.0068      89.5533    -999.2500
    2188.1592     101.0170    -999.2500
    2188.3116     110.6144    -999.2500
    2188.4640     114.6217    -999.2500
    2188.6164     113.5245    -999.2500
    2188.7688     110.3102    -999.2500
    2188.9212     107.1591    -999.2500
    2189.0736     104.1609    -999.2500
    2189.2260     100.7095    -999.2500
    2189.3784      97.1950    -999.2500
    2189.5308      94.8364    -999.2500
