#------------------------------------------------------------------------------
#
#   Created by  : WOW Log Export Utility
#   Created on  : 2012-02-24 13:45:43
#   Project     : NORNE
#
#------------------------------------------------------------------------------
~Version Information Block
 VERS.                 2.0: CWLS Log ASCII Standard - version 2
 WRAP.                  NO: One line per depth step
~Well Information Block
#MNEMONIC    .UNIT                            Information: Data type
#------------------------------------------------------------------------------
 STRT        .M                                 2460.3457: START DEPTH
 STOP        .M                                 2795.6255: STOP DEPTH
 STEP        .M                                    0.1524: SAMPLE RATE
 NULL        .                                  -999.2500: NULL VALUE
 COMP        .                                    STATOIL: Company
 WELL        .                                  6608/10-4: Well
 UWI         .                               NO 6608/10-4: Unique Well ID
 FLD         .                                      NORNE: Field
 CNTY        .                                    UNKNOWN: County
 STAT        .                                    UNKNOWN: State
 CTRY        .                                     Norway: Country
 XCOORD      .                               462006.74350: Surface X
 YCOORD      .                              7324847.22971: Surface Y
 LAT         .                                   66.04035: Latitude
 LON         .                                    8.16159: Longitude
 ELEV        .M                                   23.0000: Surface Elev
 ELEV_TYPE   .                                         KB: Elev Type
~Curve Information Block
#MNEMONIC                   .UNIT                 API CODE      : DESCRIPTION
#------------------------------------------------------------------------------
 DEPTH                      .M                                  :
 DTS                        .us/ft                UNKNOWN       : Run 1, Ver 1
 NPHI                       .v/v decimal          UNKNOWN       : Run 1, Ver 2
~A      DEPTH          DTS         NPHI
# ...
    2551.7857     171.9650       1.2805
    2551.9381     171.9650       1.2108
    2552.0905     171.9650       1.1140
    2552.2429     171.9650       1.0431
    2552.3953     171.9650       1.0249
    2552.5477     171.9650       1.0333
    2552.7001     171.9650       1.0283
    2552.8525     171.9650       0.9943
    2553.0049     171.9650       0.9741
    2553.1573     171.9650       1.0553
    2553.3097     171.9650       1.1995
    2553.4621     171.9650       1.2536
    2553.6145     171.9650       1.1565
    2553.7669     171.9650       1.0130
    2553.9193     171.9650       0.9414
    2554.0717     171.9650       0.9746
    2554.2241     171.9650       1.0347
    2554.3765     171.9650       1.0616
    2554.5289     171.9650       1.0420
    2554.6813     171.9650       0.9747
    2554.8337     171.9650       0.9199
    2554.9861     171.9650       0.9545
    2555.1385     171.9650       1.0747
    2555.2909     171.9650       1.1718
    2555.4433     171.9650       1.1496
    2555.5957     171.9650       1.0389
    2555.7481     171.9650       0.9253
    2555.9005     171.9650       0.8673
    2556.0529     171.9650       0.8682
    2556.2053     171.9650       0.8815
    2556.3577     171.9650       0.8795
    2556.5101     171.9650       0.8834
    2556.6625     171.9650       0.9310
    2556.8149     171.9650       1.0042
    2556.9673     171.9650       1.0408
    2557.1197     171.9650       0.9864
    2557.2721     171.9650       0.8624
    2557.4245     171.9650       0.7687
    2557.5769     171.9650       0.7455
    2557.7293     171.9650       0.7547
    2557.8817     171.9650       0.7829
    2558.0341     171.9650       0.8452
    2558.1865     171.9650       0.9140
    2558.3389     171.9650       0.9283
    2558.4913     171.9650       0.8768
    2558.6437     171.9650       0.7958
    2558.7961     171.9650       0.7166
    2558.9485     171.9650       0.6379
    2559.1009     171.9650       0.5318
    2559.2533     171.9650       0.4775
    2559.4057     171.9650       0.5486
    2559.5581     171.9650       0.7498
    2559.7105     171.9650       1.0045
    2559.8629     171.9650       1.2095
    2560.0153     171.9650       1.3180
    2560.1677     171.9650       1.3164
    2560.3201     171.9650       1.2513
    2560.4725     171.9650       1.1809
    2560.6249     171.9650       1.1378
    2560.7773     171.9650       1.1286
    2560.9297     171.9650       1.1244
    2561.0821     171.9650       1.0905
    2561.2345     171.9650       1.0021
    2561.3869     171.9650       0.8736
    2561.5393     171.9650       0.7514
    2561.6917     171.9650       0.6892
    2561.8441     171.9650       0.7578
    2561.9965     171.9650       0.9522
    2562.1489     171.9650       1.1670
    2562.3013     171.9650       1.2804
    2562.4537     171.9650       1.2208
    2562.6061     171.9650       1.0329
    2562.7585     171.9650       0.8917
    2562.9109     171.9650       0.9300
    2563.0633     171.9650       1.0731
    2563.2157     171.9650       1.1819
    2563.3681     171.9650       1.2164
    2563.5205     171.9650       1.2083
    2563.6729     171.9650       1.2256
    2563.8253     171.9650       1.2887
    2563.9777     171.9650       1.2917
    2564.1301     171.9650       1.1616
    2564.2825     171.9650       0.9655
    2564.4349     171.9650       0.8161
    2564.5873     171.9650       0.7864
    2564.7397     171.9650       0.8460
    2564.8921     171.9650       0.8483
    2565.0445     171.9650       0.7231
    2565.1969     176.6708       0.5704
    2565.3493     180.8905       0.5173
    2565.5017     184.1827       0.6303
    2565.6541     188.7380       0.9000
    2565.8065     192.9075       1.1787
    2565.9589     197.0266       1.3064
    2566.1113     201.0357       1.2717
    2566.2637     204.9139       1.1696
    2566.4161     208.4264       1.0830
    2566.5685     211.1954       0.9880
    2566.7209     213.3681       0.8491
    2566.8733     214.9499       0.6471
    2567.0257     215.1477       0.4903
    2567.1781     211.8733       0.4178
    2567.3305     204.7663       0.3824
    2567.4829     196.4150       0.3598
    2567.6353     190.0234       0.3427
    2567.7877     186.2410       0.3368
    2567.9401     183.5056       0.3287
    2568.0925     181.7094       0.3156
    2568.2449     180.8571       0.3061
    2568.3973     180.0850       0.3011
    2568.5497     180.1120       0.2977
    2568.7021     181.9346       0.2874
    2568.8545     184.8731       0.2748
    2569.0069     188.9876       0.2660
    2569.1593     194.7395       0.2642
    2569.3117     201.3663       0.2720
    2569.4641     206.8288       0.3001
    2569.6165     208.4519       0.3473
    2569.7689     207.0758       0.3903
    2569.9213     204.5463       0.4075
    2570.0737     201.9564       0.3956
    2570.2261     200.0605       0.3670
    2570.3785     198.7627       0.3402
    2570.5309     198.4634       0.3288
    2570.6833     199.6474       0.3292
    2570.8357     201.4596       0.3338
    2570.9881     201.9374       0.3415
    2571.1405     200.4759       0.3495
    2571.2929     198.1610       0.3562
    2571.4453     196.4552       0.3626
    2571.5977     196.7906       0.3708
    2571.7501     196.5373       0.3761
    2571.9025     193.9224       0.3690
    2572.0549     193.9629       0.3490
    2572.2073     195.7017       0.3252
    2572.3597     198.9547       0.3141
    2572.5121     200.8595       0.3247
    2572.6645     201.2755       0.3477
    2572.8169     200.5070       0.3619
    2572.9693     198.3678       0.3498
    2573.1217     195.7714       0.3182
    2573.2741     192.8349       0.2922
    2573.4265     189.8200       0.2972
    2573.5789     189.1429       0.3267
    2573.7313     192.9390       0.3434
    2573.8837     199.6832       0.3275
    2574.0361     205.7610       0.2944
    2574.1885     210.3170       0.2756
    2574.3409     213.3260       0.2848
    2574.4933     215.3853       0.3090
    2574.6457     216.8331       0.3261
    2574.7981     217.5650       0.3218
    2574.9505     217.0297       0.3016
    2575.1029     214.4494       0.2835
    2575.2553     209.4486       0.2884
    2575.4077     202.5041       0.3087
    2575.5601     197.2888       0.3256
    2575.7125     196.6259       0.3274
    2575.8649    -999.2500       0.3176
    2576.0173    -999.2500       0.3055
    2576.1697     201.1375       0.2985
    2576.3221     196.9845       0.2978
    2576.4745     185.1605       0.3024
    2576.6269    -999.2500       0.3070
    2576.7793    -999.2500       0.3086
    2576.9317     187.0069       0.3058
    2577.0841     193.3127       0.2995
    2577.2365     199.1543       0.2962
    2577.3889    -999.2500       0.2937
    2577.5413    -999.2500       0.2864
    2577.6937     212.7543       0.2750
    2577.8461     210.8705       0.2660
    2577.9985     210.6313       0.2655
    2578.1509    -999.2500       0.2747
    2578.3033    -999.2500       0.2919
    2578.4557     214.5225       0.3107
    2578.6081     213.2796       0.3207
    2578.7605     211.6841       0.3141
    2578.9129     209.0994       0.2952
    2579.0653     204.1455       0.2842
    2579.2177     196.7158       0.2943
    2579.3701     190.4203       0.3142
    2579.5225     186.8946       0.3219
    2579.6749     188.7046       0.3080
    2579.8273     190.6674       0.2864
    2579.9797     193.3075       0.2724
    2580.1321     196.4978       0.2710
    2580.2845     199.2903       0.2797
    2580.4369     199.3789       0.2897
    2580.5893     198.1466       0.2949
    2580.7417     195.6792       0.2997
    2580.8941     194.6583       0.3065
    2581.0465     193.5934       0.3138
    2581.1989     191.1143       0.3161
    2581.3513     188.2128       0.3124
    2581.5037     185.7303       0.3096
    2581.6561     184.6324       0.3141
    2581.8085     183.9819       0.3234
    2581.9609     182.7636       0.3354
    2582.1133     179.9876       0.3495
