#------------------------------------------------------------------------------
#
#   Created by  : WOW Log Export Utility
#   Created on  : 2012-02-24 13:45:42
#   Project     : NORNE
#
#------------------------------------------------------------------------------
~Version Information Block
 VERS.                 2.0: CWLS Log ASCII Standard - version 2
 WRAP.                  NO: One line per depth step
~Well Information Block
#MNEMONIC    .UNIT                            Information: Data type
#------------------------------------------------------------------------------
 STRT        .M                                  472.7500: START DEPTH
 STOP        .M                                 2800.7500: STOP DEPTH
 STEP        .M                                    0.1250: SAMPLE RATE
 NULL        .                                  -999.2500: NULL VALUE
 COMP        .                                    STATOIL: Company
 WELL        .                                  6608/10-4: Well
 UWI         .                               NO 6608/10-4: Unique Well ID
 FLD         .                                      NORNE: Field
 CNTY        .                                    UNKNOWN: County
 STAT        .                                    UNKNOWN: State
 CTRY        .                                     Norway: Country
 XCOORD      .                               462006.74350: Surface X
 YCOORD      .                              7324847.22971: Surface Y
 LAT         .                                   66.04035: Latitude
 LON         .                                    8.16159: Longitude
 ELEV        .M                                   23.0000: Surface Elev
 ELEV_TYPE   .                                         KB: Elev Type
~Curve Information Block
#MNEMONIC                   .UNIT                 API CODE      : DESCRIPTION
#------------------------------------------------------------------------------
 DEPTH                      .M                                  :
 CALI                       .inches               UNKNOWN       : Run 1, Ver 1
 GR                         .API                  UNKNOWN       : Run 1, Ver 1
 KLOGH                      .mD                   UNKNOWN       : Run 1, Ver 4
 PHIF                       .v/v decimal          UNKNOWN       : Run 1, Ver 3
 RHOB                       .g/cm3                UNKNOWN       : Run 1, Ver 1
 RT                         .ohm.m                UNKNOWN       : Run 1, Ver 1
 SW                         .v/v decimal          UNKNOWN       : Run 1, Ver 3
~A      DEPTH         CALI           GR        KLOGH         PHIF         RHOB           RT           SW
# ...
    2590.2500       9.1410      66.2217      50.1479       0.2406       2.2463       1.0552       0.8177
    2590.3750       9.1410      70.9555      73.9004       0.2483       2.2289       1.0372       0.7996
    2590.5000       9.1410      73.0722      66.1516       0.2461       2.2314       1.0273       0.8111
    2590.6250       9.1410      77.4028      35.3451       0.2336       2.2548       1.0338       0.8517
    2590.7500       9.2070      78.0699      17.0702       0.2190       2.2830       1.0552       0.8982
    2590.8750       9.1906      78.9933       9.2213       0.2067       2.3077       1.0803       0.9396
    2591.0000       9.1718      76.9910       6.1790       0.1987       2.3249       1.1142       0.9611
    2591.1250       9.2258      70.0965       5.2881       0.1955       2.3328       1.1627       0.9540
    2591.2500       9.1454      68.0698       5.5977       0.1967       2.3313       1.2160       0.9256
    2591.3750       9.1410      67.4441       6.9981       0.2012       2.3211       1.2322       0.8986
    2591.5000       9.1410      70.9235       8.9828       0.2062       2.3091       1.2265       0.8791
    2591.6250       9.1817      73.2610      10.4660       0.2092       2.3015       1.2138       0.8712
    2591.7500       9.2390      72.6802      10.0981       0.2085       2.3021       1.2034       0.8783
    2591.8750       9.2390      71.5808       7.8745       0.2035       2.3121       1.1995       0.9013
    2592.0000       9.2390      74.0169       5.6734       0.1970       2.3260       1.2216       0.9221
    2592.1250       9.2390      78.5173       4.8129       0.1937       2.3337       1.2438       0.9285
    2592.2500       9.2390      72.6651       5.1564       0.1950       2.3320       1.2592       0.9158
    2592.3750       9.2390      63.7630       6.8748       0.2008       2.3217       1.2515       0.8925
    2592.5000       9.2390      60.8295      10.6159       0.2095       2.3056       1.2189       0.8678
    2592.6250       9.2390      63.2656      16.7243       0.2186       2.2888       1.1976       0.8397
    2592.7500       9.2390      61.3665      24.7718       0.2265       2.2741       1.1588       0.8252
    2592.8750       9.2390      59.8450      34.3958       0.2330       2.2614       1.1311       0.8125
    2593.0000       9.2390      58.9243      43.3680       0.2377       2.2519       1.1204       0.8008
    2593.1250       9.2390      58.7230      48.0792       0.2397       2.2470       1.1267       0.7915
    2593.2500       9.2390      59.4160      45.7646       0.2388       2.2476       1.1441       0.7882
    2593.3750       9.2390      61.5813      37.2520       0.2346       2.2543       1.1556       0.7977
    2593.5000       9.2390      70.4968      25.7218       0.2272       2.2677       1.1627       0.8209
    2593.6250       9.2390      74.3372      15.9921       0.2177       2.2856       1.1623       0.8569
    2593.7500       9.2390      73.1217      10.2858       0.2089       2.3028       1.1675       0.8910
    2593.8750       9.2390      70.6160       8.1308       0.2042       2.3128       1.1862       0.9036
    2594.0000       9.2390      72.2430       9.4818       0.2072       2.3084       1.2100       0.8806
    2594.1250       9.2390      72.3781      18.0719       0.2201       2.2841       1.2829       0.8030
    2594.2500       9.3017      67.6622      34.0909       0.2329       2.2582       1.3239       0.7464
    2594.3750       9.2919      66.2736      45.8361       0.2388       2.2444       1.3504       0.7201
    2594.5000       9.2665      70.8255      36.8538       0.2344       2.2505       1.3636       0.7297
    2594.6250       9.3370      78.7580      17.3636       0.2193       2.2780       1.3612       0.7805
    2594.7500       9.3370      79.4349       6.2601       0.1989       2.3173       1.3710       0.8572
    2594.8750       9.2644      79.8675       0.0010       0.0010       2.3502       1.4031       0.9990
    2595.0000       9.2390      69.1718       1.5324       0.1707       2.3747       1.4398       0.9722
    2595.1250       9.2764      62.3937       1.0367       0.1629       2.3917       1.4874       0.9900
    2595.2500       9.3370      64.6885       0.8226       0.1583       2.4017       1.5374       0.9900
    2595.3750       9.3370      62.9210       0.7749       0.1571       2.4036       1.5592       0.9900
    2595.5000       9.3370      66.0341       0.9903       0.1620       2.3924       1.5657       0.9788
    2595.6250       9.2721      69.2556       1.3804       0.1686       2.3778       1.5465       0.9466
    2595.7500       9.2863      75.2015       1.6414       0.1721       2.3698       1.5182       0.9370
    2595.8750       9.3370      82.3971       0.0010       0.0010       2.3726       1.4921       0.9990
    2596.0000       9.3491      87.8240       0.0010       0.0010       2.3856       1.4741       0.9990
    2596.1250       9.4294      89.4478       0.0010       0.0010       2.3998       1.4609       0.9990
    2596.2500       9.4350      85.6617       0.0010       0.0010       2.3999       1.4569       0.9990
    2596.3750       9.4350      86.3703       0.0010       0.0010       2.3878       1.4473       0.9990
    2596.5000       9.4350      84.0988       0.0010       0.0010       2.3709       1.4253       0.9990
    2596.6250       9.4350      77.5738       2.5111       0.1806       2.3570       1.3975       0.9337
    2596.7500       9.4350      73.8707       2.8004       0.1828       2.3529       1.3804       0.9288
    2596.8750       9.4350      76.5776       2.2936       0.1788       2.3602       1.3492       0.9614
    2597.0000       9.4350      77.8167       1.7152       0.1730       2.3708       1.3488       0.9900
    2597.1250       9.4350      76.6015       1.2997       0.1674       2.3804       1.3691       0.9900
    2597.2500       9.4350      76.0615       1.0685       0.1635       2.3863       1.4271       0.9900
    2597.3750       9.4491      81.0596       0.0010       0.0010       2.3872       1.5256       0.9990
    2597.5000       9.5295      97.4354       0.9948       0.1621       2.3850       1.6084       0.9640
    2597.6250       9.5330     101.3766       1.0418       0.1630       2.3824       1.7251       0.9228
    2597.7500       9.5924     103.4595       1.0533       0.1632       2.3826       1.8812       0.8791
    2597.8750       9.6310     104.0318       0.8932       0.1599       2.3911       2.0403       0.8584
    2598.0000       9.6310     103.0999       0.5841       0.1514       2.4111       2.2141       0.8671
    2598.1250       9.6246     100.3819       0.2936       0.1377       2.4425       2.4378       0.9053
    2598.2500       9.5442      91.3144       0.1407       0.1229       2.4729       2.5723       0.9854
    2598.3750      10.1570     100.0659       0.1000       0.1161       2.4838       2.7288       0.9900
    2598.5000      10.5710     106.4959       0.1242       0.1204       2.4754       2.8228       0.9559
    2598.6250      10.7440     110.4712       0.2040       0.1304       2.4546       2.8958       0.8705
    2598.7500      10.6118     112.7910       0.1287       0.1211       2.4706       2.9717       0.9237
    2598.8750       9.6461     106.1596       0.0722       0.1096       2.4911       2.9749       0.9900
    2599.0000       9.7102     101.1267       0.0557       0.1044       2.5001       2.9467       0.9900
    2599.1250      10.0374     105.3325       0.0628       0.1068       2.4959       2.9061       0.9900
    2599.2500       9.9561     107.2763       0.1043       0.1169       2.4788       2.8252       0.9836
    2599.3750       9.6572     106.8297       0.2440       0.1340       2.4512       2.7326       0.8743
    2599.5000       9.7376     109.5883       0.8261       0.1584       2.4136       2.6797       0.7476
    2599.6250       9.8180     107.1522       3.8742       0.1893       2.3657       2.6305       0.6319
    2599.7500      12.2580     106.6408      18.8684       0.2210       2.3129       2.5355       0.5521
