#------------------------------------------------------------------------------
#
#   Created by  : WOW Log Export Utility
#   Created on  : 2012-02-24 13:45:43
#   Project     : NORNE
#
#------------------------------------------------------------------------------
~Version Information Block
 VERS.                 2.0: CWLS Log ASCII Standard - version 2
 WRAP.                  NO: One line per depth step
~Well Information Block
#MNEMONIC    .UNIT                            Information: Data type
#------------------------------------------------------------------------------
 STRT        .M                                 1275.2832: START DEPTH
 STOP        .M                                 2804.7695: STOP DEPTH
 STEP        .M                                    0.1524: SAMPLE RATE
 NULL        .                                  -999.2500: NULL VALUE
 COMP        .                                    STATOIL: Company
 WELL        .                                  6608/10-4: Well
 UWI         .                               NO 6608/10-4: Unique Well ID
 FLD         .                                      NORNE: Field
 CNTY        .                                    UNKNOWN: County
 STAT        .                                    UNKNOWN: State
 CTRY        .                                     Norway: Country
 XCOORD      .                               462006.74350: Surface X
 YCOORD      .                              7324847.22971: Surface Y
 LAT         .                                   66.04035: Latitude
 LON         .                                    8.16159: Longitude
 ELEV        .M                                   23.0000: Surface Elev
 ELEV_TYPE   .                                         KB: Elev Type
~Curve Information Block
#MNEMONIC                   .UNIT                 API CODE      : DESCRIPTION
#------------------------------------------------------------------------------
 DEPTH                      .M                                  :
 DT                         .us/ft                UNKNOWN       : Run 1, Ver 1
 RS                         .OHM.M                UNKNOWN       : Run 1, Ver 1
~A      DEPTH           DT           RS
# ...
    1305.7632     111.0638    -999.2500
    1305.9156     112.9455    -999.2500
    1306.0680     114.7147    -999.2500
    1306.2204     115.7596    -999.2500
    1306.3728     115.4814    -999.2500
    1306.5252     114.0099    -999.2500
    1306.6776     112.1454    -999.2500
    1306.8300     110.8537    -999.2500
    1306.9824     110.2518    -999.2500
    1307.1348     109.7567    -999.2500
    1307.2872     109.3166    -999.2500
    1307.4396     109.3659    -999.2500
    1307.5920     110.5005    -999.2500
    1307.7444     112.3596    -999.2500
    1307.8968     113.5245    -999.2500
    1308.0492     112.9987    -999.2500
    1308.2016     111.1364    -999.2500
    1308.3540     109.4422    -999.2500
    1308.5064     109.1454    -999.2500
    1308.6588     110.5182    -999.2500
    1308.8112     112.5663    -999.2500
    1308.9636     113.8773    -999.2500
    1309.1160     113.6723    -999.2500
    1309.2684     111.7985    -999.2500
    1309.4208     109.0356    -999.2500
    1309.5732     106.9308    -999.2500
    1309.7256     106.9540    -999.2500
    1309.8780     109.4128    -999.2500
    1310.0304     113.0083    -999.2500
    1310.1828     115.4867    -999.2500
    1310.3352     115.6777    -999.2500
    1310.4876     114.4356    -999.2500
    1310.6400     113.6880    -999.2500
    1310.7924     114.5668    -999.2500
    1310.9448     116.3297    -999.2500
    1311.0972     117.4855    -999.2500
    1311.2496     117.2353    -999.2500
    1311.4020     116.0845    -999.2500
    1311.5544     114.9475    -999.2500
    1311.7068     114.2289    -999.2500
    1311.8592     113.6248    -999.2500
    1312.0116     112.8530    -999.2500
    1312.1640     112.1200    -999.2500
    1312.3164     111.7455    -999.2500
    1312.4688     111.9358    -999.2500
    1312.6212     112.4703    -999.2500
    1312.7736     112.8505    -999.2500
    1312.9260     112.7841    -999.2500
    1313.0784     112.4285    -999.2500
    1313.2308     111.9676    -999.2500
    1313.3832     111.4746    -999.2500
    1313.5356     111.0176    -999.2500
    1313.6880     110.6135    -999.2500
    1313.8404     110.4762    -999.2500
    1313.9928     110.6737    -999.2500
    1314.1452     110.7229    -999.2500
    1314.2976     110.1827    -999.2500
    1314.4500     109.2712    -999.2500
    1314.6024     108.6718    -999.2500
    1314.7548     108.7579    -999.2500
    1314.9072     109.0326    -999.2500
    1315.0596     108.3619    -999.2500
    1315.2120     106.2538    -999.2500
    1315.3644     103.7842    -999.2500
    1315.5168     102.4028    -999.2500
    1315.6692     102.6067    -999.2500
    1315.8216     103.9912    -999.2500
    1315.9740     105.7697    -999.2500
    1316.1264     107.5666    -999.2500
    1316.2788     109.2358    -999.2500
    1316.4312     110.1688    -999.2500
    1316.5836     109.7156    -999.2500
    1316.7360     108.3748    -999.2500
    1316.8884     107.8447    -999.2500
    1317.0408     109.3151    -999.2500
    1317.1932     112.1423    -999.2500
    1317.3456     114.0315    -999.2500
    1317.4980     113.2021    -999.2500
    1317.6504     110.1950    -999.2500
    1317.8028     107.4256    -999.2500
    1317.9552     107.1603    -999.2500
    1318.1076     109.6597    -999.2500
    1318.2600     113.3631    -999.2500
    1318.4124     116.0844    -999.2500
    1318.5648     116.5644    -999.2500
    1318.7172     115.0690    -999.2500
    1318.8696     112.9168    -999.2500
    1319.0220     111.4389    -999.2500
    1319.1744     111.1304    -999.2500
    1319.3268     111.6693    -999.2500
    1319.4792     112.3381    -999.2500
    1319.6316     112.4319    -999.2500
    1319.7840     111.4483    -999.2500
    1319.9364     109.3907    -999.2500
    1320.0888     106.9482    -999.2500
    1320.2412     105.2073    -999.2500
    1320.3936     105.1481    -999.2500
    1320.5460     106.6720    -999.2500
    1320.6984     108.6035    -999.2500
    1320.8508     109.8873    -999.2500
    1321.0032     109.8301    -999.2500
    1321.1556     108.5357    -999.2500
    1321.3080     106.8542    -999.2500
    1321.4604     105.7375    -999.2500
    1321.6128     105.9118    -999.2500
    1321.7652     107.4220    -999.2500
    1321.9176     109.5332    -999.2500
    1322.0700     111.0840    -999.2500
    1322.2224     111.4835    -999.2500
    1322.3748     110.7030    -999.2500
    1322.5272     109.2829    -999.2500
    1322.6796     108.2084    -999.2500
    1322.8320     108.1800    -999.2500
    1322.9844     109.4443    -999.2500
    1323.1368     111.3135    -999.2500
    1323.2892     112.7421    -999.2500
    1323.4416     113.3282    -999.2500
    1323.5940     113.5337    -999.2500
    1323.7464     113.8845    -999.2500
    1323.8988     114.0977    -999.2500
    1324.0512     113.4469    -999.2500
    1324.2036     111.6484    -999.2500
    1324.3560     109.3430    -999.2500
    1324.5084     107.4495    -999.2500
    1324.6608     106.4223    -999.2500
    1324.8132     106.1204    -999.2500
    1324.9656     106.4406    -999.2500
    1325.1180     107.6274    -999.2500
    1325.2704     109.5645    -999.2500
    1325.4228     111.4595    -999.2500
    1325.5752     112.2709    -999.2500
    1325.7276     111.4880    -999.2500
    1325.8800     109.7313    -999.2500
    1326.0324     108.3798    -999.2500
    1326.1848     108.2781    -999.2500
    1326.3372     109.2467    -999.2500
    1326.4896     110.4324    -999.2500
    1326.6420     110.8455    -999.2500
    1326.7944     110.1739    -999.2500
    1326.9468     108.8907    -999.2500
    1327.0992     107.8114    -999.2500
    1327.2516     107.5583    -999.2500
    1327.4040     108.3240    -999.2500
    1327.5564     109.8420    -999.2500
    1327.7088     111.6576    -999.2500
    1327.8612     113.5585    -999.2500
    1328.0136     115.5394    -999.2500
    1328.1660     117.5304    -999.2500
    1328.3184     118.9731    -999.2500
    1328.4708     119.0509    -999.2500
    1328.6232     117.2274    -999.2500
    1328.7756     113.9104    -999.2500
    1328.9280     110.5075    -999.2500
    1329.0804     108.5256    -999.2500
    1329.2328     108.5729    -999.2500
    1329.3852     109.8833    -999.2500
    1329.5376     111.0335    -999.2500
    1329.6900     110.8882    -999.2500
    1329.8424     109.5118    -999.2500
    1329.9948     107.9421    -999.2500
    1330.1472     107.1181    -999.2500
    1330.2996     107.3757    -999.2500
    1330.4520     108.3028    -999.2500
    1330.6044     109.2418    -999.2500
    1330.7568     109.9201    -999.2500
    1330.9092     110.6111    -999.2500
    1331.0616     111.5428    -999.2500
    1331.2140     112.6326    -999.2500
    1331.3664     113.5758    -999.2500
    1331.5188     113.9755    -999.2500
    1331.6712     113.7064    -999.2500
    1331.8236     112.9061    -999.2500
    1331.9760     111.8584    -999.2500
    1332.1284     111.0141    -999.2500
    1332.2808     110.8682    -999.2500
    1332.4332     111.5201    -999.2500
    1332.5856     112.5227    -999.2500
    1332.7380     113.1981    -999.2500
    1332.8904     113.0852    -999.2500
    1333.0428     112.2291    -999.2500
    1333.1952     111.1964    -999.2500
    1333.3476     110.5289    -999.2500
    1333.5000     110.2643    -999.2500
    1333.6524     110.1911    -999.2500
    1333.8048     109.9124    -999.2500
    1333.9572     109.2289    -999.2500
    1334.1096     108.4001    -999.2500
    1334.2620     107.8387    -999.2500
    1334.4144     107.7771    -999.2500
    1334.5668     108.0876    -999.2500
    1334.7192     108.6233    -999.2500
    1334.8716     109.3371    -999.2500
    1335.0240     110.5244    -999.2500
    1335.1764     112.2338    -999.2500
    1335.3288     113.8639    -999.2500
    1335.4812     114.7848    -999.2500
    1335.6336     114.5393    -999.2500
    1335.7860     113.4444    -999.2500
    1335.9384     112.3474    -999.2500
    1336.0908     111.8596    -999.2500
