#------------------------------------------------------------------------------
#
#   Created by  : WOW Log Export Utility
#   Created on  : 2012-02-24 13:45:42
#   Project     : NORNE
#
#------------------------------------------------------------------------------
~Version Information Block
 VERS.                 2.0: CWLS Log ASCII Standard - version 2
 WRAP.                  NO: One line per depth step
~Well Information Block
#MNEMONIC    .UNIT                            Information: Data type
#------------------------------------------------------------------------------
 STRT        .M                                  472.7500: START DEPTH
 STOP        .M                                 2800.7500: STOP DEPTH
 STEP        .M                                    0.1250: SAMPLE RATE
 NULL        .                                  -999.2500: NULL VALUE
 COMP        .                                    STATOIL: Company
 WELL        .                                  6608/10-4: Well
 UWI         .                               NO 6608/10-4: Unique Well ID
 FLD         .                                      NORNE: Field
 CNTY        .                                    UNKNOWN: County
 STAT        .                                    UNKNOWN: State
 CTRY        .                                     Norway: Country
 XCOORD      .                               462006.74350: Surface X
 YCOORD      .                              7324847.22971: Surface Y
 LAT         .                                   66.04035: Latitude
 LON         .                                    8.16159: Longitude
 ELEV        .M                                   23.0000: Surface Elev
 ELEV_TYPE   .                                         KB: Elev Type
~Curve Information Block
#MNEMONIC                   .UNIT                 API CODE      : DESCRIPTION
#------------------------------------------------------------------------------
 DEPTH                      .M                                  :
 CALI                       .inches               UNKNOWN       : Run 1, Ver 1
 GR                         .API                  UNKNOWN       : Run 1, Ver 1
 KLOGH                      .mD                   UNKNOWN       : Run 1, Ver 4
 PHIF                       .v/v decimal          UNKNOWN       : Run 1, Ver 3
 RHOB                       .g/cm3                UNKNOWN       : Run 1, Ver 1
 RT                         .ohm.m                UNKNOWN       : Run 1, Ver 1
 SW                         .v/v decimal          UNKNOWN       : Run 1, Ver 3
~A      DEPTH         CALI           GR        KLOGH         PHIF         RHOB           RT           SW
# ...
    2320.7500      13.0165      60.2369    -999.2500    -999.2500       2.5262       2.9187    -999.2500
    2320.8750      12.8780      63.1358    -999.2500    -999.2500       2.5234       2.9039    -999.2500
    2321.0000      12.8107      74.9752    -999.2500    -999.2500       2.5057       2.9571    -999.2500
    2321.1250      12.9318      82.9260    -999.2500    -999.2500       2.4831       2.9995    -999.2500
    2321.2500      13.0603      83.7467    -999.2500    -999.2500       2.4641       3.0414    -999.2500
    2321.3750      12.9809      79.7310    -999.2500    -999.2500       2.4548       3.1080    -999.2500
    2321.5000      12.8318      76.1405    -999.2500    -999.2500       2.4571       3.1285    -999.2500
    2321.6250      12.9200      72.9777    -999.2500    -999.2500       2.4656       2.9435    -999.2500
    2321.7500      12.9056      69.8925    -999.2500    -999.2500       2.4698       2.7297    -999.2500
    2321.8750      12.9337      68.6511    -999.2500    -999.2500       2.4651       2.5782    -999.2500
    2322.0000      13.0489      69.5808    -999.2500    -999.2500       2.4514       2.5214    -999.2500
    2322.1250      13.1373      71.0735    -999.2500    -999.2500       2.4331       2.5291    -999.2500
    2322.2500      13.1636      69.2708    -999.2500    -999.2500       2.4190       2.5119    -999.2500
    2322.3750      13.4110      69.2745    -999.2500    -999.2500       2.4140       2.4790    -999.2500
    2322.5000      13.5290      71.1784    -999.2500    -999.2500       2.4178       2.4344    -999.2500
    2322.6250      13.4385      71.9470    -999.2500    -999.2500       2.4295       2.3950    -999.2500
    2322.7500      13.2278      70.1067    -999.2500    -999.2500       2.4477       2.3706    -999.2500
    2322.8750      13.1639      71.3358    -999.2500    -999.2500       2.4710       2.3394    -999.2500
    2323.0000      13.2558      74.2623    -999.2500    -999.2500       2.4910       2.3811    -999.2500
    2323.1250      13.3176      72.4637    -999.2500    -999.2500       2.4985       2.4691    -999.2500
    2323.2500      13.3418      70.4404    -999.2500    -999.2500       2.4906       2.5504    -999.2500
    2323.3750      13.3073      70.1108    -999.2500    -999.2500       2.4702       2.6064    -999.2500
    2323.5000      13.1932      70.4092    -999.2500    -999.2500       2.4447       2.6523    -999.2500
    2323.6250      13.1439      69.7462    -999.2500    -999.2500       2.4304       2.7073    -999.2500
    2323.7500      13.3612      69.6530    -999.2500    -999.2500       2.4368       2.7693    -999.2500
    2323.8750      13.9454      69.3581    -999.2500    -999.2500       2.4596       2.8413    -999.2500
    2324.0000      14.2359      68.2028    -999.2500    -999.2500       2.4902       2.8915    -999.2500
    2324.1250      13.9208      66.3215    -999.2500    -999.2500       2.5177       2.8891    -999.2500
    2324.2500      13.7854      65.3697    -999.2500    -999.2500       2.5298       2.8251    -999.2500
    2324.3750      13.3888      68.6330    -999.2500    -999.2500       2.5150       2.8055    -999.2500
    2324.5000      13.2614      75.4922    -999.2500    -999.2500       2.4874       2.7653    -999.2500
    2324.6250      13.2630      80.1773    -999.2500    -999.2500       2.4585       2.6972    -999.2500
    2324.7500      13.2599      80.6312    -999.2500    -999.2500       2.4372       2.6480    -999.2500
    2324.8750      13.1926      78.1387    -999.2500    -999.2500       2.4290       2.6698    -999.2500
    2325.0000      13.3124      76.8940    -999.2500    -999.2500       2.4348       2.6394    -999.2500
    2325.1250      13.1732      77.2936    -999.2500    -999.2500       2.4455       2.4839    -999.2500
    2325.2500      13.0606      78.7633    -999.2500    -999.2500       2.4517       2.3416    -999.2500
    2325.3750      13.0194      77.9800    -999.2500    -999.2500       2.4502       2.2710    -999.2500
    2325.5000      13.0739      74.2629    -999.2500    -999.2500       2.4425       2.2596    -999.2500
    2325.6250      13.2770      71.8490    -999.2500    -999.2500       2.4356       2.2100    -999.2500
    2325.7500      13.2894      74.8143    -999.2500    -999.2500       2.4438       2.2017    -999.2500
    2325.8750      13.0934      76.7998    -999.2500    -999.2500       2.4650       2.2667    -999.2500
    2326.0000      12.9705      73.8688    -999.2500    -999.2500       2.4925       2.2852    -999.2500
    2326.1250      12.9804      68.7120    -999.2500    -999.2500       2.5183       2.2688    -999.2500
    2326.2500      13.0452      66.5975    -999.2500    -999.2500       2.5348       2.2959    -999.2500
    2326.3750      13.0238      68.8228    -999.2500    -999.2500       2.5344       2.4304    -999.2500
    2326.5000      13.0723      73.2290    -999.2500    -999.2500       2.5217       2.5049    -999.2500
    2326.6250      13.1175      76.0567    -999.2500    -999.2500       2.5061       2.4907    -999.2500
    2326.7500      13.2264      75.9072    -999.2500    -999.2500       2.4893       2.4726    -999.2500
    2326.8750      13.3825      74.4311    -999.2500    -999.2500       2.4716       2.4814    -999.2500
    2327.0000      13.4670      75.9624    -999.2500    -999.2500       2.4525       2.4619    -999.2500
    2327.1250      13.7632      72.7944    -999.2500    -999.2500       2.4339       2.4053    -999.2500
    2327.2500      13.7532      70.2474    -999.2500    -999.2500       2.4210       2.4641    -999.2500
    2327.3750      13.7038      67.4165    -999.2500    -999.2500       2.4177       2.5519    -999.2500
    2327.5000      13.8883      66.5614    -999.2500    -999.2500       2.4261       2.6316    -999.2500
    2327.6250      14.2909      70.4644    -999.2500    -999.2500       2.4459       2.6920    -999.2500
    2327.7500      13.9906      79.8954    -999.2500    -999.2500       2.4723       2.7421    -999.2500
    2327.8750      13.4516      85.5318    -999.2500    -999.2500       2.4933       2.6733    -999.2500
    2328.0000      13.1494      85.7999    -999.2500    -999.2500       2.5032       2.6254    -999.2500
    2328.1250      13.0046      83.9702    -999.2500    -999.2500       2.5002       2.6301    -999.2500
    2328.2500      13.0249      83.8853    -999.2500    -999.2500       2.4849       2.6709    -999.2500
    2328.3750      13.3027      88.2097    -999.2500    -999.2500       2.4602       2.6993    -999.2500
    2328.5000      13.4693      88.4538    -999.2500    -999.2500       2.4296       2.7354    -999.2500
    2328.6250      13.3500      98.1213    -999.2500    -999.2500       2.3991       2.7770    -999.2500
    2328.7500      13.6126     122.9764    -999.2500    -999.2500       2.3729       2.6720    -999.2500
    2328.8750      13.7420     155.6503    -999.2500    -999.2500       2.3531       2.4807    -999.2500
    2329.0000      13.3062     184.6296    -999.2500    -999.2500       2.3394       2.2995    -999.2500
    2329.1250      12.9016     199.1609    -999.2500    -999.2500       2.3293       2.1477    -999.2500
    2329.2500      12.8421     191.8845    -999.2500    -999.2500       2.3180       1.9621    -999.2500
    2329.3750      12.7587     174.5491    -999.2500    -999.2500       2.3049       1.7947    -999.2500
    2329.5000      12.8126     160.3772    -999.2500    -999.2500       2.2923       1.6986    -999.2500
    2329.6250      12.9744     154.3182    -999.2500    -999.2500       2.2831       1.6608    -999.2500
    2329.7500      13.0685     154.1145    -999.2500    -999.2500       2.2802       1.6251    -999.2500
    2329.8750      13.0308     156.9850    -999.2500    -999.2500       2.2847       1.5940    -999.2500
    2330.0000      12.8243     157.0984    -999.2500    -999.2500       2.2902       1.5543    -999.2500
    2330.1250      12.7948     162.3020    -999.2500    -999.2500       2.2926       1.4977    -999.2500
    2330.2500      12.8024     165.8815    -999.2500    -999.2500       2.2906       1.4521    -999.2500
