#------------------------------------------------------------------------------
#
#   Created by  : WOW Log Export Utility
#   Created on  : 2012-02-24 13:45:42
#   Project     : NORNE
#
#------------------------------------------------------------------------------
~Version Information Block
 VERS.                 2.0: CWLS Log ASCII Standard - version 2
 WRAP.                  NO: One line per depth step
~Well Information Block
#MNEMONIC    .UNIT                            Information: Data type
#------------------------------------------------------------------------------
 STRT        .M                                  472.7500: START DEPTH
 STOP        .M                                 2800.7500: STOP DEPTH
 STEP        .M                                    0.1250: SAMPLE RATE
 NULL        .                                  -999.2500: NULL VALUE
 COMP        .                                    STATOIL: Company
 WELL        .                                  6608/10-4: Well
 UWI         .                               NO 6608/10-4: Unique Well ID
 FLD         .                                      NORNE: Field
 CNTY        .                                    UNKNOWN: County
 STAT        .                                    UNKNOWN: State
 CTRY        .                                     Norway: Country
 XCOORD      .                               462006.74350: Surface X
 YCOORD      .                              7324847.22971: Surface Y
 LAT         .                                   66.04035: Latitude
 LON         .                                    8.16159: Longitude
 ELEV        .M                                   23.0000: Surface Elev
 ELEV_TYPE   .                                         KB: Elev Type
~Curve Information Block
#MNEMONIC                   .UNIT                 API CODE      : DESCRIPTION
#------------------------------------------------------------------------------
 DEPTH                      .M                                  :
 CALI                       .inches               UNKNOWN       : Run 1, Ver 1
 GR                         .API                  UNKNOWN       : Run 1, Ver 1
 KLOGH                      .mD                   UNKNOWN       : Run 1, Ver 4
 PHIF                       .v/v decimal          UNKNOWN       : Run 1, Ver 3
 RHOB                       .g/cm3                UNKNOWN       : Run 1, Ver 1
 RT                         .ohm.m                UNKNOWN       : Run 1, Ver 1
 SW                         .v/v decimal          UNKNOWN       : Run 1, Ver 3
~A      DEPTH         CALI           GR        KLOGH         PHIF         RHOB           RT           SW
# ...
    2638.3750       9.0430      47.7812      61.1566       0.2456       2.2335       0.7144       0.9840
    2638.5000       9.0430      48.3270      48.1055       0.2414       2.2410       0.7210       0.9900
    2638.6250       9.0430      47.2532      39.4509       0.2380       2.2471       0.7373       0.9900
    2638.7500       9.0430      46.9035      33.7197       0.2353       2.2519       0.7448       0.9900
    2638.8750       9.0430      48.6381      30.0080       0.2332       2.2556       0.7461       0.9900
    2639.0000       9.0430      50.7558      27.4363       0.2317       2.2584       0.7431       0.9900
    2639.1250       9.0430      50.1526      25.4223       0.2304       2.2608       0.7382       0.9900
    2639.2500       9.0430      45.9573      24.3435       0.2296       2.2624       0.7398       0.9900
    2639.3750       9.0430      46.1298      24.5896       0.2298       2.2625       0.7400       0.9900
    2639.5000       9.0430      48.0880      26.1636       0.2309       2.2611       0.7383       0.9900
    2639.6250       9.0430      48.2449      28.8699       0.2326       2.2585       0.7243       0.9900
    2639.7500       9.0430      46.2798      32.4502       0.2346       2.2553       0.6999       0.9900
    2639.8750       9.0430      46.7124      36.6723       0.2367       2.2516       0.6870       0.9900
    2640.0000       9.0430      48.4715      42.9037       0.2394       2.2463       0.6887       0.9900
    2640.1250       9.0430      47.4155      51.6532       0.2426       2.2400       0.6929       0.9900
    2640.2500       9.0430      46.9136      63.4954       0.2462       2.2330       0.6950       0.9900
    2640.3750       9.0430      47.2219      77.2668       0.2496       2.2265       0.6911       0.9852
    2640.5000       9.0430      47.2994      88.6739       0.2520       2.2221       0.6855       0.9806
    2640.6250       9.0430      47.0286      88.4520       0.2520       2.2224       0.7101       0.9638
    2640.7500       9.0430      48.1311      75.2956       0.2492       2.2275       0.7498       0.9477
    2640.8750       9.0430      46.9695      61.1812       0.2456       2.2334       0.7608       0.9534
    2641.0000       9.0430      45.9186      52.1525       0.2428       2.2377       0.7612       0.9708
    2641.1250       9.0430      46.8089      46.7776       0.2409       2.2396       0.7637       0.9684
    2641.2500       9.0430      49.8056      44.5069       0.2401       2.2403       0.7661       0.9700
    2641.3750       9.0430      53.1886      38.1016       0.2374       2.2453       0.7686       0.9784
    2641.5000       9.0430      50.8610      28.3456       0.2322       2.2556       0.7799       0.9900
    2641.6250       9.0430      50.7973      20.4994       0.2266       2.2670       0.7910       0.9900
    2641.7500       9.0430      52.4364      16.2892       0.2227       2.2754       0.7973       0.9900
    2641.8750       9.0430      53.1790      15.6706       0.2220       2.2773       0.7970       0.9900
    2642.0000       9.0430      53.5852      18.7710       0.2251       2.2715       0.7913       0.9900
    2642.1250       9.0430      51.2916      24.3244       0.2296       2.2630       0.7871       0.9900
    2642.2500       9.0430      51.8227      29.3590       0.2329       2.2567       0.7842       0.9857
    2642.3750       9.0430      51.7847      31.8594       0.2343       2.2537       0.7834       0.9807
    2642.5000       9.0430      51.0723      31.3057       0.2340       2.2540       0.7809       0.9834
    2642.6250       9.0430      52.2605      28.9305       0.2326       2.2564       0.7704       0.9900
    2642.7500       9.0430      49.6931      25.7449       0.2306       2.2603       0.7622       0.9900
    2642.8750       9.0430      50.7029      22.7189       0.2284       2.2646       0.7638       0.9900
    2643.0000       9.0430      50.0934      20.3741       0.2265       2.2683       0.7655       0.9900
    2643.1250       9.0430      48.5927      19.3926       0.2257       2.2699       0.7636       0.9900
    2643.2500       9.0430      48.0457      20.6187       0.2267       2.2677       0.7590       0.9900
    2643.3750       9.0430      49.1287      25.9312       0.2307       2.2603       0.7590       0.9900
    2643.5000       9.0430      50.4738      34.6033       0.2357       2.2511       0.7598       0.9900
    2643.6250       9.0430      51.6218      39.6695       0.2381       2.2467       0.7612       0.9801
    2643.7500       9.0430      51.4642      37.9473       0.2373       2.2479       0.7629       0.9819
    2643.8750       9.0430      50.5926      32.2712       0.2345       2.2524       0.7687       0.9889
    2644.0000       9.0430      50.2926      27.6791       0.2318       2.2562       0.7887       0.9866
    2644.1250       9.0430      48.5363      27.7309       0.2319       2.2548       0.8542       0.9483
    2644.2500       9.0430      51.3076      28.1438       0.2321       2.2533       0.8714       0.9380
    2644.3750       9.0430      52.8987      24.0735       0.2294       2.2577       0.8734       0.9470
    2644.5000       9.0430      53.8752      17.2754       0.2237       2.2679       0.8753       0.9681
    2644.6250       9.0430      55.0161      11.3951       0.2165       2.2811       0.8841       0.9900
    2644.7500       9.0430      55.4200       8.2150       0.2108       2.2915       0.8980       0.9900
    2644.8750       9.0430      52.5666       7.3600       0.2089       2.2951       0.9062       0.9900
    2645.0000       9.0430      54.7185       6.9682       0.2079       2.2971       0.9074       0.9900
    2645.1250       9.0430      55.5543       6.9439       0.2079       2.2975       0.9604       0.9882
    2645.2500       9.0430      55.0424       7.4809       0.2092       2.2954       1.0337       0.9475
    2645.3750       9.0430      55.8196       8.9340       0.2122       2.2898       1.0530       0.9265
    2645.5000       9.0430      56.3594      11.2920       0.2163       2.2818       0.9751       0.9459
    2645.6250       9.0430      58.4985      12.3583       0.2179       2.2775       0.9546       0.9497
    2645.7500       9.0430      59.1197      10.5817       0.2152       2.2808       0.9670       0.9544
    2645.8750       9.0430      59.4304       7.4415       0.2091       2.2907       1.0244       0.9521
    2646.0000       9.0430      60.9571       4.7273       0.2012       2.3046       1.1016       0.9511
    2646.1250       9.0430      64.5418       3.0570       0.1937       2.3189       1.1272       0.9736
    2646.2500       9.0430      66.1664       2.1900       0.1879       2.3308       1.1346       0.9900
    2646.3750       9.0430      63.6117       1.7207       0.1837       2.3408       1.2073       0.9873
    2646.5000       9.0430      59.6911      33.7286       0.2085       2.3490       1.2829       0.8538
    2646.6250       9.0430      58.2852      33.3945       0.2083       2.3549       1.3610       0.8300
    2646.7500       9.0430      60.1300      20.4118       0.1973       2.3584       1.4680       0.8399
    2646.8750       9.0430      54.3101      13.1840       0.1876       2.3617       1.6343       0.8343
    2647.0000       9.0430      46.3386       8.6677       0.1782       2.3739       2.1332       0.7661
    2647.1250       9.0430      43.0686       4.1844       0.1620       2.4034       2.3351       0.8021
    2647.2500       9.0430      40.9738       1.3105       0.1361       2.4531       2.3632       0.9345
    2647.3750       9.0430      38.6995       0.0010       0.0010       2.5191       2.3749       0.9990
    2647.5000       9.0430      38.0391       0.0010       0.0010       2.5909       2.5201       0.9990
    2647.6250       9.0430      39.7983       0.0010       0.0010       2.6457       3.5113       0.9990
    2647.7500       9.0430      40.1937       0.0010       0.0010       2.6729       6.0012       0.9990
    2647.8750       9.0430      38.3120       0.0010       0.0010       2.6798       6.8288       0.9990
