#------------------------------------------------------------------------------
#
#   Created by  : WOW Log Export Utility
#   Created on  : 2012-02-24 13:45:42
#   Project     : NORNE
#
#------------------------------------------------------------------------------
~Version Information Block
 VERS.                 2.0: CWLS Log ASCII Standard - version 2
 WRAP.                  NO: One line per depth step
~Well Information Block
#MNEMONIC    .UNIT                            Information: Data type
#------------------------------------------------------------------------------
 STRT        .M                                  472.7500: START DEPTH
 STOP        .M                                 2800.7500: STOP DEPTH
 STEP        .M                                    0.1250: SAMPLE RATE
 NULL        .                                  -999.2500: NULL VALUE
 COMP        .                                    STATOIL: Company
 WELL        .                                  6608/10-4: Well
 UWI         .                               NO 6608/10-4: Unique Well ID
 FLD         .                                      NORNE: Field
 CNTY        .                                    UNKNOWN: County
 STAT        .                                    UNKNOWN: State
 CTRY        .                                     Norway: Country
 XCOORD      .                               462006.74350: Surface X
 YCOORD      .                              7324847.22971: Surface Y
 LAT         .                                   66.04035: Latitude
 LON         .                                    8.16159: Longitude
 ELEV        .M                                   23.0000: Surface Elev
 ELEV_TYPE   .                                         KB: Elev Type
~Curve Information Block
#MNEMONIC                   .UNIT                 API CODE      : DESCRIPTION
#------------------------------------------------------------------------------
 DEPTH                      .M                                  :
 CALI                       .inches               UNKNOWN       : Run 1, Ver 1
 GR                         .API                  UNKNOWN       : Run 1, Ver 1
 KLOGH                      .mD                   UNKNOWN       : Run 1, Ver 4
 PHIF                       .v/v decimal          UNKNOWN       : Run 1, Ver 3
 RHOB                       .g/cm3                UNKNOWN       : Run 1, Ver 1
 RT                         .ohm.m                UNKNOWN       : Run 1, Ver 1
 SW                         .v/v decimal          UNKNOWN       : Run 1, Ver 3
~A      DEPTH         CALI           GR        KLOGH         PHIF         RHOB           RT           SW
# ...
    2725.0000       9.0430      86.5671    -999.2500    -999.2500       2.3854       1.4076    -999.2500
    2725.1250       9.0430      86.1646    -999.2500    -999.2500       2.3855       1.4100    -999.2500
    2725.2500       9.0430      85.5871    -999.2500    -999.2500       2.3859       1.4172    -999.2500
    2725.3750       9.0430      84.8450    -999.2500    -999.2500       2.3847       1.4343    -999.2500
    2725.5000       9.0430      82.8183    -999.2500    -999.2500       2.3785       1.4810    -999.2500
    2725.6250       9.0430      86.8405    -999.2500    -999.2500       2.3696       1.5304    -999.2500
    2725.7500       9.0430      91.5410    -999.2500    -999.2500       2.3617       1.5310    -999.2500
    2725.8750       9.0430      94.8675    -999.2500    -999.2500       2.3578       1.5043    -999.2500
    2726.0000       9.0430      96.6733    -999.2500    -999.2500       2.3600       1.4907    -999.2500
    2726.1250       9.0430      98.7000    -999.2500    -999.2500       2.3688       1.5062    -999.2500
    2726.2500       9.0430      99.3133    -999.2500    -999.2500       2.3793       1.5140    -999.2500
    2726.3750       9.0430      94.8985    -999.2500    -999.2500       2.3874       1.4168    -999.2500
    2726.5000       9.0430      85.8233    -999.2500    -999.2500       2.3904       1.2423    -999.2500
    2726.6250       9.0430      76.4841    -999.2500    -999.2500       2.3870       1.0811    -999.2500
    2726.7500       9.0430      73.2845    -999.2500    -999.2500       2.3769       1.0442    -999.2500
    2726.8750       9.0430      73.9603    -999.2500    -999.2500       2.3632       1.0466    -999.2500
    2727.0000       9.0430      74.8680    -999.2500    -999.2500       2.3507       0.9642    -999.2500
    2727.1250       9.0430      73.0580    -999.2500    -999.2500       2.3396       0.9008    -999.2500
    2727.2500       9.0430      70.6929    -999.2500    -999.2500       2.3293       0.8760    -999.2500
    2727.3750       9.0430      70.3378    -999.2500    -999.2500       2.3195       0.8818    -999.2500
    2727.5000       9.0430      72.3645    -999.2500    -999.2500       2.3112       0.9006    -999.2500
    2727.6250       9.0430      73.4678    -999.2500    -999.2500       2.3082       0.9347    -999.2500
    2727.7500       9.0430      71.3628    -999.2500    -999.2500       2.3115       0.9985    -999.2500
    2727.8750       9.0430      74.7664    -999.2500    -999.2500       2.3199       1.1598    -999.2500
    2728.0000       9.0430      82.5619    -999.2500    -999.2500       2.3322       1.3411    -999.2500
    2728.1250       9.0430      87.4455    -999.2500    -999.2500       2.3475       1.3917    -999.2500
    2728.2500       9.0430      87.7163    -999.2500    -999.2500       2.3669       1.3096    -999.2500
    2728.3750       9.0430      85.9559    -999.2500    -999.2500       2.3884       1.3116    -999.2500
    2728.5000       9.0430      86.4422    -999.2500    -999.2500       2.4066       1.4146    -999.2500
    2728.6250       9.0430      88.0808    -999.2500    -999.2500       2.4165       1.6037    -999.2500
    2728.7500       9.0430      88.8035    -999.2500    -999.2500       2.4150       1.7368    -999.2500
    2728.8750       9.0430      86.9230    -999.2500    -999.2500       2.4013       1.5080    -999.2500
    2729.0000       9.0430      83.7917    -999.2500    -999.2500       2.3803       1.7515    -999.2500
    2729.1250       9.0430      81.5312    -999.2500    -999.2500       2.3633       1.8108    -999.2500
    2729.2500       9.0430      82.3474    -999.2500    -999.2500       2.3522       1.6858    -999.2500
    2729.3750       9.0430      84.7090    -999.2500    -999.2500       2.3458       1.3642    -999.2500
    2729.5000       9.0430      84.2154    -999.2500    -999.2500       2.3400       0.8939    -999.2500
    2729.6250       9.0430      72.1711    -999.2500    -999.2500       2.3267       0.6059    -999.2500
    2729.7500       9.0430      60.0028    -999.2500    -999.2500       2.3013       0.5837    -999.2500
    2729.8750       9.0430      56.2440    -999.2500    -999.2500       2.2713       0.5844    -999.2500
    2730.0000       9.0430      56.8190    -999.2500    -999.2500       2.2427       0.5778    -999.2500
    2730.1250       9.0430      57.0811    -999.2500    -999.2500       2.2201       0.5601    -999.2500
    2730.2500       9.0430      54.6984    -999.2500    -999.2500       2.2062       0.5302    -999.2500
    2730.3750       9.0430      57.8114    -999.2500    -999.2500       2.2045       0.5359    -999.2500
    2730.5000       9.0430      59.6012    -999.2500    -999.2500       2.2121       0.5430    -999.2500
    2730.6250       9.0430      67.7004    -999.2500    -999.2500       2.2237       0.5269    -999.2500
    2730.7500       9.0430      72.7409    -999.2500    -999.2500       2.2320       0.5036    -999.2500
    2730.8750       9.0430      67.0630    -999.2500    -999.2500       2.2292       0.4955    -999.2500
    2731.0000       9.0430      70.8522    -999.2500    -999.2500       2.2069       0.4922    -999.2500
    2731.1250       9.0430      79.3359    -999.2500    -999.2500       2.1700       0.4712    -999.2500
    2731.2500       9.0430      79.5725    -999.2500    -999.2500       2.1394       0.4455    -999.2500
    2731.3750       9.0430      70.8550    -999.2500    -999.2500       2.1255       0.4353    -999.2500
    2731.5000       9.0430      58.8697    -999.2500    -999.2500       2.1307       0.4428    -999.2500
    2731.6250       9.0430      53.3734    -999.2500    -999.2500       2.1493       0.4518    -999.2500
    2731.7500       9.0430      54.9980    -999.2500    -999.2500       2.1668       0.4485    -999.2500
    2731.8750       9.0430      56.9638    -999.2500    -999.2500       2.1737       0.4888    -999.2500
    2732.0000       9.0931      54.7825    -999.2500    -999.2500       2.1748       0.6455    -999.2500
    2732.1250       9.1410      54.0797    -999.2500    -999.2500       2.1777       0.7333    -999.2500
    2732.2500       9.1410      61.5693    -999.2500    -999.2500       2.1901       0.6233    -999.2500
    2732.3750       9.1410      78.8920    -999.2500    -999.2500       2.2166       0.5158    -999.2500
    2732.5000       9.1410      81.8515    -999.2500    -999.2500       2.2465       0.5532    -999.2500
    2732.6250       9.1410      81.8639    -999.2500    -999.2500       2.2664       0.6668    -999.2500
    2732.7500       9.0986      78.2024    -999.2500    -999.2500       2.2740       0.9147    -999.2500
    2732.8750       9.0678      74.5155    -999.2500    -999.2500       2.2722       1.1698    -999.2500
    2733.0000       9.1410      76.3075    -999.2500    -999.2500       2.2677       1.2165    -999.2500
    2733.1250       9.1410      75.6306    -999.2500    -999.2500       2.2737       1.2443    -999.2500
    2733.2500       9.1410      72.3664    -999.2500    -999.2500       2.2925       1.2209    -999.2500
    2733.3750       9.1410      71.4406    -999.2500    -999.2500       2.3154       1.2089    -999.2500
    2733.5000       9.1410      73.3771    -999.2500    -999.2500       2.3343       1.0709    -999.2500
    2733.6250       9.1240      77.1663    -999.2500    -999.2500       2.3430       0.8027    -999.2500
    2733.7500       9.0430      80.9850    -999.2500    -999.2500       2.3373       0.7250    -999.2500
    2733.8750       9.1228      69.1691    -999.2500    -999.2500       2.3132       0.6013    -999.2500
    2734.0000       9.0788      63.0223    -999.2500    -999.2500       2.2805       0.5019    -999.2500
    2734.1250       9.0876      62.0752    -999.2500    -999.2500       2.2470       0.4933    -999.2500
    2734.2500       9.1410      62.0712    -999.2500    -999.2500       2.2192       0.5545    -999.2500
    2734.3750       9.1410      59.0299    -999.2500    -999.2500       2.2012       0.6107    -999.2500
    2734.5000       9.1410      61.7368    -999.2500    -999.2500       2.1939       0.5820    -999.2500
