#------------------------------------------------------------------------------
#
#   Created by  : WOW Log Export Utility
#   Created on  : 2012-02-24 13:45:42
#   Project     : NORNE
#
#------------------------------------------------------------------------------
~Version Information Block
 VERS.                 2.0: CWLS Log ASCII Standard - version 2
 WRAP.                  NO: One line per depth step
~Well Information Block
#MNEMONIC    .UNIT                            Information: Data type
#------------------------------------------------------------------------------
 STRT        .M                                  472.7500: START DEPTH
 STOP        .M                                 2800.7500: STOP DEPTH
 STEP        .M                                    0.1250: SAMPLE RATE
 NULL        .                                  -999.2500: NULL VALUE
 COMP        .                                    STATOIL: Company
 WELL        .                                  6608/10-4: Well
 UWI         .                               NO 6608/10-4: Unique Well ID
 FLD         .                                      NORNE: Field
 CNTY        .                                    UNKNOWN: County
 STAT        .                                    UNKNOWN: State
 CTRY        .                                     Norway: Country
 XCOORD      .                               462006.74350: Surface X
 YCOORD      .                              7324847.22971: Surface Y
 LAT         .                                   66.04035: Latitude
 LON         .                                    8.16159: Longitude
 ELEV        .M                                   23.0000: Surface Elev
 ELEV_TYPE   .                                         KB: Elev Type
~Curve Information Block
#MNEMONIC                   .UNIT                 API CODE      : DESCRIPTION
#------------------------------------------------------------------------------
 DEPTH                      .M                                  :
 CALI                       .inches               UNKNOWN       : Run 1, Ver 1
 GR                         .API                  UNKNOWN       : Run 1, Ver 1
 KLOGH                      .mD                   UNKNOWN       : Run 1, Ver 4
 PHIF                       .v/v decimal          UNKNOWN       : Run 1, Ver 3
 RHOB                       .g/cm3                UNKNOWN       : Run 1, Ver 1
 RT                         .ohm.m                UNKNOWN       : Run 1, Ver 1
 SW                         .v/v decimal          UNKNOWN       : Run 1, Ver 3
~A      DEPTH         CALI           GR        KLOGH         PHIF         RHOB           RT           SW
# ...
    2773.1250       9.1410      88.8431    -999.2500    -999.2500       2.4138       2.5416    -999.2500
    2773.2500       9.1410      76.4893    -999.2500    -999.2500       2.3772       2.5417    -999.2500
    2773.3750       9.1410      80.8200    -999.2500    -999.2500       2.3573       2.5450    -999.2500
    2773.5000       9.1410      82.4446    -999.2500    -999.2500       2.3703       2.7928    -999.2500
    2773.6250       9.1410      82.2712    -999.2500    -999.2500       2.3980       2.7226    -999.2500
    2773.7500       9.1410      92.0075    -999.2500    -999.2500       2.4265       2.6369    -999.2500
    2773.8750       9.1962     105.0884    -999.2500    -999.2500       2.4480       2.6466    -999.2500
    2774.0000       9.3370     108.5300    -999.2500    -999.2500       2.4604       2.7478    -999.2500
    2774.1250       9.3370     108.5300    -999.2500    -999.2500       2.4668       2.9734    -999.2500
    2774.2500       9.4097     105.2259    -999.2500    -999.2500       2.4671       2.5394    -999.2500
    2774.3750       9.4350     111.0240    -999.2500    -999.2500       2.4584       2.2125    -999.2500
    2774.5000       9.4350     122.8638    -999.2500    -999.2500       2.4370       1.9982    -999.2500
    2774.6250       9.4350     128.1086    -999.2500    -999.2500       2.4015       1.7168    -999.2500
    2774.7500       9.4284     107.1610    -999.2500    -999.2500       2.3538       1.1293    -999.2500
    2774.8750       9.1872      87.2669    -999.2500    -999.2500       2.3057       0.9192    -999.2500
    2775.0000       9.1410      87.3986    -999.2500    -999.2500       2.2680       0.7649    -999.2500
    2775.1250       9.1410      87.1656    -999.2500    -999.2500       2.2336       0.6935    -999.2500
    2775.2500       9.1410      71.9397    -999.2500    -999.2500       2.1884       0.6729    -999.2500
    2775.3750       9.1410      41.8802    -999.2500    -999.2500       2.1135       0.6725    -999.2500
    2775.5000       9.1410      38.4973    -999.2500    -999.2500       1.9806       0.7619    -999.2500
    2775.6250       9.1410      35.9567    -999.2500    -999.2500       1.7966       0.7412    -999.2500
    2775.7500       9.1410      38.0704    -999.2500    -999.2500       1.6321       0.6927    -999.2500
    2775.8750       9.1410      41.4783    -999.2500    -999.2500       1.5392       0.6660    -999.2500
    2776.0000       9.1410      42.9179    -999.2500    -999.2500       1.5481       0.7320    -999.2500
    2776.1250       9.1410      41.0531    -999.2500    -999.2500       1.6600       1.0482    -999.2500
    2776.2500       9.1410      46.1567    -999.2500    -999.2500       1.8261       2.8435    -999.2500
    2776.3750       9.1410      67.3435    -999.2500    -999.2500       1.9619       3.1558    -999.2500
    2776.5000       9.1410      84.7339    -999.2500    -999.2500       2.0548       2.9479    -999.2500
    2776.6250       9.1410      92.8298    -999.2500    -999.2500       2.1167       2.8164    -999.2500
    2776.7500       9.1410      92.7921    -999.2500    -999.2500       2.1681       3.0648    -999.2500
    2776.8750       9.1410      89.9573    -999.2500    -999.2500       2.2268       3.5251    -999.2500
    2777.0000       9.1410      85.4905    -999.2500    -999.2500       2.2833       3.4811    -999.2500
    2777.1250       9.1410      83.8930    -999.2500    -999.2500       2.3252       2.1718    -999.2500
    2777.2500       9.1410      83.0319    -999.2500    -999.2500       2.3496       1.3049    -999.2500
    2777.3750       9.1410      79.6807    -999.2500    -999.2500       2.3583       1.3571    -999.2500
    2777.5000       9.1410      71.8265    -999.2500    -999.2500       2.3566       1.6360    -999.2500
    2777.6250       9.1410      71.2595    -999.2500    -999.2500       2.3516       1.6844    -999.2500
    2777.7500       9.1410      66.7832    -999.2500    -999.2500       2.3452       1.2469    -999.2500
    2777.8750       9.1410      68.2415    -999.2500    -999.2500       2.3408       1.0097    -999.2500
    2778.0000       9.1410      71.6626    -999.2500    -999.2500       2.3422       0.9523    -999.2500
    2778.1250       9.1410      73.2617    -999.2500    -999.2500       2.3502       0.9249    -999.2500
    2778.2500       9.1410      76.7100    -999.2500    -999.2500       2.3613       0.8800    -999.2500
    2778.3750       9.1410      75.5933    -999.2500    -999.2500       2.3633       0.8558    -999.2500
    2778.5000       9.1410      75.7621    -999.2500    -999.2500       2.3545       0.7664    -999.2500
    2778.6250       9.1410      76.6396    -999.2500    -999.2500       2.3384       0.7098    -999.2500
    2778.7500       9.1410      76.6576    -999.2500    -999.2500       2.3199       0.6970    -999.2500
    2778.8750       9.1410      74.9472    -999.2500    -999.2500       2.3036       0.6854    -999.2500
    2779.0000       9.1410      77.7829    -999.2500    -999.2500       2.2947       0.6796    -999.2500
    2779.1250       9.1410      78.5972    -999.2500    -999.2500       2.2898       0.6907    -999.2500
    2779.2500       9.1410      77.6440    -999.2500    -999.2500       2.2848       0.6928    -999.2500
    2779.3750       9.1410      77.7336    -999.2500    -999.2500       2.2798       0.6954    -999.2500
    2779.5000       9.1410      78.2888    -999.2500    -999.2500       2.2763       0.7062    -999.2500
    2779.6250       9.1410      73.2550    -999.2500    -999.2500       2.2765       0.7200    -999.2500
    2779.7500       9.1410      68.0899    -999.2500    -999.2500       2.2860       0.8039    -999.2500
    2779.8750       9.1410      68.8340    -999.2500    -999.2500       2.3037       0.8887    -999.2500
    2780.0000       9.1410      72.4045    -999.2500    -999.2500       2.3260       0.9373    -999.2500
    2780.1250       9.1410      78.1499    -999.2500    -999.2500       2.3469       0.9667    -999.2500
    2780.2500       9.1410      84.4613    -999.2500    -999.2500       2.3600       1.0153    -999.2500
    2780.3750       9.1410      80.4988    -999.2500    -999.2500       2.3597       1.0907    -999.2500
    2780.5000       9.1410      80.6854    -999.2500    -999.2500       2.3532       1.1406    -999.2500
    2780.6250       9.0849      80.4617    -999.2500    -999.2500       2.3495       1.1870    -999.2500
    2780.7500       9.0815      77.7239    -999.2500    -999.2500       2.3516       1.2059    -999.2500
    2780.8750       9.1410      75.5663    -999.2500    -999.2500       2.3586       1.1884    -999.2500
    2781.0000       9.1410      81.6409    -999.2500    -999.2500       2.3658       1.1523    -999.2500
    2781.1250       9.1410      83.9051    -999.2500    -999.2500       2.3646       1.1342    -999.2500
    2781.2500       9.1410      88.0334    -999.2500    -999.2500       2.3580       1.1350    -999.2500
    2781.3750       9.1410      85.7477    -999.2500    -999.2500       2.3522       1.1498    -999.2500
    2781.5000       9.1410      80.6798    -999.2500    -999.2500       2.3516       1.2161    -999.2500
    2781.6250       9.1410      78.9697    -999.2500    -999.2500       2.3586       1.3312    -999.2500
    2781.7500       9.1410      80.1019    -999.2500    -999.2500       2.3727       1.3263    -999.2500
    2781.8750       9.1410      81.7706    -999.2500    -999.2500       2.3897       1.3144    -999.2500
    2782.0000       9.1410      85.5263    -999.2500    -999.2500       2.4049       1.3092    -999.2500
    2782.1250       9.1410      87.4812    -999.2500    -999.2500       2.4160       1.3823    -999.2500
    2782.2500       9.1410      90.0027    -999.2500    -999.2500       2.4218       1.5865    -999.2500
    2782.3750       9.1410      99.0641    -999.2500    -999.2500       2.4230       1.9214    -999.2500
    2782.5000       9.1410      92.2596    -999.2500    -999.2500       2.4210       2.0938    -999.2500
    2782.6250       9.1410      91.7036    -999.2500    -999.2500       2.4178       2.1193    -999.2500
