#------------------------------------------------------------------------------
#
#   Created by  : WOW Log Export Utility
#   Created on  : 2012-02-24 13:45:42
#   Project     : NORNE
#
#------------------------------------------------------------------------------
~Version Information Block
 VERS.                 2.0: CWLS Log ASCII Standard - version 2
 WRAP.                  NO: One line per depth step
~Well Information Block
#MNEMONIC    .UNIT                            Information: Data type
#------------------------------------------------------------------------------
 STRT        .M                                  472.7500: START DEPTH
 STOP        .M                                 2800.7500: STOP DEPTH
 STEP        .M                                    0.1250: SAMPLE RATE
 NULL        .                                  -999.2500: NULL VALUE
 COMP        .                                    STATOIL: Company
 WELL        .                                  6608/10-4: Well
 UWI         .                               NO 6608/10-4: Unique Well ID
 FLD         .                                      NORNE: Field
 CNTY        .                                    UNKNOWN: County
 STAT        .                                    UNKNOWN: State
 CTRY        .                                     Norway: Country
 XCOORD      .                               462006.74350: Surface X
 YCOORD      .                              7324847.22971: Surface Y
 LAT         .                                   66.04035: Latitude
 LON         .                                    8.16159: Longitude
 ELEV        .M                                   23.0000: Surface Elev
 ELEV_TYPE   .                                         KB: Elev Type
~Curve Information Block
#MNEMONIC                   .UNIT                 API CODE      : DESCRIPTION
#------------------------------------------------------------------------------
 DEPTH                      .M                                  :
 CALI                       .inches               UNKNOWN       : Run 1, Ver 1
 GR                         .API                  UNKNOWN       : Run 1, Ver 1
 KLOGH                      .mD                   UNKNOWN       : Run 1, Ver 4
 PHIF                       .v/v decimal          UNKNOWN       : Run 1, Ver 3
 RHOB                       .g/cm3                UNKNOWN       : Run 1, Ver 1
 RT                         .ohm.m                UNKNOWN       : Run 1, Ver 1
 SW                         .v/v decimal          UNKNOWN       : Run 1, Ver 3
~A      DEPTH         CALI           GR        KLOGH         PHIF         RHOB           RT           SW
# ...
    2368.8750      13.0145      92.0342    -999.2500    -999.2500       2.3146       1.1368    -999.2500
    2369.0000      12.9615      95.7203    -999.2500    -999.2500       2.3193       1.1266    -999.2500
    2369.1250      12.9583      98.6061    -999.2500    -999.2500       2.3222       1.1207    -999.2500
    2369.2500      12.9326     100.3073    -999.2500    -999.2500       2.3219       1.1232    -999.2500
    2369.3750      12.7078     101.5219    -999.2500    -999.2500       2.3181       1.1384    -999.2500
    2369.5000      12.7053     100.4766    -999.2500    -999.2500       2.3111       1.1729    -999.2500
    2369.6250      12.6862      96.8993    -999.2500    -999.2500       2.3034       1.1864    -999.2500
    2369.7500      12.6687      98.7153    -999.2500    -999.2500       2.2969       1.1830    -999.2500
    2369.8750      12.7187     105.8858    -999.2500    -999.2500       2.2927       1.1542    -999.2500
    2370.0000      12.8470     113.0285    -999.2500    -999.2500       2.2915       1.0961    -999.2500
    2370.1250      12.9590     109.4920    -999.2500    -999.2500       2.2936       1.0160    -999.2500
    2370.2500      12.9911     108.4829    -999.2500    -999.2500       2.2993       0.9535    -999.2500
    2370.3750      12.9337     107.8332    -999.2500    -999.2500       2.3056       0.8879    -999.2500
    2370.5000      12.9323     103.1691    -999.2500    -999.2500       2.3105       0.8062    -999.2500
    2370.6250      12.8268      96.4803    -999.2500    -999.2500       2.3127       0.7288    -999.2500
    2370.7500      12.4533      92.4070    -999.2500    -999.2500       2.3114       0.6852    -999.2500
    2370.8750      12.4008      91.3675    -999.2500    -999.2500       2.3062       0.6631    -999.2500
    2371.0000      12.3164      92.5795    -999.2500    -999.2500       2.2985       0.6290    -999.2500
    2371.1250      12.3065      95.4589    -999.2500    -999.2500       2.2909       0.5898    -999.2500
    2371.2500      12.3223      98.0469    -999.2500    -999.2500       2.2853       0.5580    -999.2500
    2371.3750      12.3410      98.6203    -999.2500    -999.2500       2.2830       0.5404    -999.2500
    2371.5000      12.3998      96.4065    -999.2500    -999.2500       2.2845       0.5340    -999.2500
    2371.6250      12.4252      95.8092    -999.2500    -999.2500       2.2897       0.5348    -999.2500
    2371.7500      12.4140      93.7108    -999.2500    -999.2500       2.2957       0.5370    -999.2500
    2371.8750      12.3623      90.3895    -999.2500    -999.2500       2.3010       0.5356    -999.2500
    2372.0000      12.3035      87.9122    -999.2500    -999.2500       2.3047       0.5296    -999.2500
    2372.1250      12.2663      87.8493    -999.2500    -999.2500       2.3065       0.5186    -999.2500
    2372.2500      12.2096      87.7018    -999.2500    -999.2500       2.3070       0.4965    -999.2500
    2372.3750      12.1899      85.2377    -999.2500    -999.2500       2.3071       0.4690    -999.2500
    2372.5000      12.1709      84.8610    -999.2500    -999.2500       2.3074       0.4452    -999.2500
    2372.6250      12.1899      82.4806    -999.2500    -999.2500       2.3086       0.4222    -999.2500
    2372.7500      12.2249      78.0747    -999.2500    -999.2500       2.3112       0.4018    -999.2500
    2372.8750      12.1975      76.1822    -999.2500    -999.2500       2.3152       0.3917    -999.2500
    2373.0000      12.1386      76.1149    -999.2500    -999.2500       2.3206       0.4031    -999.2500
    2373.1250      12.1091      73.8572    -999.2500    -999.2500       2.3265       0.4229    -999.2500
    2373.2500      12.1508      74.5871    -999.2500    -999.2500       2.3313       0.4478    -999.2500
    2373.3750      12.1865      77.6672    -999.2500    -999.2500       2.3338       0.4755    -999.2500
    2373.5000      12.1651      80.6140    -999.2500    -999.2500       2.3335       0.5061    -999.2500
    2373.6250      12.1988      81.2319    -999.2500    -999.2500       2.3312       0.5455    -999.2500
    2373.7500      12.3767      79.2360    -999.2500    -999.2500       2.3293       0.6093    -999.2500
    2373.8750      12.4837      76.3580    -999.2500    -999.2500       2.3302       0.7064    -999.2500
    2374.0000      12.4267      73.7954    -999.2500    -999.2500       2.3353       0.8293    -999.2500
    2374.1250      12.3480      72.4204    -999.2500    -999.2500       2.3443       0.9627    -999.2500
    2374.2500      12.5148      72.3120    -999.2500    -999.2500       2.3551       1.0880    -999.2500
    2374.3750      12.7802      69.7159    -999.2500    -999.2500       2.3621       1.1955    -999.2500
    2374.5000      12.6335      74.0651    -999.2500    -999.2500       2.3599       1.2490    -999.2500
    2374.6250      12.6704      78.6707    -999.2500    -999.2500       2.3491       1.2788    -999.2500
    2374.7500      12.6223      81.6805    -999.2500    -999.2500       2.3319       1.2998    -999.2500
    2374.8750      12.3539      83.1382    -999.2500    -999.2500       2.3124       1.3165    -999.2500
    2375.0000      12.3680      84.5320    -999.2500    -999.2500       2.2961       1.3190    -999.2500
    2375.1250      12.2723      84.0276    -999.2500    -999.2500       2.2905       1.3352    -999.2500
    2375.2500      12.2803      82.9711    -999.2500    -999.2500       2.2929       1.3390    -999.2500
    2375.3750      12.5032      82.5304    -999.2500    -999.2500       2.3016       1.3313    -999.2500
    2375.5000      12.8356      83.2528    -999.2500    -999.2500       2.3134       1.3223    -999.2500
    2375.6250      13.0599      84.6045    -999.2500    -999.2500       2.3245       1.3226    -999.2500
    2375.7500      13.0681      82.4351    -999.2500    -999.2500       2.3304       1.3194    -999.2500
    2375.8750      13.1034      83.2705    -999.2500    -999.2500       2.3312       1.3058    -999.2500
    2376.0000      13.1873      84.2205    -999.2500    -999.2500       2.3299       1.2894    -999.2500
    2376.1250      13.2043      84.8128    -999.2500    -999.2500       2.3286       1.2696    -999.2500
    2376.2500      13.0955      85.2276    -999.2500    -999.2500       2.3283       1.2482    -999.2500
    2376.3750      12.9231      86.0006    -999.2500    -999.2500       2.3293       1.2321    -999.2500
    2376.5000      12.6762      87.1928    -999.2500    -999.2500       2.3298       1.2353    -999.2500
    2376.6250      12.6757      85.7043    -999.2500    -999.2500       2.3282       1.2484    -999.2500
    2376.7500      12.9861      84.4143    -999.2500    -999.2500       2.3251       1.2631    -999.2500
    2376.8750      13.4172      85.2017    -999.2500    -999.2500       2.3218       1.2720    -999.2500
    2377.0000      13.6867      88.1577    -999.2500    -999.2500       2.3202       1.2702    -999.2500
    2377.1250      13.6277      88.5737    -999.2500    -999.2500       2.3222       1.2571    -999.2500
    2377.2500      13.2607      90.6284    -999.2500    -999.2500       2.3285       1.2318    -999.2500
    2377.3750      13.0544      90.3812    -999.2500    -999.2500       2.3368       1.2033    -999.2500
    2377.5000      13.1366      88.6485    -999.2500    -999.2500       2.3453       1.1860    -999.2500
    2377.6250      13.3685      86.1107    -999.2500    -999.2500       2.3520       1.1849    -999.2500
    2377.7500      13.4012      82.6088    -999.2500    -999.2500       2.3551       1.1921    -999.2500
    2377.8750      13.6145      78.3225    -999.2500    -999.2500       2.3535       1.1946    -999.2500
    2378.0000      13.7501      75.5611    -999.2500    -999.2500       2.3502       1.1876    -999.2500
    2378.1250      14.0071      76.0563    -999.2500    -999.2500       2.3474       1.1716    -999.2500
    2378.2500      14.4031      78.6296    -999.2500    -999.2500       2.3456       1.1511    -999.2500
    2378.3750      14.7375      80.9576    -999.2500    -999.2500       2.3444       1.1321    -999.2500
