#------------------------------------------------------------------------------
#
#   Created by  : WOW Log Export Utility
#   Created on  : 2012-02-24 13:45:43
#   Project     : NORNE
#
#------------------------------------------------------------------------------
~Version Information Block
 VERS.                 2.0: CWLS Log ASCII Standard - version 2
 WRAP.                  NO: One line per depth step
~Well Information Block
#MNEMONIC    .UNIT                            Information: Data type
#------------------------------------------------------------------------------
 STRT        .M                                 1275.2832: START DEPTH
 STOP        .M                                 2804.7695: STOP DEPTH
 STEP        .M                                    0.1524: SAMPLE RATE
 NULL        .                                  -999.2500: NULL VALUE
 COMP        .                                    STATOIL: Company
 WELL        .                                  6608/10-4: Well
 UWI         .                               NO 6608/10-4: Unique Well ID
 FLD         .                                      NORNE: Field
 CNTY        .                                    UNKNOWN: County
 STAT        .                                    UNKNOWN: State
 CTRY        .                                     Norway: Country
 XCOORD      .                               462006.74350: Surface X
 YCOORD      .                              7324847.22971: Surface Y
 LAT         .                                   66.04035: Latitude
 LON         .                                    8.16159: Longitude
 ELEV        .M                                   23.0000: Surface Elev
 ELEV_TYPE   .                                         KB: Elev Type
~Curve Information Block
#MNEMONIC                   .UNIT                 API CODE      : DESCRIPTION
#------------------------------------------------------------------------------
 DEPTH                      .M                                  :
 DT                         .us/ft                UNKNOWN       : Run 1, Ver 1
 RS                         .OHM.M                UNKNOWN       : Run 1, Ver 1
~A      DEPTH           DT           RS
# ...
    2555.4432      94.7509       1.2319
    2555.5956      95.8288       1.2249
    2555.7480      98.5459       1.2406
    2555.9004     100.3626       1.3001
    2556.0528      99.3999       1.4032
    2556.2052      96.3173       1.5147
    2556.3576      93.6893       1.5864
    2556.5100      93.3915       1.5958
    2556.6624      94.6992       1.5655
    2556.8148      95.9123       1.5420
    2556.9672      96.5298       1.5514
    2557.1196      96.9906       1.5809
    2557.2720      97.6425       1.6023
    2557.4244      97.9590       1.5906
    2557.5768      97.2336       1.5355
    2557.7292      95.9704       1.4680
    2557.8816      95.5893       1.4620
    2558.0340      96.5821       1.5675
    2558.1864      97.8668       1.7513
    2558.3388      98.1520       1.9319
    2558.4912      96.9112       2.0749
    2558.6436      94.2897       2.2202
    2558.7960      90.7625       2.4095
    2558.9484      87.1142       2.5874
    2559.1008      84.5781       2.6075
    2559.2532      84.6005       2.3825
    2559.4056      87.5400       1.9897
    2559.5580      91.8771       1.6071
    2559.7104      95.6349       1.3691
    2559.8628      98.0552       1.2947
    2560.0152      99.6723       1.3162
    2560.1676     101.1870       1.3960
    2560.3200     102.4274       1.5875
    2560.4724     102.3341       1.8908
    2560.6248     100.4035       2.1626
    2560.7772      97.7659       2.2204
    2560.9296      96.2484       2.0087
    2561.0820      96.9658       1.6652
    2561.2344      99.8003       1.3957
    2561.3868     103.5251       1.2943
    2561.5392     106.6259       1.3034
    2561.6916     108.2019       1.3369
    2561.8440     108.0172       1.3567
    2561.9964     106.2663       1.3777
    2562.1488     103.5396       1.4436
    2562.3012     100.3062       1.5632
    2562.4536      96.8718       1.6966
    2562.6060      93.9420       1.7795
    2562.7584      92.2247       1.7597
    2562.9108      92.0939       1.6382
    2563.0632      93.3822       1.4813
    2563.2156      95.0549       1.3804
    2563.3680      95.7239       1.3954
    2563.5204      94.8009       1.5196
    2563.6728      92.8303       1.6733
    2563.8252      91.0508       1.7628
    2563.9776      90.5901       1.7499
    2564.1300      91.7517       1.6678
    2564.2824      94.0562       1.5917
    2564.4348      96.9458       1.5737
    2564.5872     100.1148       1.5989
    2564.7396     103.2998       1.6120
    2564.8920     106.3260       1.5830
    2565.0444     108.6659       1.5289
    2565.1968     109.4450       1.4920
    2565.3492     108.1108       1.5071
    2565.5016     105.1389       1.5657
    2565.6540     101.8363       1.6233
    2565.8064      99.5461       1.6340
    2565.9588      98.8968       1.5887
    2566.1112      99.3483       1.5383
    2566.2636      99.8787       1.5654
    2566.4160      99.6227       1.7332
    2566.5684      98.1441       2.0732
    2566.7208      95.6922       2.6146
    2566.8732      93.2916       3.3955
    2567.0256      92.4319       4.4000
    2567.1780      94.2760       5.4862
    2567.3304      98.4445       6.4456
    2567.4828     103.0120       7.1482
    2567.6352     105.9811       7.6452
    2567.7876     106.6841       8.1008
    2567.9400     106.1138       8.5883
    2568.0924     105.7505       9.0171
    2568.2448     106.3292       9.2430
    2568.3972     107.6213       9.2015
    2568.5496     109.0112       8.9309
    2568.7020     109.9448       8.5064
    2568.8544     110.2816       7.9906
    2569.0068     110.1652       7.4556
    2569.1592     109.6317       7.0150
    2569.3116     108.6822       6.7347
    2569.4640     107.4596       6.5770
    2569.6164     106.2676       6.4576
    2569.7688     105.3142       6.3107
    2569.9212     104.7697       6.1260
    2570.0736     104.6731       5.9203
    2570.2260     105.0885       5.7016
    2570.3784     106.0348       5.4834
    2570.5308     107.1146       5.3095
    2570.6832     107.7002       5.2211
    2570.8356     107.3415       5.2038
    2570.9880     106.2854       5.1945
    2571.1404     105.1565       5.1345
    2571.2928     104.5338       5.0207
    2571.4452     104.3952       4.9081
    2571.5976     104.1953       4.8483
    2571.7500     103.6807       4.8393
    2571.9024     103.0508       4.8303
    2572.0548     102.7983       4.7674
    2572.2072     103.1815       4.6346
    2572.3596     104.0519       4.4543
    2572.5120     104.9159       4.2730
    2572.6644     105.2546       4.1404
    2572.8168     104.8805       4.0836
    2572.9692     103.9043       4.1010
    2573.1216     102.6017       4.1635
    2573.2740     101.2787       4.2314
    2573.4264     100.2344       4.2868
    2573.5788      99.6635       4.3392
    2573.7312      99.7567       4.3901
    2573.8836     100.5979       4.4063
    2574.0360     102.0281       4.3503
    2574.1884     103.7777       4.2304
    2574.3408     105.5647       4.1141
    2574.4932     107.1439       4.0800
    2574.6456     108.2665       4.1490
    2574.7980     108.8093       4.2655
    2574.9504     108.7661       4.3424
    2575.1028     108.3695       4.3406
    2575.2552     107.9915       4.2915
    2575.4076     107.6125       4.2509
    2575.5600     106.8490       4.2499
    2575.7124     105.4668       4.2675
    2575.8648     103.6983       4.2656
    2576.0172     102.0302       4.2337
    2576.1696     100.8825       4.1804
    2576.3220     100.2568       4.1159
    2576.4744      99.8052       4.0530
    2576.6268      99.3780       4.0097
    2576.7792      99.0816       4.0156
    2576.9316      99.1605       4.1148
    2577.0840      99.9982       4.3269
    2577.2364     101.7227       4.6241
    2577.3888     103.9091       4.9403
    2577.5412     105.8185       5.1871
    2577.6936     106.8047       5.2992
    2577.8460     106.7760       5.2641
    2577.9984     106.2197       5.1196
    2578.1508     105.7566       4.9384
    2578.3032     105.6052       4.7904
    2578.4556     105.7608       4.6959
    2578.6080     106.2514       4.6246
    2578.7604     107.0519       4.5330
    2578.9128     108.0936       4.3989
    2579.0652     109.0088       4.2340
    2579.2176     109.4934       4.0635
    2579.3700     109.5639       3.8991
    2579.5224     109.4571       3.7373
    2579.6748     109.5359       3.5762
    2579.8272     109.7957       3.4303
    2579.9796     109.8200       3.3234
    2580.1320     109.0210       3.2657
    2580.2844     107.1584       3.2435
    2580.4368     104.5434       3.2282
    2580.5892     101.8655       3.1918
    2580.7416      99.8949       3.1278
    2580.8940      98.9005       3.0627
    2581.0464      98.7848       3.0473
    2581.1988      99.0275       3.1271
    2581.3512      98.7884       3.3116
    2581.5036      97.5463       3.5513
    2581.6560      95.4293       3.7629
    2581.8084      93.2662       3.8915
    2581.9608      92.1264       3.9406
    2582.1132      92.3966       3.9550
    2582.2656      93.4187       3.9770
    2582.4180      94.4400       4.0140
    2582.5704      95.2365       4.0429
    2582.7228      95.9546       4.0411
    2582.8752      96.8427       4.0045
    2583.0276      97.6743       3.9486
    2583.1800      97.9505       3.9031
    2583.3324      97.7359       3.8986
    2583.4848      97.3867       3.9460
    2583.6372      97.0431       4.0194
    2583.7896      96.7592       4.0745
    2583.9420      96.3391       4.1182
    2584.0944      95.2366       4.2403
    2584.2468      92.9658       4.5212
    2584.3992      89.3969       4.8946
    2584.5516      85.1992       5.1436
    2584.7040      82.1252       5.0891
    2584.8564      81.8182       4.7673
    2585.0088      84.4386       4.3901
    2585.1612      88.7764       4.1397
    2585.3136      93.0095       4.0403
    2585.4660      95.8069       4.0062
    2585.6184      96.9478       3.9597
    2585.7708      96.9202       3.8898
