#------------------------------------------------------------------------------
#
#   Created by  : WOW Log Export Utility
#   Created on  : 2012-02-24 13:45:43
#   Project     : NORNE
#
#------------------------------------------------------------------------------
~Version Information Block
 VERS.                 2.0: CWLS Log ASCII Standard - version 2
 WRAP.                  NO: One line per depth step
~Well Information Block
#MNEMONIC    .UNIT                            Information: Data type
#------------------------------------------------------------------------------
 STRT        .M                                 2460.3457: START DEPTH
 STOP        .M                                 2795.6255: STOP DEPTH
 STEP        .M                                    0.1524: SAMPLE RATE
 NULL        .                                  -999.2500: NULL VALUE
 COMP        .                                    STATOIL: Company
 WELL        .                                  6608/10-4: Well
 UWI         .                               NO 6608/10-4: Unique Well ID
 FLD         .                                      NORNE: Field
 CNTY        .                                    UNKNOWN: County
 STAT        .                                    UNKNOWN: State
 CTRY        .                                     Norway: Country
 XCOORD      .                               462006.74350: Surface X
 YCOORD      .                              7324847.22971: Surface Y
 LAT         .                                   66.04035: Latitude
 LON         .                                    8.16159: Longitude
 ELEV        .M                                   23.0000: Surface Elev
 ELEV_TYPE   .                                         KB: Elev Type
~Curve Information Block
#MNEMONIC                   .UNIT                 API CODE      : DESCRIPTION
#------------------------------------------------------------------------------
 DEPTH                      .M                                  :
 DTS                        .us/ft                UNKNOWN       : Run 1, Ver 1
 NPHI                       .v/v decimal          UNKNOWN       : Run 1, Ver 2
~A      DEPTH          DTS         NPHI
    2460.3457    -999.2500       0.1662
    2460.4981    -999.2500       0.2837
    2460.6505    -999.2500       0.2837
    2460.8029    -999.2500       0.2837
    2460.9553    -999.2500       0.2837
    2461.1077    -999.2500       0.2839
    2461.2601    -999.2500       0.2839
    2461.4125    -999.2500       0.2836
    2461.5649    -999.2500       0.2836
    2461.7173    -999.2500       0.2836
    2461.8697    -999.2500       0.2836
    2462.0221    -999.2500       0.2848
    2462.1745    -999.2500       0.2783
    2462.3269    -999.2500       0.2787
    2462.4793    -999.2500       0.3166
    2462.6317    -999.2500       0.3877
    2462.7841    -999.2500       0.4487
    2462.9365    -999.2500       0.4479
    2463.0889    -999.2500       0.3867
    2463.2413    -999.2500       0.3228
    2463.3937    -999.2500       0.3086
    2463.5461    -999.2500       0.3270
    2463.6985    -999.2500       0.3380
    2463.8509    -999.2500       0.3364
    2464.0033    -999.2500       0.3252
    2464.1557    -999.2500       0.3153
    2464.3081    -999.2500       0.3228
    2464.4605    -999.2500       0.3454
    2464.6129    -999.2500       0.3672
    2464.7653    -999.2500       0.3752
    2464.9177    -999.2500       0.3722
    2465.0701    -999.2500       0.3765
    2465.2225    -999.2500       0.4041
    2465.3749    -999.2500       0.4231
    2465.5273    -999.2500       0.4112
    2465.6797    -999.2500       0.3926
    2465.8321    -999.2500       0.3954
    2465.9845    -999.2500       0.4305
    2466.1369    -999.2500       0.4716
    2466.2893    -999.2500       0.4821
    2466.4417    -999.2500       0.4556
    2466.5941    -999.2500       0.4263
    2466.7465    -999.2500       0.4226
    2466.8989    -999.2500       0.4398
    2467.0513    -999.2500       0.4469
    2467.2037    -999.2500       0.4180
    2467.3561    -999.2500       0.3719
    2467.5085    -999.2500       0.3459
    2467.6609    -999.2500       0.3541
    2467.8133    -999.2500       0.3840
    2467.9657    -999.2500       0.4184
    2468.1181    -999.2500       0.4462
    2468.2705    -999.2500       0.4576
    2468.4229    -999.2500       0.4453
    2468.5753    -999.2500       0.4085
    2468.7277    -999.2500       0.3652
    2468.8801    -999.2500       0.3305
    2469.0325    -999.2500       0.3216
    2469.1849    -999.2500       0.3430
    2469.3373    -999.2500       0.3724
    2469.4897    -999.2500       0.3971
    2469.6421    -999.2500       0.3994
    2469.7945    -999.2500       0.3876
    2469.9469    -999.2500       0.3871
    2470.0993    -999.2500       0.4228
    2470.2517    -999.2500       0.4793
    2470.4041    -999.2500       0.5014
    2470.5565    -999.2500       0.4762
    2470.7089    -999.2500       0.4362
    2470.8613    -999.2500       0.4267
    2471.0137    -999.2500       0.4524
    2471.1661    -999.2500       0.4784
    2471.3185    -999.2500       0.4820
    2471.4709    -999.2500       0.4757
    2471.6233    -999.2500       0.4720
    2471.7757    -999.2500       0.4589
    2471.9281    -999.2500       0.4309
    2472.0805    -999.2500       0.4024
    2472.2329    -999.2500       0.3852
    2472.3853    -999.2500       0.3791
    2472.5377    -999.2500       0.3754
    2472.6901    -999.2500       0.3766
    2472.8425    -999.2500       0.3763
    2472.9949    -999.2500       0.3668
    2473.1473    -999.2500       0.3493
    2473.2997    -999.2500       0.3279
    2473.4521    -999.2500       0.3049
    2473.6045    -999.2500       0.2816
    2473.7569    -999.2500       0.2541
    2473.9093    -999.2500       0.2266
    2474.0617    -999.2500       0.2202
    2474.2141    -999.2500       0.2468
    2474.3665    -999.2500       0.2908
    2474.5189    -999.2500       0.3177
    2474.6713    -999.2500       0.3175
    2474.8237    -999.2500       0.3139
    2474.9761    -999.2500       0.3291
    2475.1285    -999.2500       0.3527
    2475.2809    -999.2500       0.3556
    2475.4333    -999.2500       0.3365
    2475.5857    -999.2500       0.3138
    2475.7381    -999.2500       0.3059
    2475.8905    -999.2500       0.3162
    2476.0429    -999.2500       0.3398
    2476.1953    -999.2500       0.3667
    2476.3477    -999.2500       0.3833
    2476.5001    -999.2500       0.3787
    2476.6525    -999.2500       0.3566
    2476.8049    -999.2500       0.3290
    2476.9573    -999.2500       0.3068
    2477.1097    -999.2500       0.3037
    2477.2621    -999.2500       0.3244
    2477.4145    -999.2500       0.3551
    2477.5669    -999.2500       0.3814
    2477.7193    -999.2500       0.3953
    2477.8717    -999.2500       0.3894
    2478.0241    -999.2500       0.3792
    2478.1765    -999.2500       0.3760
    2478.3289    -999.2500       0.3744
    2478.4813    -999.2500       0.3768
    2478.6337    -999.2500       0.3828
    2478.7861    -999.2500       0.3993
    2478.9385    -999.2500       0.4267
    2479.0909    -999.2500       0.4442
    2479.2433    -999.2500       0.4296
    2479.3957    -999.2500       0.4023
    2479.5481    -999.2500       0.3975
    2479.7005    -999.2500       0.4158
    2479.8529    -999.2500       0.4297
    2480.0053    -999.2500       0.4002
    2480.1577    -999.2500       0.3270
    2480.3101    -999.2500       0.2597
    2480.4625    -999.2500       0.2403
    2480.6149    -999.2500       0.2665
    2480.7673    -999.2500       0.3000
    2480.9197    -999.2500       0.3056
    2481.0721    -999.2500       0.2877
    2481.2245    -999.2500       0.2794
    2481.3769    -999.2500       0.3098
    2481.5293    -999.2500       0.3796
    2481.6817    -999.2500       0.4497
    2481.8341    -999.2500       0.4842
    2481.9865    -999.2500       0.4878
    2482.1389    -999.2500       0.4716
    2482.2913    -999.2500       0.4562
    2482.4437    -999.2500       0.4450
    2482.5961    -999.2500       0.4259
    2482.7485    -999.2500       0.3976
    2482.9009    -999.2500       0.3926
    2483.0533    -999.2500       0.4235
    2483.2057    -999.2500       0.4804
    2483.3581    -999.2500       0.5290
    2483.5105    -999.2500       0.5191
    2483.6629    -999.2500       0.4617
    2483.8153    -999.2500       0.4128
    2483.9677    -999.2500       0.3965
    2484.1201    -999.2500       0.3879
    2484.2725    -999.2500       0.3606
    2484.4249    -999.2500       0.3186
    2484.5773    -999.2500       0.2792
    2484.7297    -999.2500       0.2594
    2484.8821    -999.2500       0.2510
    2485.0345    -999.2500       0.2471
    2485.1869    -999.2500       0.2495
    2485.3393    -999.2500       0.2524
    2485.4917    -999.2500       0.2496
    2485.6441    -999.2500       0.2404
    2485.7965    -999.2500       0.2297
    2485.9489    -999.2500       0.2205
    2486.1013    -999.2500       0.2198
    2486.2537    -999.2500       0.2285
    2486.4061    -999.2500       0.2439
    2486.5585    -999.2500       0.2601
    2486.7109    -999.2500       0.2659
    2486.8633    -999.2500       0.2616
    2487.0157    -999.2500       0.2596
    2487.1681    -999.2500       0.2724
    2487.3205    -999.2500       0.2981
    2487.4729    -999.2500       0.3260
    2487.6253    -999.2500       0.3432
    2487.7777    -999.2500       0.3407
    2487.9301    -999.2500       0.3238
    2488.0825    -999.2500       0.3093
    2488.2349    -999.2500       0.3095
    2488.3873    -999.2500       0.3175
    2488.5397    -999.2500       0.3171
    2488.6921    -999.2500       0.3043
    2488.8445    -999.2500       0.2899
    2488.9969    -999.2500       0.2867
    2489.1493    -999.2500       0.2955
    2489.3017    -999.2500       0.3076
    2489.4541    -999.2500       0.3142
    2489.6065    -999.2500       0.3107
    2489.7589    -999.2500       0.2930
    2489.9113    -999.2500       0.2686
    2490.0637    -999.2500       0.2542
    2490.2161    -999.2500       0.2591
    2490.3685    -999.2500       0.2783
    2490.5209    -999.2500       0.2987
    2490.6733    -999.2500       0.3172
