#------------------------------------------------------------------------------
#
#   Created by  : WOW Log Export Utility
#   Created on  : 2012-02-24 13:45:43
#   Project     : NORNE
#
#------------------------------------------------------------------------------
~Version Information Block
 VERS.                 2.0: CWLS Log ASCII Standard - version 2
 WRAP.                  NO: One line per depth step
~Well Information Block
#MNEMONIC    .UNIT                            Information: Data type
#------------------------------------------------------------------------------
 STRT        .M                                 1275.2832: START DEPTH
 STOP        .M                                 2804.7695: STOP DEPTH
 STEP        .M                                    0.1524: SAMPLE RATE
 NULL        .                                  -999.2500: NULL VALUE
 COMP        .                                    STATOIL: Company
 WELL        .                                  6608/10-4: Well
 UWI         .                               NO 6608/10-4: Unique Well ID
 FLD         .                                      NORNE: Field
 CNTY        .                                    UNKNOWN: County
 STAT        .                                    UNKNOWN: State
 CTRY        .                                     Norway: Country
 XCOORD      .                               462006.74350: Surface X
 YCOORD      .                              7324847.22971: Surface Y
 LAT         .                                   66.04035: Latitude
 LON         .                                    8.16159: Longitude
 ELEV        .M                                   23.0000: Surface Elev
 ELEV_TYPE   .                                         KB: Elev Type
~Curve Information Block
#MNEMONIC                   .UNIT                 API CODE      : DESCRIPTION
#------------------------------------------------------------------------------
 DEPTH                      .M                                  :
 DT                         .us/ft                UNKNOWN       : Run 1, Ver 1
 RS                         .OHM.M                UNKNOWN       : Run 1, Ver 1
~A      DEPTH           DT           RS
# ...
    1976.3232     139.1407    -999.2500
    1976.4756     137.3973    -999.2500
    1976.6280     135.9299    -999.2500
    1976.7804     135.2539    -999.2500
    1976.9328     134.5300    -999.2500
    1977.0852     132.7923    -999.2500
    1977.2376     130.1615    -999.2500
    1977.3900     128.1357    -999.2500
    1977.5424     128.0791    -999.2500
    1977.6948     129.9495    -999.2500
    1977.8472     132.1891    -999.2500
    1977.9996     133.0828    -999.2500
    1978.1520     132.0554    -999.2500
    1978.3044     129.3885    -999.2500
    1978.4568     126.2381    -999.2500
    1978.6092     123.7593    -999.2500
    1978.7616     122.7513    -999.2500
    1978.9140     123.6139    -999.2500
    1979.0664     125.7552    -999.2500
    1979.2188     128.1778    -999.2500
    1979.3712     130.4930    -999.2500
    1979.5236     132.5533    -999.2500
    1979.6760     133.9482    -999.2500
    1979.8284     134.3734    -999.2500
    1979.9808     133.7758    -999.2500
    1980.1332     132.7943    -999.2500
    1980.2856     132.3975    -999.2500
    1980.4380     132.6407    -999.2500
    1980.5904     132.6220    -999.2500
    1980.7428     131.7631    -999.2500
    1980.8952     130.2220    -999.2500
    1981.0476     128.7879    -999.2500
    1981.2000     128.1159    -999.2500
    1981.3524     127.7665    -999.2500
    1981.5048     127.0010    -999.2500
    1981.6572     125.7606    -999.2500
    1981.8096     124.7433    -999.2500
    1981.9620     124.8179    -999.2500
    1982.1144     126.3670    -999.2500
    1982.2668     128.5282    -999.2500
    1982.4192     129.9841    -999.2500
    1982.5716     129.9301    -999.2500
    1982.7240     128.3221    -999.2500
    1982.8764     126.3216    -999.2500
    1983.0288     125.3273    -999.2500
    1983.1812     126.1040    -999.2500
    1983.3336     128.4010    -999.2500
    1983.4860     131.1494    -999.2500
    1983.6384     132.9686    -999.2500
    1983.7908     133.2466    -999.2500
    1983.9432     132.7646    -999.2500
    1984.0956     132.6312    -999.2500
    1984.2480     133.5418    -999.2500
    1984.4004     135.2637    -999.2500
    1984.5528     136.8689    -999.2500
    1984.7052     137.8088    -999.2500
    1984.8576     138.2914    -999.2500
    1985.0100     138.3160    -999.2500
    1985.1624     137.2934    -999.2500
    1985.3148     134.6615    -999.2500
    1985.4672     130.5194    -999.2500
    1985.6196     126.1827    -999.2500
    1985.7720     123.6923    -999.2500
    1985.9244     123.7779    -999.2500
    1986.0768     125.4937    -999.2500
    1986.2292     127.5773    -999.2500
    1986.3816     128.7075    -999.2500
    1986.5340     128.2796    -999.2500
    1986.6864     126.5293    -999.2500
    1986.8388     124.2620    -999.2500
    1986.9912     122.8439    -999.2500
    1987.1436     123.6679    -999.2500
    1987.2960     126.5113    -999.2500
    1987.4484     129.2684    -999.2500
    1987.6008     129.9401    -999.2500
    1987.7532     127.7489    -999.2500
    1987.9056     123.9050    -999.2500
    1988.0580     120.5474    -999.2500
    1988.2104     118.9930    -999.2500
    1988.3628     119.1108    -999.2500
    1988.5152     119.9429    -999.2500
    1988.6676     120.7489    -999.2500
    1988.8200     121.1954    -999.2500
    1988.9724     121.4387    -999.2500
    1989.1248     121.6547    -999.2500
    1989.2772     121.8587    -999.2500
    1989.4296     121.8650    -999.2500
    1989.5820     121.7302    -999.2500
    1989.7344     121.6271    -999.2500
    1989.8868     121.3274    -999.2500
    1990.0392     120.3313    -999.2500
    1990.1916     117.9651    -999.2500
    1990.3440     114.7802    -999.2500
    1990.4964     112.4750    -999.2500
    1990.6488     112.4850    -999.2500
    1990.8012     114.9238    -999.2500
    1990.9536     118.0279    -999.2500
    1991.1060     119.4601    -999.2500
    1991.2584     117.8571    -999.2500
    1991.4108     113.1921    -999.2500
    1991.5632     106.4788    -999.2500
    1991.7156     100.3321    -999.2500
    1991.8680      97.7249    -999.2500
    1992.0204      99.7233    -999.2500
    1992.1728     105.1619    -999.2500
    1992.3252     111.0403    -999.2500
    1992.4776     115.0517    -999.2500
    1992.6300     117.6885    -999.2500
    1992.7824     120.6891    -999.2500
    1992.9348     124.5679    -999.2500
    1993.0872     128.3640    -999.2500
    1993.2396     130.7219    -999.2500
    1993.3920     131.1105    -999.2500
    1993.5444     130.4379    -999.2500
    1993.6968     129.5791    -999.2500
    1993.8492     128.6422    -999.2500
    1994.0016     127.7002    -999.2500
    1994.1540     126.9040    -999.2500
    1994.3064     126.5035    -999.2500
    1994.4588     126.7916    -999.2500
    1994.6112     127.7617    -999.2500
    1994.7636     128.9015    -999.2500
    1994.9160     129.3864    -999.2500
    1995.0684     128.6010    -999.2500
    1995.2208     126.7834    -999.2500
    1995.3732     125.1721    -999.2500
    1995.5256     125.2249    -999.2500
    1995.6780     127.5200    -999.2500
    1995.8304     131.3260    -999.2500
    1995.9828     134.9433    -999.2500
    1996.1352     136.7067    -999.2500
    1996.2876     136.0908    -999.2500
    1996.4400     133.8519    -999.2500
    1996.5924     131.3413    -999.2500
    1996.7448     129.4315    -999.2500
    1996.8972     128.2795    -999.2500
    1997.0496     127.5530    -999.2500
    1997.2020     126.8619    -999.2500
    1997.3544     126.2099    -999.2500
    1997.5068     125.6737    -999.2500
    1997.6592     125.4093    -999.2500
    1997.8116     125.4749    -999.2500
    1997.9640     125.8355    -999.2500
    1998.1164     126.3883    -999.2500
    1998.2688     126.9373    -999.2500
    1998.4212     127.5102    -999.2500
    1998.5736     128.2470    -999.2500
    1998.7260     129.2417    -999.2500
    1998.8784     130.3156    -999.2500
    1999.0308     131.0131    -999.2500
    1999.1832     130.9431    -999.2500
    1999.3356     130.1301    -999.2500
    1999.4880     128.9975    -999.2500
    1999.6404     127.9324    -999.2500
    1999.7928     127.2679    -999.2500
    1999.9452     127.2281    -999.2500
    2000.0976     127.6185    -999.2500
    2000.2500     128.1114    -999.2500
    2000.4024     128.3457    -999.2500
    2000.5548     128.1273    -999.2500
    2000.7072     127.8274    -999.2500
    2000.8596     128.0387    -999.2500
    2001.0120     128.9248    -999.2500
    2001.1644     130.1234    -999.2500
    2001.3168     130.8880    -999.2500
    2001.4692     130.6992    -999.2500
    2001.6216     129.8631    -999.2500
    2001.7740     129.1969    -999.2500
    2001.9264     129.3438    -999.2500
    2002.0788     130.1909    -999.2500
    2002.2312     131.1517    -999.2500
    2002.3836     131.5325    -999.2500
    2002.5360     131.0906    -999.2500
    2002.6884     130.0663    -999.2500
    2002.8408     128.6918    -999.2500
    2002.9932     127.3358    -999.2500
    2003.1456     126.4432    -999.2500
    2003.2980     126.4270    -999.2500
    2003.4504     127.2849    -999.2500
    2003.6028     128.4695    -999.2500
    2003.7552     129.0742    -999.2500
    2003.9076     128.5687    -999.2500
    2004.0600     127.4235    -999.2500
    2004.2124     126.1477    -999.2500
    2004.3648     124.9276    -999.2500
    2004.5172     123.7256    -999.2500
    2004.6696     122.3298    -999.2500
    2004.8220     121.0756    -999.2500
    2004.9744     120.9801    -999.2500
    2005.1268     122.7946    -999.2500
    2005.2792     126.3573    -999.2500
    2005.4316     130.6664    -999.2500
    2005.5840     133.9597    -999.2500
    2005.7364     134.8149    -999.2500
    2005.8888     133.6026    -999.2500
    2006.0412     131.7434    -999.2500
    2006.1936     130.4996    -999.2500
    2006.3460     130.5569    -999.2500
    2006.4984     131.5717    -999.2500
    2006.6508     132.7485    -999.2500
