#------------------------------------------------------------------------------
#
#   Created by  : WOW Log Export Utility
#   Created on  : 2012-02-24 13:45:42
#   Project     : NORNE
#
#------------------------------------------------------------------------------
~Version Information Block
 VERS.                 2.0: CWLS Log ASCII Standard - version 2
 WRAP.                  NO: One line per depth step
~Well Information Block
#MNEMONIC    .UNIT                            Information: Data type
#------------------------------------------------------------------------------
 STRT        .M                                  472.7500: START DEPTH
 STOP        .M                                 2800.7500: STOP DEPTH
 STEP        .M                                    0.1250: SAMPLE RATE
 NULL        .                                  -999.2500: NULL VALUE
 COMP        .                                    STATOIL: Company
 WELL        .                                  6608/10-4: Well
 UWI         .                               NO 6608/10-4: Unique Well ID
 FLD         .                                      NORNE: Field
 CNTY        .                                    UNKNOWN: County
 STAT        .                                    UNKNOWN: State
 CTRY        .                                     Norway: Country
 XCOORD      .                               462006.74350: Surface X
 YCOORD      .                              7324847.22971: Surface Y
 LAT         .                                   66.04035: Latitude
 LON         .                                    8.16159: Longitude
 ELEV        .M                                   23.0000: Surface Elev
 ELEV_TYPE   .                                         KB: Elev Type
~Curve Information Block
#MNEMONIC                   .UNIT                 API CODE      : DESCRIPTION
#------------------------------------------------------------------------------
 DEPTH                      .M                                  :
 CALI                       .inches               UNKNOWN       : Run 1, Ver 1
 GR                         .API                  UNKNOWN       : Run 1, Ver 1
 KLOGH                      .mD                   UNKNOWN       : Run 1, Ver 4
 PHIF                       .v/v decimal          UNKNOWN       : Run 1, Ver 3
 RHOB                       .g/cm3                UNKNOWN       : Run 1, Ver 1
 RT                         .ohm.m                UNKNOWN       : Run 1, Ver 1
 SW                         .v/v decimal          UNKNOWN       : Run 1, Ver 3
~A      DEPTH         CALI           GR        KLOGH         PHIF         RHOB           RT           SW
# ...
    2455.5000      12.7177      70.7849    -999.2500    -999.2500       2.4158       2.0484    -999.2500
    2455.6250      12.7047      70.0168    -999.2500    -999.2500       2.4093       2.0521    -999.2500
    2455.7500      12.6957      71.4174    -999.2500    -999.2500       2.4066       2.1177    -999.2500
    2455.8750      12.8220      73.2893    -999.2500    -999.2500       2.4101       2.1207    -999.2500
    2456.0000      12.7876      75.0235    -999.2500    -999.2500       2.4189       2.1038    -999.2500
    2456.1250      12.6874      75.8125    -999.2500    -999.2500       2.4299       2.0898    -999.2500
    2456.2500      12.6931      75.3371    -999.2500    -999.2500       2.4380       2.0793    -999.2500
    2456.3750      12.6808      75.0270    -999.2500    -999.2500       2.4368       2.0292    -999.2500
    2456.5000      12.6854      75.7792    -999.2500    -999.2500       2.4251       1.9991    -999.2500
    2456.6250      12.6852      74.7750    -999.2500    -999.2500       2.4110       2.0304    -999.2500
    2456.7500      12.6954      73.9060    -999.2500    -999.2500       2.4011       2.0817    -999.2500
    2456.8750      12.7159      73.2738    -999.2500    -999.2500       2.3999       2.1137    -999.2500
    2457.0000      12.7275      71.0890    -999.2500    -999.2500       2.4086       2.1059    -999.2500
    2457.1250      12.7021      70.2529    -999.2500    -999.2500       2.4220       2.1043    -999.2500
    2457.2500      12.6828      70.0790    -999.2500    -999.2500       2.4310       2.0888    -999.2500
    2457.3750      12.6735      71.5343    -999.2500    -999.2500       2.4325       2.0458    -999.2500
    2457.5000      12.6693      72.7823    -999.2500    -999.2500       2.4272       2.0146    -999.2500
    2457.6250      12.6708      71.9437    -999.2500    -999.2500       2.4182       2.0175    -999.2500
    2457.7500      12.6970      69.2278    -999.2500    -999.2500       2.4094       1.9929    -999.2500
    2457.8750      12.7091      68.1789    -999.2500    -999.2500       2.4011       1.9707    -999.2500
    2458.0000      12.6790      68.3196    -999.2500    -999.2500       2.3920       1.9510    -999.2500
    2458.1250      12.7059      69.2036    -999.2500    -999.2500       2.3829       1.9317    -999.2500
    2458.2500      12.7484      70.7108    -999.2500    -999.2500       2.3764       1.9158    -999.2500
    2458.3750      12.7010      72.3396    -999.2500    -999.2500       2.3761       1.9089    -999.2500
    2458.5000      12.8608      67.9482    -999.2500    -999.2500       2.3860       1.9072    -999.2500
    2458.6250      12.7781      67.7094    -999.2500    -999.2500       2.4023       1.8899    -999.2500
    2458.7500      12.6886      70.2484    -999.2500    -999.2500       2.4173       1.9016    -999.2500
    2458.8750      12.6407      71.7346    -999.2500    -999.2500       2.4257       1.9257    -999.2500
    2459.0000      12.6266      71.3232    -999.2500    -999.2500       2.4254       1.9450    -999.2500
    2459.1250      12.6150      74.9770    -999.2500    -999.2500       2.4181       1.9690    -999.2500
    2459.2500      12.6654      72.7256    -999.2500    -999.2500       2.4114       2.0178    -999.2500
    2459.3750      12.6536      74.1335    -999.2500    -999.2500       2.4091       2.0524    -999.2500
    2459.5000      12.5956      75.0599    -999.2500    -999.2500       2.4108       2.0637    -999.2500
    2459.6250      12.5464      75.3662    -999.2500    -999.2500       2.4150       2.0599    -999.2500
    2459.7500      12.5672      77.1299    -999.2500    -999.2500       2.4193       2.0575    -999.2500
    2459.8750      12.6484      80.0328    -999.2500    -999.2500       2.4226       2.0616    -999.2500
    2460.0000      12.6864      79.6931    -999.2500    -999.2500       2.4250       2.0539    -999.2500
    2460.1250      12.7186      79.7358    -999.2500    -999.2500       2.4260       2.0338    -999.2500
    2460.2500      12.7172      78.2705    -999.2500    -999.2500       2.4245       2.0122    -999.2500
    2460.3750      12.6922      75.6294    -999.2500    -999.2500       2.4198       1.9976    -999.2500
    2460.5000      12.7178      76.4351    -999.2500    -999.2500       2.4110       1.9922    -999.2500
    2460.6250      12.7088      76.7838    -999.2500    -999.2500       2.4016       2.0062    -999.2500
    2460.7500      12.6913      75.3150    -999.2500    -999.2500       2.3969       2.0149    -999.2500
    2460.8750      12.7073      75.4550    -999.2500    -999.2500       2.3984       2.0123    -999.2500
    2461.0000      12.7094      76.2494    -999.2500    -999.2500       2.4057       1.9963    -999.2500
    2461.1250      12.6519      75.7442    -999.2500    -999.2500       2.4162       1.9677    -999.2500
    2461.2500      12.6585      76.4638    -999.2500    -999.2500       2.4233       1.9299    -999.2500
    2461.3750      12.7195      76.8846    -999.2500    -999.2500       2.4192       1.8960    -999.2500
    2461.5000      12.7390      77.3430    -999.2500    -999.2500       2.4078       1.8889    -999.2500
    2461.6250      12.7390      77.1198    -999.2500    -999.2500       2.3946       1.9084    -999.2500
    2461.7500      12.7390      76.2383    -999.2500    -999.2500       2.3855       1.9432    -999.2500
    2461.8750      12.7390      75.8051    -999.2500    -999.2500       2.3852       1.9739    -999.2500
    2462.0000      12.7390      78.8787    -999.2500    -999.2500       2.3964       1.9944    -999.2500
    2462.1250      12.7390      81.6065    -999.2500    -999.2500       2.4105       1.9926    -999.2500
    2462.2500      12.7390      81.8686    -999.2500    -999.2500       2.4216       1.9572    -999.2500
    2462.3750      12.7390      80.2160    -999.2500    -999.2500       2.4264       1.9050    -999.2500
    2462.5000      12.7390      78.1405    -999.2500    -999.2500       2.4241       1.8623    -999.2500
    2462.6250      12.7390      76.7620    -999.2500    -999.2500       2.4168       1.8525    -999.2500
    2462.7500      12.7390      75.2753    -999.2500    -999.2500       2.4093       1.8504    -999.2500
    2462.8750      12.7390      75.7042    -999.2500    -999.2500       2.4033       1.8584    -999.2500
    2463.0000      12.7390      76.0729    -999.2500    -999.2500       2.3996       1.8811    -999.2500
    2463.1250      12.7390      76.8497    -999.2500    -999.2500       2.4046       1.9067    -999.2500
    2463.2500      12.7448      80.3636    -999.2500    -999.2500       2.4096       1.9122    -999.2500
    2463.3750      12.8252      83.1263    -999.2500    -999.2500       2.4137       1.9155    -999.2500
    2463.5000      12.8370      82.2494    -999.2500    -999.2500       2.4193       1.9097    -999.2500
    2463.6250      12.8370      81.4633    -999.2500    -999.2500       2.4247       1.9112    -999.2500
    2463.7500      12.9369      82.2048    -999.2500    -999.2500       2.4271       1.9232    -999.2500
    2463.8750      13.0682      83.7510    -999.2500    -999.2500       2.4249       1.9464    -999.2500
    2464.0000      12.7465      82.1280    -999.2500    -999.2500       2.4196       1.9841    -999.2500
    2464.1250      12.7390      82.0548    -999.2500    -999.2500       2.4193       2.0162    -999.2500
    2464.2500      12.7390      82.1601    -999.2500    -999.2500       2.4227       2.0531    -999.2500
    2464.3750      12.7390      83.6658    -999.2500    -999.2500       2.4261       2.0877    -999.2500
    2464.5000      12.7390      85.3647    -999.2500    -999.2500       2.4271       2.1093    -999.2500
    2464.6250      12.7390      84.8615    -999.2500    -999.2500       2.4252       2.1101    -999.2500
    2464.7500      12.7390      83.3108    -999.2500    -999.2500       2.4239       2.1109    -999.2500
    2464.8750      12.7390      84.0374    -999.2500    -999.2500       2.4273       2.1247    -999.2500
    2465.0000      12.7390      83.8560    -999.2500    -999.2500       2.4311       2.1360    -999.2500
