#------------------------------------------------------------------------------
#
#   Created by  : WOW Log Export Utility
#   Created on  : 2012-02-24 13:45:42
#   Project     : NORNE
#
#------------------------------------------------------------------------------
~Version Information Block
 VERS.                 2.0: CWLS Log ASCII Standard - version 2
 WRAP.                  NO: One line per depth step
~Well Information Block
#MNEMONIC    .UNIT                            Information: Data type
#------------------------------------------------------------------------------
 STRT        .M                                  472.7500: START DEPTH
 STOP        .M                                 2800.7500: STOP DEPTH
 STEP        .M                                    0.1250: SAMPLE RATE
 NULL        .                                  -999.2500: NULL VALUE
 COMP        .                                    STATOIL: Company
 WELL        .                                  6608/10-4: Well
 UWI         .                               NO 6608/10-4: Unique Well ID
 FLD         .                                      NORNE: Field
 CNTY        .                                    UNKNOWN: County
 STAT        .                                    UNKNOWN: State
 CTRY        .                                     Norway: Country
 XCOORD      .                               462006.74350: Surface X
 YCOORD      .                              7324847.22971: Surface Y
 LAT         .                                   66.04035: Latitude
 LON         .                                    8.16159: Longitude
 ELEV        .M                                   23.0000: Surface Elev
 ELEV_TYPE   .                                         KB: Elev Type
~Curve Information Block
#MNEMONIC                   .UNIT                 API CODE      : DESCRIPTION
#------------------------------------------------------------------------------
 DEPTH                      .M                                  :
 CALI                       .inches               UNKNOWN       : Run 1, Ver 1
 GR                         .API                  UNKNOWN       : Run 1, Ver 1
 KLOGH                      .mD                   UNKNOWN       : Run 1, Ver 4
 PHIF                       .v/v decimal          UNKNOWN       : Run 1, Ver 3
 RHOB                       .g/cm3                UNKNOWN       : Run 1, Ver 1
 RT                         .ohm.m                UNKNOWN       : Run 1, Ver 1
 SW                         .v/v decimal          UNKNOWN       : Run 1, Ver 3
~A      DEPTH         CALI           GR        KLOGH         PHIF         RHOB           RT           SW
# ...
    2282.2500      12.8696      69.5198    -999.2500    -999.2500       2.3748       2.0444    -999.2500
    2282.3750      12.7680      68.9830    -999.2500    -999.2500       2.3835       2.0493    -999.2500
    2282.5000      12.7273      69.6531    -999.2500    -999.2500       2.3920       2.0535    -999.2500
    2282.6250      12.7117      70.3538    -999.2500    -999.2500       2.3987       2.0420    -999.2500
    2282.7500      12.7306      71.7241    -999.2500    -999.2500       2.4042       2.0197    -999.2500
    2282.8750      12.7579      73.3695    -999.2500    -999.2500       2.4093       2.0224    -999.2500
    2283.0000      12.7791      74.6585    -999.2500    -999.2500       2.4137       2.0423    -999.2500
    2283.1250      12.7939      76.0968    -999.2500    -999.2500       2.4164       2.0585    -999.2500
    2283.2500      12.8291      81.8420    -999.2500    -999.2500       2.4154       2.0618    -999.2500
    2283.3750      12.7945      80.1249    -999.2500    -999.2500       2.4099       2.0729    -999.2500
    2283.5000      12.7870      77.6255    -999.2500    -999.2500       2.4039       2.0879    -999.2500
    2283.6250      12.8257      77.1838    -999.2500    -999.2500       2.4004       2.0868    -999.2500
    2283.7500      12.8829      78.4437    -999.2500    -999.2500       2.4009       2.0735    -999.2500
    2283.8750      12.8969      78.8383    -999.2500    -999.2500       2.4057       2.0731    -999.2500
    2284.0000      12.8247      81.6297    -999.2500    -999.2500       2.4115       2.0887    -999.2500
    2284.1250      12.8385      83.9129    -999.2500    -999.2500       2.4143       2.0924    -999.2500
    2284.2500      12.8895      83.1530    -999.2500    -999.2500       2.4143       2.1054    -999.2500
    2284.3750      12.9429      80.6678    -999.2500    -999.2500       2.4130       2.1363    -999.2500
    2284.5000      12.9656      78.6757    -999.2500    -999.2500       2.4126       2.1808    -999.2500
    2284.6250      12.9221      78.7209    -999.2500    -999.2500       2.4151       2.2161    -999.2500
    2284.7500      12.8922      75.2338    -999.2500    -999.2500       2.4200       2.2506    -999.2500
    2284.8750      12.8732      75.6900    -999.2500    -999.2500       2.4241       2.2825    -999.2500
    2285.0000      12.8735      76.0342    -999.2500    -999.2500       2.4269       2.3023    -999.2500
    2285.1250      12.8921      75.5744    -999.2500    -999.2500       2.4283       2.2900    -999.2500
    2285.2500      12.9219      76.2152    -999.2500    -999.2500       2.4282       2.2354    -999.2500
    2285.3750      12.9621      78.5315    -999.2500    -999.2500       2.4257       2.2288    -999.2500
    2285.5000      12.9583      80.9346    -999.2500    -999.2500       2.4202       2.2186    -999.2500
    2285.6250      12.9528      81.5980    -999.2500    -999.2500       2.4137       2.2388    -999.2500
    2285.7500      13.0624      78.9792    -999.2500    -999.2500       2.4091       2.2936    -999.2500
    2285.8750      13.3125      74.6939    -999.2500    -999.2500       2.4101       2.3581    -999.2500
    2286.0000      13.5500      75.2090    -999.2500    -999.2500       2.4208       2.3720    -999.2500
    2286.1250      13.0049      77.2881    -999.2500    -999.2500       2.4448       2.3654    -999.2500
    2286.2500      12.7996      77.2619    -999.2500    -999.2500       2.4708       2.3640    -999.2500
    2286.3750      12.7644      74.8736    -999.2500    -999.2500       2.4893       2.3192    -999.2500
    2286.5000      12.7752      71.8738    -999.2500    -999.2500       2.4938       2.2450    -999.2500
    2286.6250      12.7633      70.0887    -999.2500    -999.2500       2.4819       2.2022    -999.2500
    2286.7500      12.7658      66.5425    -999.2500    -999.2500       2.4577       2.3081    -999.2500
    2286.8750      12.9608      69.1633    -999.2500    -999.2500       2.4366       2.3945    -999.2500
    2287.0000      12.9649      72.6951    -999.2500    -999.2500       2.4252       2.4227    -999.2500
    2287.1250      12.8689      76.3406    -999.2500    -999.2500       2.4230       2.4148    -999.2500
    2287.2500      12.7765      79.3140    -999.2500    -999.2500       2.4270       2.3821    -999.2500
    2287.3750      12.7118      80.2769    -999.2500    -999.2500       2.4320       2.3086    -999.2500
    2287.5000      12.7052      80.8209    -999.2500    -999.2500       2.4309       2.1923    -999.2500
    2287.6250      12.6874      79.3274    -999.2500    -999.2500       2.4243       2.1382    -999.2500
    2287.7500      12.7051      76.0695    -999.2500    -999.2500       2.4152       2.1549    -999.2500
    2287.8750      12.7449      73.7127    -999.2500    -999.2500       2.4069       2.1933    -999.2500
    2288.0000      12.7774      74.6379    -999.2500    -999.2500       2.4016       2.2048    -999.2500
    2288.1250      12.8127      76.9219    -999.2500    -999.2500       2.3999       2.2294    -999.2500
    2288.2500      12.7958      77.9984    -999.2500    -999.2500       2.3989       2.2494    -999.2500
    2288.3750      12.6998      75.5404    -999.2500    -999.2500       2.3968       2.2415    -999.2500
    2288.5000      12.5683      73.4794    -999.2500    -999.2500       2.3938       2.2239    -999.2500
    2288.6250      12.4918      73.1340    -999.2500    -999.2500       2.3909       2.2111    -999.2500
    2288.7500      12.5748      72.6991    -999.2500    -999.2500       2.3895       2.2086    -999.2500
    2288.8750      12.6593      75.6671    -999.2500    -999.2500       2.3920       2.2184    -999.2500
    2289.0000      12.6854      76.1636    -999.2500    -999.2500       2.3978       2.2488    -999.2500
    2289.1250      12.6996      73.1746    -999.2500    -999.2500       2.4042       2.2858    -999.2500
    2289.2500      12.7368      69.4564    -999.2500    -999.2500       2.4095       2.3280    -999.2500
    2289.3750      12.7957      67.2428    -999.2500    -999.2500       2.4125       2.3764    -999.2500
    2289.5000      12.7941      64.0970    -999.2500    -999.2500       2.4137       2.4288    -999.2500
    2289.6250      12.7901      69.3887    -999.2500    -999.2500       2.4167       2.5301    -999.2500
    2289.7500      12.8115      70.2994    -999.2500    -999.2500       2.4236       2.6317    -999.2500
    2289.8750      12.8264      71.9928    -999.2500    -999.2500       2.4355       2.7125    -999.2500
    2290.0000      12.8200      73.0067    -999.2500    -999.2500       2.4520       2.7749    -999.2500
    2290.1250      12.7991      67.4133    -999.2500    -999.2500       2.4702       2.8321    -999.2500
    2290.2500      12.7999      63.2599    -999.2500    -999.2500       2.4805       2.8338    -999.2500
    2290.3750      12.8213      59.9210    -999.2500    -999.2500       2.4771       2.7278    -999.2500
    2290.5000      12.7634      58.7800    -999.2500    -999.2500       2.4627       2.7083    -999.2500
    2290.6250      12.8368      59.2813    -999.2500    -999.2500       2.4428       2.7593    -999.2500
    2290.7500      13.1057      61.4556    -999.2500    -999.2500       2.4247       2.8023    -999.2500
    2290.8750      13.2120      67.5300    -999.2500    -999.2500       2.4159       2.7450    -999.2500
    2291.0000      12.9861      73.6078    -999.2500    -999.2500       2.4214       2.6892    -999.2500
    2291.1250      12.8921      76.8992    -999.2500    -999.2500       2.4318       2.6099    -999.2500
    2291.2500      12.8657      78.5567    -999.2500    -999.2500       2.4413       2.4580    -999.2500
    2291.3750      12.8627      78.1785    -999.2500    -999.2500       2.4458       2.3127    -999.2500
    2291.5000      12.8517      75.0093    -999.2500    -999.2500       2.4433       2.3011    -999.2500
    2291.6250      12.7590      72.3697    -999.2500    -999.2500       2.4341       2.3749    -999.2500
    2291.7500      12.7022      73.5820    -999.2500    -999.2500       2.4235       2.4159    -999.2500
