#------------------------------------------------------------------------------
#
#   Created by  : WOW Log Export Utility
#   Created on  : 2012-02-24 13:45:42
#   Project     : NORNE
#
#------------------------------------------------------------------------------
~Version Information Block
 VERS.                 2.0: CWLS Log ASCII Standard - version 2
 WRAP.                  NO: One line per depth step
~Well Information Block
#MNEMONIC    .UNIT                            Information: Data type
#------------------------------------------------------------------------------
 STRT        .M                                  472.7500: START DEPTH
 STOP        .M                                 2800.7500: STOP DEPTH
 STEP        .M                                    0.1250: SAMPLE RATE
 NULL        .                                  -999.2500: NULL VALUE
 COMP        .                                    STATOIL: Company
 WELL        .                                  6608/10-4: Well
 UWI         .                               NO 6608/10-4: Unique Well ID
 FLD         .                                      NORNE: Field
 CNTY        .                                    UNKNOWN: County
 STAT        .                                    UNKNOWN: State
 CTRY        .                                     Norway: Country
 XCOORD      .                               462006.74350: Surface X
 YCOORD      .                              7324847.22971: Surface Y
 LAT         .                                   66.04035: Latitude
 LON         .                                    8.16159: Longitude
 ELEV        .M                                   23.0000: Surface Elev
 ELEV_TYPE   .                                         KB: Elev Type
~Curve Information Block
#MNEMONIC                   .UNIT                 API CODE      : DESCRIPTION
#------------------------------------------------------------------------------
 DEPTH                      .M                                  :
 CALI                       .inches               UNKNOWN       : Run 1, Ver 1
 GR                         .API                  UNKNOWN       : Run 1, Ver 1
 KLOGH                      .mD                   UNKNOWN       : Run 1, Ver 4
 PHIF                       .v/v decimal          UNKNOWN       : Run 1, Ver 3
 RHOB                       .g/cm3                UNKNOWN       : Run 1, Ver 1
 RT                         .ohm.m                UNKNOWN       : Run 1, Ver 1
 SW                         .v/v decimal          UNKNOWN       : Run 1, Ver 3
~A      DEPTH         CALI           GR        KLOGH         PHIF         RHOB           RT           SW
# ...
    2099.3750      13.5205      45.8077    -999.2500    -999.2500    -999.2500       0.9974    -999.2500
    2099.5000      13.5376      46.5796    -999.2500    -999.2500    -999.2500       1.0087    -999.2500
    2099.6250      13.5008      44.4485    -999.2500    -999.2500    -999.2500       1.0172    -999.2500
    2099.7500      13.5812      47.5016    -999.2500    -999.2500    -999.2500       1.0197    -999.2500
    2099.8750      13.4800      48.1032    -999.2500    -999.2500    -999.2500       1.0221    -999.2500
    2100.0000      13.3383      46.2101    -999.2500    -999.2500    -999.2500       1.0225    -999.2500
    2100.1250      13.3058      45.0440    -999.2500    -999.2500       2.3061       1.0217    -999.2500
    2100.2500      13.4033      46.2479    -999.2500    -999.2500       2.3118       1.0202    -999.2500
    2100.3750      13.4000      46.7810    -999.2500    -999.2500       2.3165       1.0160    -999.2500
    2100.5000      13.3644      48.3964    -999.2500    -999.2500       2.3193       1.0103    -999.2500
    2100.6250      13.2729      45.9662    -999.2500    -999.2500       2.3213       1.0033    -999.2500
    2100.7500      13.1447      46.9367    -999.2500    -999.2500       2.3232       0.9982    -999.2500
    2100.8750      13.0577      50.8291    -999.2500    -999.2500       2.3256       0.9949    -999.2500
    2101.0000      13.0638      52.5732    -999.2500    -999.2500       2.3289       0.9919    -999.2500
    2101.1250      12.8828      51.4688    -999.2500    -999.2500       2.3316       0.9911    -999.2500
    2101.2500      12.6547      48.7231    -999.2500    -999.2500       2.3302       0.9925    -999.2500
    2101.3750      12.6149      46.5801    -999.2500    -999.2500       2.3243       0.9963    -999.2500
    2101.5000      12.6045      45.5985    -999.2500    -999.2500       2.3152       1.0016    -999.2500
    2101.6250      12.5470      46.0994    -999.2500    -999.2500       2.3050       1.0071    -999.2500
    2101.7500      12.5995      48.4010    -999.2500    -999.2500       2.2963       1.0120    -999.2500
    2101.8750      13.0123      47.1276    -999.2500    -999.2500       2.2924       1.0128    -999.2500
    2102.0000      13.4081      48.5358    -999.2500    -999.2500       2.2925       1.0123    -999.2500
    2102.1250      13.5220      50.1369    -999.2500    -999.2500       2.2945       1.0087    -999.2500
    2102.2500      13.4792      49.6967    -999.2500    -999.2500       2.2962       1.0027    -999.2500
    2102.3750      13.5069      46.6964    -999.2500    -999.2500       2.2955       0.9960    -999.2500
    2102.5000      13.4414      46.5750    -999.2500    -999.2500       2.2906       0.9886    -999.2500
    2102.6250      13.4782      48.2996    -999.2500    -999.2500       2.2828       0.9850    -999.2500
    2102.7500      13.3669      49.1038    -999.2500    -999.2500       2.2755       0.9840    -999.2500
    2102.8750      13.3379      48.2710    -999.2500    -999.2500       2.2707       0.9836    -999.2500
    2103.0000      13.4547      46.6807    -999.2500    -999.2500       2.2694       0.9815    -999.2500
    2103.1250      13.5209      46.5215    -999.2500    -999.2500       2.2719       0.9760    -999.2500
    2103.2500      13.4700      45.9972    -999.2500    -999.2500       2.2768       0.9760    -999.2500
    2103.3750      13.4684      46.0902    -999.2500    -999.2500       2.2817       0.9699    -999.2500
    2103.5000      13.4968      46.8633    -999.2500    -999.2500       2.2868       0.9645    -999.2500
    2103.6250      13.4566      48.1469    -999.2500    -999.2500       2.2923       0.9633    -999.2500
    2103.7500      13.3415      48.8209    -999.2500    -999.2500       2.2983       0.9665    -999.2500
    2103.8750      13.5013      45.1450    -999.2500    -999.2500       2.3044       0.9698    -999.2500
    2104.0000      13.5116      47.6518    -999.2500    -999.2500       2.3089       0.9739    -999.2500
    2104.1250      13.4542      49.0943    -999.2500    -999.2500       2.3108       0.9839    -999.2500
    2104.2500      13.3721      48.3475    -999.2500    -999.2500       2.3100       0.9937    -999.2500
    2104.3750      13.3757      47.4918    -999.2500    -999.2500       2.3073       0.9992    -999.2500
    2104.5000      13.5756      50.3353    -999.2500    -999.2500       2.3037       0.9999    -999.2500
    2104.6250      13.4968      53.0167    -999.2500    -999.2500       2.3004       0.9991    -999.2500
    2104.7500      13.3365      51.5740    -999.2500    -999.2500       2.2977       0.9948    -999.2500
    2104.8750      13.1602      51.0537    -999.2500    -999.2500       2.2960       0.9863    -999.2500
    2105.0000      13.0432      50.3488    -999.2500    -999.2500       2.2955       0.9790    -999.2500
    2105.1250      13.0777      48.2773    -999.2500    -999.2500       2.2966       0.9759    -999.2500
    2105.2500      13.3895      47.4272    -999.2500    -999.2500       2.2992       0.9702    -999.2500
    2105.3750      13.2464      48.1662    -999.2500    -999.2500       2.3025       0.9644    -999.2500
    2105.5000      13.1486      48.8290    -999.2500    -999.2500       2.3050       0.9574    -999.2500
    2105.6250      13.0387      48.2817    -999.2500    -999.2500       2.3062       0.9505    -999.2500
    2105.7500      12.9668      47.0079    -999.2500    -999.2500       2.3064       0.9426    -999.2500
    2105.8750      13.0368      46.8823    -999.2500    -999.2500       2.3058       0.9319    -999.2500
    2106.0000      13.1180      51.4615    -999.2500    -999.2500       2.3046       0.9204    -999.2500
    2106.1250      13.2331      47.6926    -999.2500    -999.2500       2.3026       0.9017    -999.2500
    2106.2500      13.2373      47.5450    -999.2500    -999.2500       2.2993       0.8918    -999.2500
    2106.3750      13.2690      47.9581    -999.2500    -999.2500       2.2951       0.8929    -999.2500
    2106.5000      13.3453      47.2420    -999.2500    -999.2500       2.2907       0.9034    -999.2500
    2106.6250      13.1820      51.3470    -999.2500    -999.2500       2.2880       0.9190    -999.2500
    2106.7500      13.2977      53.8020    -999.2500    -999.2500       2.2901       0.9469    -999.2500
    2106.8750      13.2422      49.2363    -999.2500    -999.2500       2.2969       1.0048    -999.2500
    2107.0000      13.1979      43.1083    -999.2500    -999.2500       2.3082       1.0575    -999.2500
    2107.1250      13.1847      36.9929    -999.2500    -999.2500       2.3234       1.0881    -999.2500
    2107.2500      13.1086      30.8031    -999.2500    -999.2500       2.3413       1.0943    -999.2500
    2107.3750      12.7886      28.2521    -999.2500    -999.2500       2.3596       1.0803    -999.2500
    2107.5000      12.7476      33.1817    -999.2500    -999.2500       2.3728       1.0694    -999.2500
    2107.6250      13.0697      40.1012    -999.2500    -999.2500       2.3772       1.0565    -999.2500
    2107.7500      13.4148      46.8845    -999.2500    -999.2500       2.3712       1.0543    -999.2500
    2107.8750      13.5622      51.1304    -999.2500    -999.2500       2.3551       1.0614    -999.2500
    2108.0000      13.5657      50.0365    -999.2500    -999.2500       2.3316       1.0538    -999.2500
    2108.1250      13.8110      48.8493    -999.2500    -999.2500       2.3084       1.0112    -999.2500
    2108.2500      13.6696      48.9214    -999.2500    -999.2500       2.2910       0.9593    -999.2500
    2108.3750      13.4662      49.7604    -999.2500    -999.2500       2.2818       0.9100    -999.2500
    2108.5000      13.3655      50.7205    -999.2500    -999.2500       2.2813       0.8668    -999.2500
    2108.6250      13.3939      51.1887    -999.2500    -999.2500       2.2888       0.8331    -999.2500
    2108.7500      13.3603      50.8810    -999.2500    -999.2500       2.3016       0.8274    -999.2500
    2108.8750      13.3412      51.0882    -999.2500    -999.2500       2.3136       0.8384    -999.2500
