#------------------------------------------------------------------------------
#
#   Created by  : WOW Log Export Utility
#   Created on  : 2012-02-24 13:45:43
#   Project     : NORNE
#
#------------------------------------------------------------------------------
~Version Information Block
 VERS.                 2.0: CWLS Log ASCII Standard - version 2
 WRAP.                  NO: One line per depth step
~Well Information Block
#MNEMONIC    .UNIT                            Information: Data type
#------------------------------------------------------------------------------
 STRT        .M                                 2460.3457: START DEPTH
 STOP        .M                                 2795.6255: STOP DEPTH
 STEP        .M                                    0.1524: SAMPLE RATE
 NULL        .                                  -999.2500: NULL VALUE
 COMP        .                                    STATOIL: Company
 WELL        .                                  6608/10-4: Well
 UWI         .                               NO 6608/10-4: Unique Well ID
 FLD         .                                      NORNE: Field
 CNTY        .                                    UNKNOWN: County
 STAT        .                                    UNKNOWN: State
 CTRY        .                                     Norway: Country
 XCOORD      .                               462006.74350: Surface X
 YCOORD      .                              7324847.22971: Surface Y
 LAT         .                                   66.04035: Latitude
 LON         .                                    8.16159: Longitude
 ELEV        .M                                   23.0000: Surface Elev
 ELEV_TYPE   .                                         KB: Elev Type
~Curve Information Block
#MNEMONIC                   .UNIT                 API CODE      : DESCRIPTION
#------------------------------------------------------------------------------
 DEPTH                      .M                                  :
 DTS                        .us/ft                UNKNOWN       : Run 1, Ver 1
 NPHI                       .v/v decimal          UNKNOWN       : Run 1, Ver 2
~A      DEPTH          DTS         NPHI
# ...
    2704.1857     170.6239       0.2664
    2704.3381     170.5721       0.2879
    2704.4905     170.6799       0.3074
    2704.6429     170.7809       0.3232
    2704.7953     170.4794       0.3325
    2704.9477     168.5485       0.3320
    2705.1001     166.9691       0.3190
    2705.2525     165.6298       0.2974
    2705.4049     164.3047       0.2796
    2705.5573     162.2517       0.2699
    2705.7097     160.3185       0.2610
    2705.8621     158.3516       0.2439
    2706.0145     156.9468       0.2209
    2706.1669     156.1231       0.2064
    2706.3193     155.9572       0.2139
    2706.4717     156.6371       0.2464
    2706.6241     158.2978       0.2864
    2706.7765     160.8826       0.3113
    2706.9289     162.8304       0.3126
    2707.0813     164.6916       0.2971
    2707.2337     165.9833       0.2809
    2707.3861     166.9737       0.2732
    2707.5385     168.2873       0.2719
    2707.6909     168.8832       0.2676
    2707.8433     169.4503       0.2617
    2707.9957     169.6278       0.2604
    2708.1481     169.4802       0.2615
    2708.3005     167.9350       0.2578
    2708.4529     166.0904       0.2482
    2708.6053     165.0544       0.2428
    2708.7577     164.5087       0.2489
    2708.9101     163.7550       0.2670
    2709.0625     163.1848       0.2881
    2709.2149     162.9203       0.2981
    2709.3673     162.7492       0.2924
    2709.5197     162.9298       0.2775
    2709.6721     164.0945       0.2625
    2709.8245     165.2854       0.2522
    2709.9769     165.4138       0.2472
    2710.1293     166.4656       0.2446
    2710.2817     170.4268       0.2399
    2710.4341     177.5676       0.2457
    2710.5865     183.4034       0.2825
    2710.7389     186.9444       0.3501
    2710.8913     188.2403       0.4167
    2711.0437     187.5859       0.4402
    2711.1961     184.3952       0.4076
    2711.3485     177.8456       0.3509
    2711.5009     172.9674       0.3060
    2711.6533     169.8231       0.2822
    2711.8057     168.3509       0.2673
    2711.9581     167.7508       0.2582
    2712.1105     166.9341       0.2556
    2712.2629     166.3288       0.2600
    2712.4153     166.0004       0.2677
    2712.5677     166.9987       0.2736
    2712.7201     167.9248       0.2727
    2712.8725     167.5375       0.2637
    2713.0249     165.8552       0.2550
    2713.1773     165.0331       0.2545
    2713.3297     165.6422       0.2630
    2713.4821     166.0614       0.2692
    2713.6345     166.2108       0.2636
    2713.7869     166.7014       0.2539
    2713.9393     166.5372       0.2576
    2714.0917     165.8619       0.2787
    2714.2441     165.1230       0.3052
    2714.3965     165.1300       0.3194
    2714.5489     164.6247       0.3097
    2714.7013     163.1999       0.2853
    2714.8537     161.7779       0.2624
    2715.0061     160.8143       0.2511
    2715.1585     161.6739       0.2498
    2715.3109     163.5435       0.2571
    2715.4633     166.3643       0.2737
    2715.6157     169.6117       0.2945
    2715.7681     170.9772       0.3068
    2715.9205     170.6085       0.3014
    2716.0729     167.7907       0.2859
    2716.2253     164.5573       0.2709
    2716.3777     162.6255       0.2584
    2716.5301     162.2595       0.2467
    2716.6825     162.1821       0.2382
    2716.8349     159.4666       0.2358
    2716.9873     150.9682       0.2385
    2717.1397     138.9088       0.2460
    2717.2921     127.0705       0.2563
    2717.4445     121.9217       0.2560
    2717.5969     119.5911       0.2254
    2717.7493     119.8407       0.1640
    2717.9017     123.1696       0.0991
    2718.0541     133.0161       0.0651
    2718.2065     140.1157       0.0759
    2718.3589     144.9936       0.1200
    2718.5113     150.7604       0.1725
    2718.6637     160.0218       0.2142
    2718.8161     171.5898       0.2377
    2718.9685     179.8052       0.2445
    2719.1209     185.3008       0.2407
    2719.2733     188.0554       0.2339
    2719.4257     189.0397       0.2325
    2719.5781     188.9221       0.2416
    2719.7305     188.1001       0.2582
    2719.8829     187.7565       0.2698
    2720.0353     187.1039       0.2665
    2720.1877     185.9645       0.2565
    2720.3401     183.9566       0.2507
    2720.4925     182.1903       0.2552
    2720.6449     182.0312       0.2685
    2720.7973     182.2567       0.2798
    2720.9497     182.3609       0.2827
    2721.1021     181.4172       0.2793
    2721.2545     181.2272       0.2759
    2721.4069     180.9983       0.2731
    2721.5593     179.7586       0.2675
    2721.7117     178.5536       0.2576
    2721.8641     176.4667       0.2476
    2722.0165     174.0272       0.2466
    2722.1689     171.5832       0.2528
    2722.3213     169.6056       0.2577
    2722.4737     167.9741       0.2596
    2722.6261     167.8621       0.2637
    2722.7785     168.8537       0.2742
    2722.9309     169.4013       0.2835
    2723.0833     169.1893       0.2789
    2723.2357     166.7302       0.2595
    2723.3881     163.2446       0.2419
    2723.5405     160.2759       0.2382
    2723.6929     159.9834       0.2417
    2723.8453     161.2643       0.2399
    2723.9977     162.8899       0.2323
    2724.1501     164.1663       0.2263
    2724.3025     165.3764       0.2289
    2724.4549     166.7502       0.2399
    2724.6073     166.9288       0.2517
    2724.7597     166.0312       0.2585
    2724.9121     165.9481       0.2591
    2725.0645     166.8109       0.2558
    2725.2169     167.7807       0.2506
    2725.3693     166.9131       0.2466
    2725.5217     165.6137       0.2454
    2725.6741     165.4392       0.2461
    2725.8265     165.7676       0.2455
    2725.9789     165.6192       0.2423
    2726.1313     163.8773       0.2431
    2726.2837     162.1283       0.2566
    2726.4361     160.5810       0.2832
    2726.5885     159.4765       0.3021
    2726.7409     158.8698       0.2956
    2726.8933     158.7512       0.2739
    2727.0457     158.7450       0.2584
    2727.1981     158.9857       0.2554
    2727.3505     159.4354       0.2553
    2727.5029     159.9913       0.2504
    2727.6553     160.6082       0.2439
    2727.8077     161.3990       0.2416
    2727.9601     162.5305       0.2422
    2728.1125     163.1961       0.2428
    2728.2649     163.6754       0.2468
    2728.4173     163.9996       0.2523
    2728.5697     164.3286       0.2538
    2728.7221     164.5747       0.2528
    2728.8745     165.4209       0.2523
    2729.0269     166.6164       0.2549
    2729.1793     168.2149       0.2576
    2729.3317     169.6152       0.2581
    2729.4841     169.8517       0.2584
    2729.6365     169.1290       0.2582
    2729.7889     168.8274       0.2547
    2729.9413     169.1416       0.2456
    2730.0937     170.9137       0.2348
    2730.2461     173.4986       0.2258
    2730.3985     177.5427       0.2218
    2730.5509     181.4669       0.2278
    2730.7033     184.3193       0.2390
    2730.8557     186.1166       0.2479
    2731.0081     186.5774       0.2590
    2731.1605     186.1326       0.2783
    2731.3129     185.8034       0.2962
    2731.4653     185.2717       0.2992
    2731.6177     184.8475       0.2891
    2731.7701     183.5217       0.2752
    2731.9225     182.7920       0.2654
    2732.0749     181.5616       0.2542
    2732.2273     179.7883       0.2432
    2732.3797     178.0353       0.2546
    2732.5321     176.3332       0.2933
    2732.6845     175.2974       0.3308
    2732.8369     174.1515       0.3360
    2732.9893     172.1197       0.3078
    2733.1417     169.2218       0.2726
    2733.2941     166.5066       0.2494
    2733.4465     164.6794       0.2404
    2733.5989     163.8261       0.2394
    2733.7513     164.3943       0.2456
    2733.9037     166.3684       0.2474
    2734.0561     169.4829       0.2429
    2734.2085     172.1066       0.2359
    2734.3609     173.2295       0.2386
    2734.5133     172.6628       0.2482
