#------------------------------------------------------------------------------
#
#   Created by  : WOW Log Export Utility
#   Created on  : 2012-02-24 13:45:43
#   Project     : NORNE
#
#------------------------------------------------------------------------------
~Version Information Block
 VERS.                 2.0: CWLS Log ASCII Standard - version 2
 WRAP.                  NO: One line per depth step
~Well Information Block
#MNEMONIC    .UNIT                            Information: Data type
#------------------------------------------------------------------------------
 STRT        .M                                 1275.2832: START DEPTH
 STOP        .M                                 2804.7695: STOP DEPTH
 STEP        .M                                    0.1524: SAMPLE RATE
 NULL        .                                  -999.2500: NULL VALUE
 COMP        .                                    STATOIL: Company
 WELL        .                                  6608/10-4: Well
 UWI         .                               NO 6608/10-4: Unique Well ID
 FLD         .                                      NORNE: Field
 CNTY        .                                    UNKNOWN: County
 STAT        .                                    UNKNOWN: State
 CTRY        .                                     Norway: Country
 XCOORD      .                               462006.74350: Surface X
 YCOORD      .                              7324847.22971: Surface Y
 LAT         .                                   66.04035: Latitude
 LON         .                                    8.16159: Longitude
 ELEV        .M                                   23.0000: Surface Elev
 ELEV_TYPE   .                                         KB: Elev Type
~Curve Information Block
#MNEMONIC                   .UNIT                 API CODE      : DESCRIPTION
#------------------------------------------------------------------------------
 DEPTH                      .M                                  :
 DT                         .us/ft                UNKNOWN       : Run 1, Ver 1
 RS                         .OHM.M                UNKNOWN       : Run 1, Ver 1
~A      DEPTH           DT           RS
# ...
    1702.0032     133.5242    -999.2500
    1702.1556     137.5477    -999.2500
    1702.3080     139.8400    -999.2500
    1702.4604     139.7341    -999.2500
    1702.6128     138.3578    -999.2500
    1702.7652     137.5650    -999.2500
    1702.9176     138.1612    -999.2500
    1703.0700     139.6920    -999.2500
    1703.2224     140.8625    -999.2500
    1703.3748     140.9279    -999.2500
    1703.5272     140.3298    -999.2500
    1703.6796     139.8606    -999.2500
    1703.8320     140.1097    -999.2500
    1703.9844     140.8420    -999.2500
    1704.1368     141.4602    -999.2500
    1704.2892     141.4980    -999.2500
    1704.4416     141.2094    -999.2500
    1704.5940     141.3958    -999.2500
    1704.7464     142.5575    -999.2500
    1704.8988     144.4116    -999.2500
    1705.0512     145.8541    -999.2500
    1705.2036     145.8360    -999.2500
    1705.3560     144.1772    -999.2500
    1705.5084     141.8431    -999.2500
    1705.6608     140.0564    -999.2500
    1705.8132     139.5756    -999.2500
    1705.9656     140.3130    -999.2500
    1706.1180     141.4665    -999.2500
    1706.2704     142.3139    -999.2500
    1706.4228     142.5816    -999.2500
    1706.5752     142.4072    -999.2500
    1706.7276     141.9356    -999.2500
    1706.8800     141.2419    -999.2500
    1707.0324     140.4111    -999.2500
    1707.1848     139.7309    -999.2500
    1707.3372     139.3685    -999.2500
    1707.4896     139.0634    -999.2500
    1707.6420     138.5197    -999.2500
    1707.7944     137.6252    -999.2500
    1707.9468     136.9159    -999.2500
    1708.0992     137.0139    -999.2500
    1708.2516     137.9418    -999.2500
    1708.4040     139.2313    -999.2500
    1708.5564     140.2716    -999.2500
    1708.7088     140.8822    -999.2500
    1708.8612     141.2136    -999.2500
    1709.0136     141.3119    -999.2500
    1709.1660     140.9734    -999.2500
    1709.3184     140.2000    -999.2500
    1709.4708     139.3741    -999.2500
    1709.6232     138.8587    -999.2500
    1709.7756     138.7252    -999.2500
    1709.9280     138.6631    -999.2500
    1710.0804     138.5312    -999.2500
    1710.2328     138.7327    -999.2500
    1710.3852     139.5429    -999.2500
    1710.5376     140.7135    -999.2500
    1710.6900     141.7007    -999.2500
    1710.8424     142.1374    -999.2500
    1710.9948     142.4346    -999.2500
    1711.1472     143.1970    -999.2500
    1711.2996     143.9720    -999.2500
    1711.4520     143.7223    -999.2500
    1711.6044     142.1481    -999.2500
    1711.7568     140.2225    -999.2500
    1711.9092     139.7127    -999.2500
    1712.0616     141.5766    -999.2500
    1712.2140     144.7319    -999.2500
    1712.3664     146.9970    -999.2500
    1712.5188     146.9840    -999.2500
    1712.6712     144.6780    -999.2500
    1712.8236     141.4822    -999.2500
    1712.9760     139.3638    -999.2500
    1713.1284     139.2901    -999.2500
    1713.2808     141.0587    -999.2500
    1713.4332     143.5587    -999.2500
    1713.5856     145.5084    -999.2500
    1713.7380     146.4677    -999.2500
    1713.8904     146.8445    -999.2500
    1714.0428     147.1686    -999.2500
    1714.1952     147.4706    -999.2500
    1714.3476     147.3911    -999.2500
    1714.5000     146.6020    -999.2500
    1714.6524     145.4176    -999.2500
    1714.8048     144.2925    -999.2500
    1714.9572     143.4012    -999.2500
    1715.1096     142.6779    -999.2500
    1715.2620     141.6134    -999.2500
    1715.4144     139.8174    -999.2500
    1715.5668     137.4901    -999.2500
    1715.7192     135.4457    -999.2500
    1715.8716     134.5851    -999.2500
    1716.0240     135.1692    -999.2500
    1716.1764     136.5072    -999.2500
    1716.3288     137.5626    -999.2500
    1716.4812     137.9894    -999.2500
    1716.6336     138.2197    -999.2500
    1716.7860     138.8771    -999.2500
    1716.9384     140.0774    -999.2500
    1717.0908     141.2694    -999.2500
    1717.2432     141.8363    -999.2500
    1717.3956     141.5913    -999.2500
    1717.5480     140.9249    -999.2500
    1717.7004     140.4207    -999.2500
    1717.8528     140.0075    -999.2500
    1718.0052     139.0912    -999.2500
    1718.1576     137.3053    -999.2500
    1718.3100     135.0969    -999.2500
    1718.4624     133.7558    -999.2500
    1718.6148     134.2783    -999.2500
    1718.7672     136.2334    -999.2500
    1718.9196     137.9877    -999.2500
    1719.0720     138.4234    -999.2500
    1719.2244     137.7798    -999.2500
    1719.3768     137.1868    -999.2500
    1719.5292     137.6784    -999.2500
    1719.6816     139.0332    -999.2500
    1719.8340     140.2634    -999.2500
    1719.9864     140.6445    -999.2500
    1720.1388     140.0068    -999.2500
    1720.2912     138.9144    -999.2500
    1720.4436     138.3278    -999.2500
    1720.5960     138.8513    -999.2500
    1720.7484     140.3610    -999.2500
    1720.9008     142.1996    -999.2500
    1721.0532     143.5602    -999.2500
    1721.2056     143.8746    -999.2500
    1721.3580     143.1260    -999.2500
    1721.5104     141.4442    -999.2500
    1721.6628     138.7705    -999.2500
    1721.8152     135.2736    -999.2500
    1721.9676     131.4011    -999.2500
    1722.1200     127.9126    -999.2500
    1722.2724     125.6829    -999.2500
    1722.4248     125.0698    -999.2500
    1722.5772     126.0018    -999.2500
    1722.7296     128.1841    -999.2500
    1722.8820     131.2779    -999.2500
    1723.0344     134.6366    -999.2500
    1723.1868     137.4723    -999.2500
    1723.3392     139.1698    -999.2500
    1723.4916     139.4307    -999.2500
    1723.6440     138.9676    -999.2500
    1723.7964     138.9051    -999.2500
    1723.9488     140.1164    -999.2500
    1724.1012     142.5508    -999.2500
    1724.2536     145.1646    -999.2500
    1724.4060     146.5941    -999.2500
    1724.5584     145.8490    -999.2500
    1724.7108     143.1146    -999.2500
    1724.8632     139.1951    -999.2500
    1725.0156     135.0215    -999.2500
    1725.1680     131.2430    -999.2500
    1725.3204     128.1221    -999.2500
    1725.4728     125.4855    -999.2500
    1725.6252     122.6867    -999.2500
    1725.7776     120.0175    -999.2500
    1725.9300     118.3262    -999.2500
    1726.0824     118.0024    -999.2500
    1726.2348     118.8049    -999.2500
    1726.3872     119.4492    -999.2500
    1726.5396     119.1913    -999.2500
    1726.6920     118.7716    -999.2500
    1726.8444     119.1345    -999.2500
    1726.9968     119.9210    -999.2500
    1727.1492     119.9699    -999.2500
    1727.3016     119.1621    -999.2500
    1727.4540     118.6577    -999.2500
    1727.6064     120.7403    -999.2500
    1727.7588     126.0161    -999.2500
    1727.9112     132.1799    -999.2500
    1728.0636     136.4224    -999.2500
    1728.2160     137.0082    -999.2500
    1728.3684     134.5882    -999.2500
    1728.5208     131.1974    -999.2500
    1728.6732     129.1717    -999.2500
    1728.8256     129.6873    -999.2500
    1728.9780     132.4434    -999.2500
    1729.1304     136.6045    -999.2500
    1729.2828     140.6257    -999.2500
    1729.4352     143.0848    -999.2500
    1729.5876     143.1040    -999.2500
    1729.7400     140.9638    -999.2500
    1729.8924     137.7402    -999.2500
    1730.0448     135.0376    -999.2500
    1730.1972     134.2251    -999.2500
    1730.3496     135.5353    -999.2500
    1730.5020     138.7038    -999.2500
    1730.6544     142.2683    -999.2500
    1730.8068     143.7920    -999.2500
    1730.9592     141.7926    -999.2500
    1731.1116     136.6158    -999.2500
    1731.2640     130.2953    -999.2500
    1731.4164     125.4853    -999.2500
    1731.5688     123.4736    -999.2500
    1731.7212     123.8155    -999.2500
    1731.8736     125.5437    -999.2500
    1732.0260     127.9648    -999.2500
    1732.1784     131.0390    -999.2500
    1732.3308     135.0218    -999.2500
