#------------------------------------------------------------------------------
#
#   Created by  : WOW Log Export Utility
#   Created on  : 2012-02-24 13:45:43
#   Project     : NORNE
#
#------------------------------------------------------------------------------
~Version Information Block
 VERS.                 2.0: CWLS Log ASCII Standard - version 2
 WRAP.                  NO: One line per depth step
~Well Information Block
#MNEMONIC    .UNIT                            Information: Data type
#------------------------------------------------------------------------------
 STRT        .M                                 1275.2832: START DEPTH
 STOP        .M                                 2804.7695: STOP DEPTH
 STEP        .M                                    0.1524: SAMPLE RATE
 NULL        .                                  -999.2500: NULL VALUE
 COMP        .                                    STATOIL: Company
 WELL        .                                  6608/10-4: Well
 UWI         .                               NO 6608/10-4: Unique Well ID
 FLD         .                                      NORNE: Field
 CNTY        .                                    UNKNOWN: County
 STAT        .                                    UNKNOWN: State
 CTRY        .                                     Norway: Country
 XCOORD      .                               462006.74350: Surface X
 YCOORD      .                              7324847.22971: Surface Y
 LAT         .                                   66.04035: Latitude
 LON         .                                    8.16159: Longitude
 ELEV        .M                                   23.0000: Surface Elev
 ELEV_TYPE   .                                         KB: Elev Type
~Curve Information Block
#MNEMONIC                   .UNIT                 API CODE      : DESCRIPTION
#------------------------------------------------------------------------------
 DEPTH                      .M                                  :
 DT                         .us/ft                UNKNOWN       : Run 1, Ver 1
 RS                         .OHM.M                UNKNOWN       : Run 1, Ver 1
~A      DEPTH           DT           RS
# ...
    2464.0032     100.5564       2.0924
    2464.1556     101.0953       2.1766
    2464.3080     100.2591       2.2586
    2464.4604      98.2163       2.2977
    2464.6128      96.0242       2.2908
    2464.7652      94.7178       2.2621
    2464.9176      94.8057       2.2327
    2465.0700      96.0743       2.1981
    2465.2224      97.8851       2.1447
    2465.3748      99.8048       2.0910
    2465.5272     101.6006       2.0805
    2465.6796     102.9582       2.1351
    2465.8320     103.4034       2.2250
    2465.9844     102.5511       2.2826
    2466.1368     100.8183       2.2623
    2466.2892      99.7402       2.1780
    2466.4416     100.7077       2.0843
    2466.5940     103.5632       2.0329
    2466.7464     106.4942       2.0451
    2466.8988     107.3359       2.1028
    2467.0512     105.4025       2.1653
    2467.2036     102.1842       2.2028
    2467.3560      99.8877       2.2151
    2467.5084      99.2656       2.2194
    2467.6608      99.5264       2.2287
    2467.8132      99.1955       2.2383
    2467.9656      97.2938       2.2292
    2468.1180      94.7245       2.1865
    2468.2704      93.6354       2.1182
    2468.4228      95.2793       2.0498
    2468.5752      99.2615       2.0009
    2468.7276     104.0108       1.9769
    2468.8800     107.5444       1.9609
    2469.0324     108.9062       1.9303
    2469.1848     108.6713       1.8954
    2469.3372     107.5065       1.8828
    2469.4896     105.4847       1.8938
    2469.6420     103.1810       1.9091
    2469.7944     101.5511       1.9128
    2469.9468     101.1945       1.9077
    2470.0992     102.1567       1.9320
    2470.2516     103.3774       2.0151
    2470.4040     103.4659       2.1294
    2470.5564     102.3505       2.2214
    2470.7088     101.0487       2.2527
    2470.8612     100.3529       2.2236
    2471.0136     100.6187       2.1724
    2471.1660     101.7385       2.1378
    2471.3184     102.9754       2.1298
    2471.4708     103.6162       2.1360
    2471.6232     103.4123       2.1443
    2471.7756     102.5361       2.1467
    2471.9280     101.6352       2.1419
    2472.0804     101.3943       2.1348
    2472.2328     101.8894       2.1286
    2472.3852     102.6520       2.1270
    2472.5376     103.1483       2.1367
    2472.6900     103.1680       2.1681
    2472.8424     102.6067       2.2313
    2472.9948     101.1699       2.3331
    2473.1472      98.7734       2.4617
    2473.2996      95.8407       2.5848
    2473.4520      93.3107       2.6722
    2473.6044      92.0134       2.7120
    2473.7568      91.9780       2.7098
    2473.9092      92.6950       2.6795
    2474.0616      93.6428       2.6301
    2474.2140      94.7117       2.5658
    2474.3664      96.0721       2.4976
    2474.5188      97.5254       2.4444
    2474.6712      98.6026       2.4158
    2474.8236      99.1107       2.4018
    2474.9760      99.2323       2.3838
    2475.1284      99.1596       2.3564
    2475.2808      98.8027       2.3315
    2475.4332      97.9661       2.3227
    2475.5856      96.8537       2.3312
    2475.7380      96.3543       2.3444
    2475.8904      96.9818       2.3530
    2476.0428      98.2307       2.3606
    2476.1952      99.2146       2.3786
    2476.3476      99.2324       2.4151
    2476.5000      98.3399       2.4685
    2476.6524      97.1496       2.5291
    2476.8048      96.1080       2.5838
    2476.9572      95.2960       2.6246
    2477.1096      94.7559       2.6535
    2477.2620      94.6840       2.6822
    2477.4144      95.1653       2.7212
    2477.5668      96.1695       2.7682
    2477.7192      97.5694       2.8023
    2477.8716      99.0768       2.7991
    2478.0240     100.5031       2.7555
    2478.1764     101.7104       2.6888
    2478.3288     102.6837       2.6217
    2478.4812     103.6158       2.5722
    2478.6336     104.5338       2.5523
    2478.7860     105.4138       2.5618
    2478.9384     105.8994       2.5934
    2479.0908     105.2289       2.6484
    2479.2432     102.5595       2.7492
    2479.3956      97.3183       2.9159
    2479.5480      90.1933       3.1167
    2479.7004      83.4207       3.2611
    2479.8528      79.7793       3.2564
    2480.0052      80.6495       3.0802
    2480.1576      85.1471       2.8069
    2480.3100      90.7119       2.5574
    2480.4624      94.6794       2.4160
    2480.6148      96.1674       2.3973
    2480.7672      95.9073       2.4512
    2480.9196      95.4321       2.4922
    2481.0720      96.4913       2.4627
    2481.2244      99.4741       2.3563
    2481.3768     103.5257       2.2109
    2481.5292     107.5277       2.0827
    2481.6816     110.0427       2.0046
    2481.8340     110.5813       1.9717
    2481.9864     109.6512       1.9695
    2482.1388     107.8234       1.9921
    2482.2912     106.0234       2.0317
    2482.4436     105.3389       2.0877
    2482.5960     105.9632       2.1503
    2482.7484     107.0765       2.2037
    2482.9008     107.6522       2.2491
    2483.0532     106.6593       2.2950
    2483.2056     104.0954       2.3492
    2483.3580     101.1609       2.4180
    2483.5104      98.8897       2.5065
    2483.6628      97.5444       2.6154
    2483.8152      96.7942       2.7396
    2483.9676      96.0251       2.8625
    2484.1200      94.8974       2.9640
    2484.2724      93.8157       3.0365
    2484.4248      93.3642       3.0852
    2484.5772      93.7461       3.1212
    2484.7296      94.6628       3.1526
    2484.8820      95.6928       3.1903
    2485.0344      96.4466       3.2402
    2485.1868      96.5568       3.2956
    2485.3392      96.0167       3.3488
    2485.4916      94.9713       3.4015
    2485.6440      93.8459       3.4625
    2485.7964      93.2793       3.5348
    2485.9488      93.4543       3.6025
    2486.1012      94.1245       3.6364
    2486.2536      94.8419       3.6243
    2486.4060      95.3893       3.5796
    2486.5584      95.8762       3.5292
    2486.7108      96.3244       3.4991
    2486.8632      96.6309       3.4970
    2487.0156      96.5685       3.5107
    2487.1680      96.0229       3.5215
    2487.3204      95.1167       3.5180
    2487.4728      94.0738       3.5027
    2487.6252      93.0418       3.4903
    2487.7776      92.1201       3.4926
    2487.9300      91.6062       3.5086
    2488.0824      91.6384       3.5306
    2488.2348      92.1359       3.5528
    2488.3872      92.9705       3.5741
    2488.5396      94.0786       3.5903
    2488.6920      95.7032       3.5860
    2488.8444      97.9557       3.5476
    2488.9968     100.2700       3.4967
    2489.1492     101.1329       3.5439
    2489.3016      99.4920       3.8448
    2489.4540      95.6533       4.4135
    2489.6064      90.9543       5.0259
    2489.7588      87.4311       5.3419
    2489.9112      86.2598       5.1568
    2490.0636      87.3092       4.5654
    2490.2160      89.5851       3.8766
    2490.3684      91.8787       3.3673
    2490.5208      93.2679       3.1351
    2490.6732      93.6074       3.1265
    2490.8256      93.5660       3.2120
    2490.9780      93.7176       3.2788
    2491.1304      94.3607       3.2886
    2491.2828      95.2024       3.2564
    2491.4352      95.5831       3.2105
    2491.5876      95.2701       3.1734
    2491.7400      94.5063       3.1471
    2491.8924      93.6666       3.1224
    2492.0448      92.9945       3.0958
    2492.1972      92.5176       3.0670
    2492.3496      92.2264       3.0315
    2492.5020      92.3252       2.9868
    2492.6544      93.0465       2.9437
    2492.8068      94.3531       2.9181
    2492.9592      95.8092       2.9226
    2493.1116      96.7953       2.9606
    2493.2640      96.9846       3.0177
    2493.4164      96.5735       3.0685
    2493.5688      96.0726       3.0924
    2493.7212      95.8447       3.0868
    2493.8736      96.0029       3.0729
    2494.0260      96.3450       3.0790
    2494.1784      96.3944       3.1113
    2494.3308      95.8394       3.1486
