#------------------------------------------------------------------------------
#
#   Created by  : WOW Log Export Utility
#   Created on  : 2012-02-24 13:45:43
#   Project     : NORNE
#
#------------------------------------------------------------------------------
~Version Information Block
 VERS.                 2.0: CWLS Log ASCII Standard - version 2
 WRAP.                  NO: One line per depth step
~Well Information Block
#MNEMONIC    .UNIT                            Information: Data type
#------------------------------------------------------------------------------
 STRT        .M                                 1275.2832: START DEPTH
 STOP        .M                                 2804.7695: STOP DEPTH
 STEP        .M                                    0.1524: SAMPLE RATE
 NULL        .                                  -999.2500: NULL VALUE
 COMP        .                                    STATOIL: Company
 WELL        .                                  6608/10-4: Well
 UWI         .                               NO 6608/10-4: Unique Well ID
 FLD         .                                      NORNE: Field
 CNTY        .                                    UNKNOWN: County
 STAT        .                                    UNKNOWN: State
 CTRY        .                                     Norway: Country
 XCOORD      .                               462006.74350: Surface X
 YCOORD      .                              7324847.22971: Surface Y
 LAT         .                                   66.04035: Latitude
 LON         .                                    8.16159: Longitude
 ELEV        .M                                   23.0000: Surface Elev
 ELEV_TYPE   .                                         KB: Elev Type
~Curve Information Block
#MNEMONIC                   .UNIT                 API CODE      : DESCRIPTION
#------------------------------------------------------------------------------
 DEPTH                      .M                                  :
 DT                         .us/ft                UNKNOWN       : Run 1, Ver 1
 RS                         .OHM.M                UNKNOWN       : Run 1, Ver 1
~A      DEPTH           DT           RS
# ...
    2342.0832     127.0922    -999.2500
    2342.2356     130.0441    -999.2500
    2342.3880     129.5187    -999.2500
    2342.5404     125.8998    -999.2500
    2342.6928     121.6805    -999.2500
    2342.8452     119.5338    -999.2500
    2342.9976     120.5317    -999.2500
    2343.1500     123.4252    -999.2500
    2343.3024     125.9467    -999.2500
    2343.4548     126.5782    -999.2500
    2343.6072     125.1729    -999.2500
    2343.7596     122.8521    -999.2500
    2343.9120     121.4259    -999.2500
    2344.0644     121.9853    -999.2500
    2344.2168     123.7577    -999.2500
    2344.3692     125.1002    -999.2500
    2344.5216     125.3437    -999.2500
    2344.6740     125.5258    -999.2500
    2344.8264     127.4345    -999.2500
    2344.9788     131.1132    -999.2500
    2345.1312     134.1530    -999.2500
    2345.2836     134.0002    -999.2500
    2345.4360     130.5296    -999.2500
    2345.5884     126.2966    -999.2500
    2345.7408     124.0649    -999.2500
    2345.8932     124.7581    -999.2500
    2346.0456     127.2258    -999.2500
    2346.1980     129.5559    -999.2500
    2346.3504     130.5797    -999.2500
    2346.5028     129.9608    -999.2500
    2346.6552     127.9087    -999.2500
    2346.8076     125.0338    -999.2500
    2346.9600     122.8009    -999.2500
    2347.1124     122.8649    -999.2500
    2347.2648     125.6993    -999.2500
    2347.4172     130.2071    -999.2500
    2347.5696     134.0749    -999.2500
    2347.7220     135.5341    -999.2500
    2347.8744     134.5872    -999.2500
    2348.0268     132.5347    -999.2500
    2348.1792     130.8272    -999.2500
    2348.3316     130.1589    -999.2500
    2348.4840     130.3537    -999.2500
    2348.6364     130.8194    -999.2500
    2348.7888     130.7831    -999.2500
    2348.9412     129.7723    -999.2500
    2349.0936     128.2720    -999.2500
    2349.2460     127.2903    -999.2500
    2349.3984     127.5027    -999.2500
    2349.5508     128.6275    -999.2500
    2349.7032     129.7166    -999.2500
    2349.8556     130.2883    -999.2500
    2350.0080     130.7454    -999.2500
    2350.1604     131.5559    -999.2500
    2350.3128     132.2900    -999.2500
    2350.4652     132.2161    -999.2500
    2350.6176     131.4091    -999.2500
    2350.7700     130.5132    -999.2500
    2350.9224     130.1734    -999.2500
    2351.0748     130.4357    -999.2500
    2351.2272     130.7865    -999.2500
    2351.3796     131.0277    -999.2500
    2351.5320     131.3845    -999.2500
    2351.6844     131.9003    -999.2500
    2351.8368     132.0927    -999.2500
    2351.9892     131.5667    -999.2500
    2352.1416     130.3905    -999.2500
    2352.2940     128.9589    -999.2500
    2352.4464     128.0811    -999.2500
    2352.5988     128.4395    -999.2500
    2352.7512     130.0369    -999.2500
    2352.9036     132.1163    -999.2500
    2353.0560     133.4013    -999.2500
    2353.2084     133.0585    -999.2500
    2353.3608     131.3492    -999.2500
    2353.5132     129.4105    -999.2500
    2353.6656     128.2186    -999.2500
    2353.8180     127.8535    -999.2500
    2353.9704     127.8660    -999.2500
    2354.1228     127.8620    -999.2500
    2354.2752     127.7551    -999.2500
    2354.4276     127.6082    -999.2500
    2354.5800     127.4762    -999.2500
    2354.7324     127.3502    -999.2500
    2354.8848     127.1303    -999.2500
    2355.0372     126.7135    -999.2500
    2355.1896     126.3764    -999.2500
    2355.3420     126.2502    -999.2500
    2355.4944     126.5176    -999.2500
    2355.6468     127.3339    -999.2500
    2355.7992     127.9742    -999.2500
    2355.9516     127.9001    -999.2500
    2356.1040     127.0541    -999.2500
    2356.2564     125.7337    -999.2500
    2356.4088     124.5456    -999.2500
    2356.5612     124.0806    -999.2500
    2356.7136     124.3237    -999.2500
    2356.8660     124.6925    -999.2500
    2357.0184     125.1055    -999.2500
    2357.1708     125.7132    -999.2500
    2357.3232     126.7057    -999.2500
    2357.4756     128.0942    -999.2500
    2357.6280     129.1406    -999.2500
    2357.7804     128.9543    -999.2500
    2357.9328     127.5219    -999.2500
    2358.0852     125.9391    -999.2500
    2358.2376     125.3648    -999.2500
    2358.3900     126.0551    -999.2500
    2358.5424     126.9059    -999.2500
    2358.6948     126.1949    -999.2500
    2358.8472     123.6004    -999.2500
    2358.9996     120.6339    -999.2500
    2359.1520     119.4396    -999.2500
    2359.3044     121.0768    -999.2500
    2359.4568     124.6343    -999.2500
    2359.6092     127.9387    -999.2500
    2359.7616     129.4990    -999.2500
    2359.9140     129.6848    -999.2500
    2360.0664     129.6660    -999.2500
    2360.2188     130.1923    -999.2500
    2360.3712     130.8092    -999.2500
    2360.5236     130.5523    -999.2500
    2360.6760     129.4824    -999.2500
    2360.8284     128.4334    -999.2500
    2360.9808     127.9856    -999.2500
    2361.1332     127.7044    -999.2500
    2361.2856     126.9001    -999.2500
    2361.4380     125.6786    -999.2500
    2361.5904     124.8171    -999.2500
    2361.7428     124.9099    -999.2500
    2361.8952     125.0049    -999.2500
    2362.0476     123.8655    -999.2500
    2362.2000     121.7738    -999.2500
    2362.3524     120.1341    -999.2500
    2362.5048     120.1470    -999.2500
    2362.6572     121.4053    -999.2500
    2362.8096     122.3917    -999.2500
    2362.9620     121.9576    -999.2500
    2363.1144     120.3611    -999.2500
    2363.2668     118.7142    -999.2500
    2363.4192     117.5875    -999.2500
    2363.5716     116.9718    -999.2500
    2363.7240     116.4607    -999.2500
    2363.8764     115.8967    -999.2500
    2364.0288     115.8580    -999.2500
    2364.1812     116.8827    -999.2500
    2364.3336     118.9703    -999.2500
    2364.4860     121.2730    -999.2500
    2364.6384     122.3855    -999.2500
    2364.7908     121.4173    -999.2500
    2364.9432     118.8034    -999.2500
    2365.0956     116.2973    -999.2500
    2365.2480     115.5680    -999.2500
    2365.4004     116.7634    -999.2500
    2365.5528     118.5407    -999.2500
    2365.7052     119.3080    -999.2500
    2365.8576     118.7967    -999.2500
    2366.0100     118.0740    -999.2500
    2366.1624     118.2697    -999.2500
    2366.3148     119.4455    -999.2500
    2366.4672     120.3938    -999.2500
    2366.6196     120.3021    -999.2500
    2366.7720     119.5740    -999.2500
    2366.9244     119.2055    -999.2500
    2367.0768     119.9380    -999.2500
    2367.2292     121.3472    -999.2500
    2367.3816     122.4795    -999.2500
    2367.5340     122.6158    -999.2500
    2367.6864     121.6293    -999.2500
    2367.8388     119.9682    -999.2500
    2367.9912     118.5788    -999.2500
    2368.1436     118.2774    -999.2500
    2368.2960     118.8093    -999.2500
    2368.4484     119.4472    -999.2500
    2368.6008     119.3461    -999.2500
    2368.7532     118.2684    -999.2500
    2368.9056     117.0776    -999.2500
    2369.0580     116.7744    -999.2500
    2369.2104     117.6369    -999.2500
    2369.3628     119.3597    -999.2500
    2369.5152     121.3624    -999.2500
    2369.6676     122.8750    -999.2500
    2369.8200     123.4283    -999.2500
    2369.9724     122.8807    -999.2500
    2370.1248     121.4169    -999.2500
    2370.2772     119.7582    -999.2500
    2370.4296     118.8212    -999.2500
    2370.5820     119.0048    -999.2500
    2370.7344     120.3143    -999.2500
    2370.8868     122.3723    -999.2500
    2371.0392     124.2985    -999.2500
    2371.1916     125.2498    -999.2500
    2371.3440     124.8745    -999.2500
    2371.4964     123.5068    -999.2500
    2371.6488     121.8761    -999.2500
    2371.8012     120.6985    -999.2500
    2371.9536     120.1677    -999.2500
    2372.1060     120.0322    -999.2500
    2372.2584     120.0320    -999.2500
    2372.4108     119.9162    -999.2500
