#------------------------------------------------------------------------------
#
#   Created by  : WOW Log Export Utility
#   Created on  : 2012-02-24 13:45:43
#   Project     : NORNE
#
#------------------------------------------------------------------------------
~Version Information Block
 VERS.                 2.0: CWLS Log ASCII Standard - version 2
 WRAP.                  NO: One line per depth step
~Well Information Block
#MNEMONIC    .UNIT                            Information: Data type
#------------------------------------------------------------------------------
 STRT        .M                                 2460.3457: START DEPTH
 STOP        .M                                 2795.6255: STOP DEPTH
 STEP        .M                                    0.1524: SAMPLE RATE
 NULL        .                                  -999.2500: NULL VALUE
 COMP        .                                    STATOIL: Company
 WELL        .                                  6608/10-4: Well
 UWI         .                               NO 6608/10-4: Unique Well ID
 FLD         .                                      NORNE: Field
 CNTY        .                                    UNKNOWN: County
 STAT        .                                    UNKNOWN: State
 CTRY        .                                     Norway: Country
 XCOORD      .                               462006.74350: Surface X
 YCOORD      .                              7324847.22971: Surface Y
 LAT         .                                   66.04035: Latitude
 LON         .                                    8.16159: Longitude
 ELEV        .M                                   23.0000: Surface Elev
 ELEV_TYPE   .                                         KB: Elev Type
~Curve Information Block
#MNEMONIC                   .UNIT                 API CODE      : DESCRIPTION
#------------------------------------------------------------------------------
 DEPTH                      .M                                  :
 DTS                        .us/ft                UNKNOWN       : Run 1, Ver 1
 NPHI                       .v/v decimal          UNKNOWN       : Run 1, Ver 2
~A      DEPTH          DTS         NPHI
# ...
    2734.6657     171.6014       0.2507
    2734.8181     171.4312       0.2380
    2734.9705     171.6757       0.2297
    2735.1229     172.1424       0.2446
    2735.2753     172.6044       0.2732
    2735.4277     172.4442       0.2909
    2735.5801     172.1624       0.2882
    2735.7325     171.8344       0.2829
    2735.8849     170.8303       0.2933
    2736.0373     168.3632       0.3101
    2736.1897     165.2581       0.3066
    2736.3421     162.9530       0.2860
    2736.4945     161.8335       0.2742
    2736.6469     161.6562       0.2829
    2736.7993     161.8368       0.2884
    2736.9517     162.2834       0.2717
    2737.1041     162.1632       0.2416
    2737.2565     161.7376       0.2252
    2737.4089     161.6102       0.2308
    2737.5613     161.9735       0.2445
    2737.7137     162.8758       0.2523
    2737.8661     163.5092       0.2537
    2738.0185     163.1355       0.2521
    2738.1709     161.1376       0.2523
    2738.3233     157.7015       0.2529
    2738.4757     155.0185       0.2515
    2738.6281     154.3259       0.2461
    2738.7805     155.3147       0.2405
    2738.9329     156.7971       0.2381
    2739.0853     158.1283       0.2403
    2739.2377     159.8477       0.2461
    2739.3901     161.9263       0.2473
    2739.5425     163.8595       0.2411
    2739.6949     165.7925       0.2339
    2739.8473     168.4845       0.2338
    2739.9997     172.1612       0.2415
    2740.1521     176.7400       0.2495
    2740.3045     181.0184       0.2491
    2740.4569     183.4119       0.2424
    2740.6093     183.4979       0.2440
    2740.7617     182.2776       0.2573
    2740.9141     180.2766       0.2711
    2741.0665     178.2397       0.2744
    2741.2189     175.8981       0.2683
    2741.3713     173.9366       0.2587
    2741.5237     172.6777       0.2525
    2741.6761     170.7605       0.2541
    2741.8285     168.2193       0.2622
    2741.9809     165.7213       0.2721
    2742.1333     163.8335       0.2777
    2742.2857     162.6875       0.2757
    2742.4381     162.3494       0.2724
    2742.5905     162.4698       0.2718
    2742.7429     162.7087       0.2665
    2742.8953     163.1654       0.2524
    2743.0477     163.9100       0.2355
    2743.2001     164.6570       0.2262
    2743.3525     164.9926       0.2305
    2743.5049     165.3146       0.2450
    2743.6573     166.7611       0.2565
    2743.8097     169.7161       0.2560
    2743.9621     172.8729       0.2466
    2744.1145     174.2891       0.2341
    2744.2669     173.3702       0.2302
    2744.4193     171.2897       0.2386
    2744.5717     169.6801       0.2532
    2744.7241     169.9327       0.2659
    2744.8765     171.0505       0.2656
    2745.0289     171.2907       0.2514
    2745.1813     170.6478       0.2326
    2745.3337     169.2678       0.2205
    2745.4861     168.1914       0.2180
    2745.6385     167.3461       0.2257
    2745.7909     166.5381       0.2405
    2745.9433     165.8749       0.2540
    2746.0957     164.8743       0.2592
    2746.2481     164.2199       0.2516
    2746.4005     164.3378       0.2390
    2746.5529     164.8913       0.2317
    2746.7053     165.5392       0.2335
    2746.8577     166.7734       0.2429
    2747.0101     168.9751       0.2570
    2747.1625     171.5396       0.2720
    2747.3149     172.6006       0.2797
    2747.4673     171.8340       0.2757
    2747.6197     171.3796       0.2641
    2747.7721     171.4669       0.2538
    2747.9245     171.8645       0.2449
    2748.0769     171.9908       0.2329
    2748.2293     172.2297       0.2202
    2748.3817     172.6525       0.2132
    2748.5341     172.6949       0.2157
    2748.6865     172.0149       0.2209
    2748.8389     171.0023       0.2222
    2748.9913     169.9474       0.2233
    2749.1437     168.8624       0.2284
    2749.2961     168.1469       0.2328
    2749.4485     167.3201       0.2308
    2749.6009     166.4262       0.2275
    2749.7533     165.8807       0.2388
    2749.9057    -999.2500       0.2719
    2750.0581    -999.2500       0.3118
    2750.2105     168.8707       0.3368
    2750.3629     170.7685       0.3449
    2750.5153     171.8106       0.3435
    2750.6677    -999.2500       0.3369
    2750.8201    -999.2500       0.3255
    2750.9725     172.7306       0.3090
    2751.1249     173.1135       0.2909
    2751.2773     173.8041       0.2787
    2751.4297    -999.2500       0.2686
    2751.5821    -999.2500       0.2570
    2751.7345     174.5046       0.2464
    2751.8869     175.0742       0.2389
    2752.0393     176.0857       0.2356
    2752.1917     177.4652       0.2369
    2752.3441     177.9264       0.2436
    2752.4965     177.7952       0.2541
    2752.6489     177.5863       0.2657
    2752.8013     177.5770       0.2745
    2752.9537     177.2664       0.2790
    2753.1061     175.6961       0.2813
    2753.2585     173.1953       0.2772
    2753.4109     171.4763       0.2686
    2753.5633     170.8488       0.2646
    2753.7157     171.0188       0.2665
    2753.8681     170.7484       0.2646
    2754.0205     169.2370       0.2571
    2754.1729     166.5086       0.2532
    2754.3253     163.9124       0.2623
    2754.4777     163.1260       0.2774
    2754.6301     163.1879       0.2831
    2754.7825     163.4137       0.2729
    2754.9349     162.7149       0.2654
    2755.0873     161.1391       0.2666
    2755.2397     158.6912       0.2674
    2755.3921     156.2342       0.2618
    2755.5445     154.5302       0.2543
    2755.6969     154.3762       0.2528
    2755.8493     155.3607       0.2556
    2756.0017     157.0737       0.2559
    2756.1541     159.0294       0.2493
    2756.3065     159.6832       0.2374
    2756.4589     159.3514       0.2263
    2756.6113     159.5877       0.2226
    2756.7637     161.3367       0.2320
    2756.9161     164.5208       0.2477
    2757.0685     167.4342       0.2560
    2757.2209     169.6581       0.2487
    2757.3733     171.3258       0.2313
    2757.5257     172.5863       0.2155
    2757.6781     174.5784       0.2094
    2757.8305     176.6353       0.2122
    2757.9829     178.1969       0.2170
    2758.1353     178.1960       0.2208
    2758.2877     177.3931       0.2213
    2758.4401     176.5801       0.2169
    2758.5925     175.7681       0.2163
    2758.7449     174.7413       0.2330
    2758.8973     172.7137       0.2629
    2759.0497     170.1893       0.2861
    2759.2021     166.5318       0.2884
    2759.3545     164.6555       0.2789
    2759.5069     163.5445       0.2719
    2759.6593     163.5789       0.2675
    2759.8117     164.3050       0.2559
    2759.9641     166.5550       0.2432
    2760.1165     169.8127       0.2477
    2760.2689     172.6962       0.2681
    2760.4213     174.3069       0.2811
    2760.5737     175.3367       0.2686
    2760.7261     175.8643       0.2390
    2760.8785     176.3544       0.2155
    2761.0309     176.3021       0.2130
    2761.1833     175.6928       0.2246
    2761.3357     174.8561       0.2378
    2761.4881     174.4975       0.2485
    2761.6405     174.6638       0.2568
    2761.7929     175.2383       0.2597
    2761.9453     175.2600       0.2532
    2762.0977     174.9554       0.2420
    2762.2501     174.4157       0.2353
    2762.4025     174.1074       0.2392
    2762.5549     173.8004       0.2469
    2762.7073     172.5067       0.2508
    2762.8597     170.0522       0.2534
    2763.0121     168.2494       0.2579
    2763.1645     166.6781       0.2615
    2763.3169     165.8041       0.2583
    2763.4693     164.9681       0.2492
    2763.6217     165.3145       0.2385
    2763.7741     166.8699       0.2298
    2763.9265     169.4546       0.2237
    2764.0789     170.5795       0.2246
    2764.2313     170.4412       0.2333
    2764.3837     169.9027       0.2472
    2764.5361     169.4476       0.2591
    2764.6885     168.3744       0.2657
    2764.8409     166.3417       0.2631
    2764.9933     164.1868       0.2549
