#------------------------------------------------------------------------------
#
#   Created by  : WOW Log Export Utility
#   Created on  : 2012-02-24 13:45:43
#   Project     : NORNE
#
#------------------------------------------------------------------------------
~Version Information Block
 VERS.                 2.0: CWLS Log ASCII Standard - version 2
 WRAP.                  NO: One line per depth step
~Well Information Block
#MNEMONIC    .UNIT                            Information: Data type
#------------------------------------------------------------------------------
 STRT        .M                                 1275.2832: START DEPTH
 STOP        .M                                 2804.7695: STOP DEPTH
 STEP        .M                                    0.1524: SAMPLE RATE
 NULL        .                                  -999.2500: NULL VALUE
 COMP        .                                    STATOIL: Company
 WELL        .                                  6608/10-4: Well
 UWI         .                               NO 6608/10-4: Unique Well ID
 FLD         .                                      NORNE: Field
 CNTY        .                                    UNKNOWN: County
 STAT        .                                    UNKNOWN: State
 CTRY        .                                     Norway: Country
 XCOORD      .                               462006.74350: Surface X
 YCOORD      .                              7324847.22971: Surface Y
 LAT         .                                   66.04035: Latitude
 LON         .                                    8.16159: Longitude
 ELEV        .M                                   23.0000: Surface Elev
 ELEV_TYPE   .                                         KB: Elev Type
~Curve Information Block
#MNEMONIC                   .UNIT                 API CODE      : DESCRIPTION
#------------------------------------------------------------------------------
 DEPTH                      .M                                  :
 DT                         .us/ft                UNKNOWN       : Run 1, Ver 1
 RS                         .OHM.M                UNKNOWN       : Run 1, Ver 1
~A      DEPTH           DT           RS
# ...
    1884.8832     128.0599    -999.2500
    1885.0356     127.0064    -999.2500
    1885.1880     125.5469    -999.2500
    1885.3404     123.9651    -999.2500
    1885.4928     122.7686    -999.2500
    1885.6452     122.3256    -999.2500
    1885.7976     122.4838    -999.2500
    1885.9500     122.9025    -999.2500
    1886.1024     123.1227    -999.2500
    1886.2548     123.2368    -999.2500
    1886.4072     123.7094    -999.2500
    1886.5596     125.0053    -999.2500
    1886.7120     127.2750    -999.2500
    1886.8644     130.1992    -999.2500
    1887.0168     133.3589    -999.2500
    1887.1692     135.9606    -999.2500
    1887.3216     137.1275    -999.2500
    1887.4740     136.0724    -999.2500
    1887.6264     132.9890    -999.2500
    1887.7788     129.0981    -999.2500
    1887.9312     125.7045    -999.2500
    1888.0836     123.6137    -999.2500
    1888.2360     123.2005    -999.2500
    1888.3884     124.6281    -999.2500
    1888.5408     127.6540    -999.2500
    1888.6932     131.5749    -999.2500
    1888.8456     134.6560    -999.2500
    1888.9980     135.5219    -999.2500
    1889.1504     134.2347    -999.2500
    1889.3028     131.8072    -999.2500
    1889.4552     129.5210    -999.2500
    1889.6076     128.0799    -999.2500
    1889.7600     127.4798    -999.2500
    1889.9124     127.6717    -999.2500
    1890.0648     129.0212    -999.2500
    1890.2172     131.4748    -999.2500
    1890.3696     134.2184    -999.2500
    1890.5220     135.9977    -999.2500
    1890.6744     135.3858    -999.2500
    1890.8268     131.3922    -999.2500
    1890.9792     124.2464    -999.2500
    1891.1316     115.4316    -999.2500
    1891.2840     107.3656    -999.2500
    1891.4364     102.5773    -999.2500
    1891.5888     102.5181    -999.2500
    1891.7412     107.0061    -999.2500
    1891.8936     114.3144    -999.2500
    1892.0460     122.3015    -999.2500
    1892.1984     129.3268    -999.2500
    1892.3508     134.5731    -999.2500
    1892.5032     137.8537    -999.2500
    1892.6556     139.1273    -999.2500
    1892.8080     138.4988    -999.2500
    1892.9604     136.7653    -999.2500
    1893.1128     135.3588    -999.2500
    1893.2652     135.3700    -999.2500
    1893.4176     136.7592    -999.2500
    1893.5700     138.1652    -999.2500
    1893.7224     137.9992    -999.2500
    1893.8748     136.0805    -999.2500
    1894.0272     133.7221    -999.2500
    1894.1796     132.4067    -999.2500
    1894.3320     132.7086    -999.2500
    1894.4844     133.8924    -999.2500
    1894.6368     134.5282    -999.2500
    1894.7892     133.7241    -999.2500
    1894.9416     131.6817    -999.2500
    1895.0940     129.5258    -999.2500
    1895.2464     128.7390    -999.2500
    1895.3988     129.9035    -999.2500
    1895.5512     132.1351    -999.2500
    1895.7036     133.9376    -999.2500
    1895.8560     134.0169    -999.2500
    1896.0084     132.1115    -999.2500
    1896.1608     129.3616    -999.2500
    1896.3132     127.5104    -999.2500
    1896.4656     128.0543    -999.2500
    1896.6180     131.4625    -999.2500
    1896.7704     136.2277    -999.2500
    1896.9228     139.5177    -999.2500
    1897.0752     139.2733    -999.2500
    1897.2276     135.9793    -999.2500
    1897.3800     132.5924    -999.2500
    1897.5324     132.0757    -999.2500
    1897.6848     134.7145    -999.2500
    1897.8372     137.9547    -999.2500
    1897.9896     138.9427    -999.2500
    1898.1420     136.7319    -999.2500
    1898.2944     132.8970    -999.2500
    1898.4468     130.0847    -999.2500
    1898.5992     129.8942    -999.2500
    1898.7516     132.2349    -999.2500
    1898.9040     135.4268    -999.2500
    1899.0564     137.4553    -999.2500
    1899.2088     137.2173    -999.2500
    1899.3612     135.1737    -999.2500
    1899.5136     133.2146    -999.2500
    1899.6660     133.3458    -999.2500
    1899.8184     136.0814    -999.2500
    1899.9708     139.1310    -999.2500
    1900.1232     139.1630    -999.2500
    1900.2756     134.8417    -999.2500
    1900.4280     128.2157    -999.2500
    1900.5804     123.5381    -999.2500
    1900.7328     123.3532    -999.2500
    1900.8852     126.2552    -999.2500
    1901.0376     128.5869    -999.2500
    1901.1900     127.5544    -999.2500
    1901.3424     123.1038    -999.2500
    1901.4948     117.7470    -999.2500
    1901.6472     114.3275    -999.2500
    1901.7996     113.8936    -999.2500
    1901.9520     115.9433    -999.2500
    1902.1044     119.6431    -999.2500
    1902.2568     124.0592    -999.2500
    1902.4092     128.6859    -999.2500
    1902.5616     133.1581    -999.2500
    1902.7140     136.7073    -999.2500
    1902.8664     138.7164    -999.2500
    1903.0188     138.7110    -999.2500
    1903.1712     136.4949    -999.2500
    1903.3236     132.2855    -999.2500
    1903.4760     127.2147    -999.2500
    1903.6284     122.9306    -999.2500
    1903.7808     120.8557    -999.2500
    1903.9332     121.5031    -999.2500
    1904.0856     124.1036    -999.2500
    1904.2380     127.4336    -999.2500
    1904.3904     130.2403    -999.2500
    1904.5428     131.6691    -999.2500
    1904.6952     131.4293    -999.2500
    1904.8476     129.9080    -999.2500
    1905.0000     128.3950    -999.2500
    1905.1524     128.2412    -999.2500
    1905.3048     129.2607    -999.2500
    1905.4572     130.0999    -999.2500
    1905.6096     129.9122    -999.2500
    1905.7620     128.7875    -999.2500
    1905.9144     127.7324    -999.2500
    1906.0668     127.7879    -999.2500
    1906.2192     128.6479    -999.2500
    1906.3716     129.3331    -999.2500
    1906.5240     129.6206    -999.2500
    1906.6764     129.8028    -999.2500
    1906.8288     130.3563    -999.2500
    1906.9812     131.4925    -999.2500
    1907.1336     132.6515    -999.2500
    1907.2860     133.0794    -999.2500
    1907.4384     132.6046    -999.2500
    1907.5908     131.6393    -999.2500
    1907.7432     130.7522    -999.2500
    1907.8956     130.6511    -999.2500
    1908.0480     131.6057    -999.2500
    1908.2004     133.3197    -999.2500
    1908.3528     135.3074    -999.2500
    1908.5052     137.1006    -999.2500
    1908.6576     138.5301    -999.2500
    1908.8100     139.5107    -999.2500
    1908.9624     140.1062    -999.2500
    1909.1148     140.4785    -999.2500
    1909.2672     140.9064    -999.2500
    1909.4196     141.8358    -999.2500
    1909.5720     143.1243    -999.2500
    1909.7244     143.7691    -999.2500
    1909.8768     142.7873    -999.2500
    1910.0292     140.1644    -999.2500
    1910.1816     137.2249    -999.2500
    1910.3340     135.7809    -999.2500
    1910.4864     136.6978    -999.2500
    1910.6388     139.0150    -999.2500
    1910.7912     140.7477    -999.2500
    1910.9436     140.9368    -999.2500
    1911.0960     139.9783    -999.2500
    1911.2484     138.9374    -999.2500
    1911.4008     138.2329    -999.2500
    1911.5532     137.0575    -999.2500
    1911.7056     134.7620    -999.2500
    1911.8580     132.0795    -999.2500
    1912.0104     130.8936    -999.2500
    1912.1628     132.3910    -999.2500
    1912.3152     136.0891    -999.2500
    1912.4676     139.9479    -999.2500
    1912.6200     141.8865    -999.2500
    1912.7724     141.5265    -999.2500
    1912.9248     139.9760    -999.2500
    1913.0772     138.7177    -999.2500
    1913.2296     138.2187    -999.2500
    1913.3820     137.9124    -999.2500
    1913.5344     137.3208    -999.2500
    1913.6868     137.1233    -999.2500
    1913.8392     138.2635    -999.2500
    1913.9916     140.3812    -999.2500
    1914.1440     141.9449    -999.2500
    1914.2964     141.4846    -999.2500
    1914.4488     139.4786    -999.2500
    1914.6012     138.1977    -999.2500
    1914.7536     139.3515    -999.2500
    1914.9060     142.2742    -999.2500
    1915.0584     145.1163    -999.2500
    1915.2108     146.4483    -999.2500
