#------------------------------------------------------------------------------
#
#   Created by  : WOW Log Export Utility
#   Created on  : 2012-02-24 13:45:43
#   Project     : NORNE
#
#------------------------------------------------------------------------------
~Version Information Block
 VERS.                 2.0: CWLS Log ASCII Standard - version 2
 WRAP.                  NO: One line per depth step
~Well Information Block
#MNEMONIC    .UNIT                            Information: Data type
#------------------------------------------------------------------------------
 STRT        .M                                 1275.2832: START DEPTH
 STOP        .M                                 2804.7695: STOP DEPTH
 STEP        .M                                    0.1524: SAMPLE RATE
 NULL        .                                  -999.2500: NULL VALUE
 COMP        .                                    STATOIL: Company
 WELL        .                                  6608/10-4: Well
 UWI         .                               NO 6608/10-4: Unique Well ID
 FLD         .                                      NORNE: Field
 CNTY        .                                    UNKNOWN: County
 STAT        .                                    UNKNOWN: State
 CTRY        .                                     Norway: Country
 XCOORD      .                               462006.74350: Surface X
 YCOORD      .                              7324847.22971: Surface Y
 LAT         .                                   66.04035: Latitude
 LON         .                                    8.16159: Longitude
 ELEV        .M                                   23.0000: Surface Elev
 ELEV_TYPE   .                                         KB: Elev Type
~Curve Information Block
#MNEMONIC                   .UNIT                 API CODE      : DESCRIPTION
#------------------------------------------------------------------------------
 DEPTH                      .M                                  :
 DT                         .us/ft                UNKNOWN       : Run 1, Ver 1
 RS                         .OHM.M                UNKNOWN       : Run 1, Ver 1
~A      DEPTH           DT           RS
# ...
    2646.8832      89.3082       2.8698
    2647.0356      87.1248       4.8050
    2647.1880      82.7553       6.8682
    2647.3404      76.4015       8.3294
    2647.4928      70.6218       9.2851
    2647.6452      68.6117      10.2661
    2647.7976      71.5115      11.2068
    2647.9500      76.6508      11.3380
    2648.1024      79.1659      10.1901
    2648.2548      76.3859       8.4372
    2648.4072      70.6650       7.2421
    2648.5596      67.2368       7.1307
    2648.7120      69.1424       7.8162
    2648.8644      75.5906       8.8754
    2649.0168      82.7874      10.1019
    2649.1692      86.9756      11.3657
    2649.3216      87.6647      12.8764
    2649.4740      85.9917      15.0818
    2649.6264      83.0545      17.4849
    2649.7788      79.4974      18.2998
    2649.9312      75.8942      16.0611
    2650.0836      73.0271      11.3640
    2650.2360      72.5829       6.5572
    2650.3884      75.7557       3.6233
    2650.5408      80.9342       2.6579
    2650.6932      85.5804       2.4884
    2650.8456      87.2757       2.3439
    2650.9980      85.1914       2.1657
    2651.1504      80.8289       1.9822
    2651.3028      76.3124       1.7983
    2651.4552      72.8891       1.6244
    2651.6076      71.2616       1.4747
    2651.7600      72.2478       1.3905
    2651.9124      75.7327       1.4233
    2652.0648      80.6114       1.5610
    2652.2172      84.8998       1.6857
    2652.3696      86.4982       1.6563
    2652.5220      85.3976       1.4346
    2652.6744      83.5383       1.1211
    2652.8268      82.6371       0.8817
    2652.9792      83.0468       0.8313
    2653.1316      83.7547       0.9792
    2653.2840      83.7384       1.2598
    2653.4364      81.3994       1.5831
    2653.5888      80.2244       1.8978
    2653.7412      78.7012       2.2635
    2653.8936      77.0621       2.7482
    2654.0460      75.5198       3.2148
    2654.1984      73.9337       3.3594
    2654.3508      72.0959       3.0015
    2654.5032      70.8782       2.2892
    2654.6556      71.4240       1.5837
    2654.8080      74.2087       1.1447
    2654.9604      78.3540       0.9682
    2655.1128      82.0583       0.9286
    2655.2652      83.8763       0.9701
    2655.4176      83.1617       1.1105
    2655.5700      80.1985       1.3766
    2655.7224      76.2309       1.7338
    2655.8748      73.5045       2.0283
    2656.0272      73.6117       2.0734
    2656.1796      76.3625       1.8171
    2656.3320      80.2500       1.3936
    2656.4844      83.6469       1.0073
    2656.6368      86.0958       0.7802
    2656.7892      87.9141       0.7015
    2656.9416      88.9491       0.6961
    2657.0940      88.5370       0.7109
    2657.2464      86.9809       0.7166
    2657.3988      85.6757       0.6968
    2657.5512      86.4446       0.6605
    2657.7036      90.0396       0.6294
    2657.8560      94.7661       0.6145
    2658.0084      97.8649       0.6110
    2658.1608      97.4871       0.6075
    2658.3132      93.7179       0.5985
    2658.4656      88.5227       0.5879
    2658.6180      85.0454       0.5809
    2658.7704      85.2624       0.5784
    2658.9228      88.7018       0.5841
    2659.0752      93.0668       0.5976
    2659.2276      95.3563       0.5913
    2659.3800      94.6992       0.5305
    2659.5324      92.7313       0.4165
    2659.6848      92.5133       0.2945
    2659.8372      92.2979       0.2157
    2659.9896      92.0825       0.1926
    2660.1420      91.8671       0.1975
    2660.2944      91.6514       0.2008
    2660.4468      91.4361       0.2000
    2660.5992      91.4437       0.2000
    2660.7516      91.8880       0.2000
    2660.9040      91.7370       0.2000
    2661.0564      91.0175       0.2000
    2661.2088      90.6734       0.2000
    2661.3612      90.8282       0.2000
    2661.5136      90.7688       0.2000
    2661.6660      89.9116       0.2000
    2661.8184      88.7941       0.2000
    2661.9708      88.9107       0.2000
    2662.1232      91.0161       0.2000
    2662.2756      94.3841       0.2000
    2662.4280      94.6377       0.2000
    2662.5804      93.7944       0.2000
    2662.7328      92.8273       0.2000
    2662.8852      91.6755       0.2000
    2663.0376      90.9020       0.2000
    2663.1900      90.9696       0.2000
    2663.3424      91.6976       0.2000
    2663.4948      92.5213       0.2000
    2663.6472      93.1061       0.2000
    2663.7996      93.5942       0.2000
    2663.9520      94.1193       0.2000
    2664.1044      94.6331       0.2000
    2664.2568      95.1203       0.2000
    2664.4092      95.5192       0.2000
    2664.5616      95.6404       0.2000
    2664.7140      95.4081       0.2000
    2664.8664      94.9526       0.2000
    2665.0188      94.6277   -9985.8779
    2665.1712      94.8096   -9999.0000
    2665.3236      95.2250   -9999.0000
    2665.4760      95.2911   -9999.0000
    2665.6284      94.8806   -9999.0000
    2665.7808      94.4447   -9999.0000
    2665.9332      94.5897   -9999.0000
    2666.0856      95.3704   -9999.0000
    2666.2380      96.1758   -9999.0000
    2666.3904      96.2741   -9999.0000
    2666.5428      95.4640   -9999.0000
    2666.6952      94.0796   -9999.0000
    2666.8476      92.6415   -9999.0000
    2667.0000      91.5815   -9999.0000
    2667.1524      91.0251   -9999.0000
    2667.3048      90.8904   -9999.0000
    2667.4572      91.0274   -9999.0000
    2667.6096      91.2223   -9999.0000
    2667.7620      91.3111   -9999.0000
    2667.9144      91.0122   -9999.0000
    2668.0668      89.9971   -9999.0000
    2668.2192      88.4823   -9999.0000
    2668.3716      87.3850   -9999.0000
    2668.5240      87.7162   -9999.0000
    2668.6764      89.6809   -9999.0000
    2668.8288      92.0774   -9999.0000
    2668.9812      93.0859   -9999.0000
    2669.1336      92.3953   -9999.0000
    2669.2860      91.4824   -9999.0000
    2669.4384      91.9402   -9999.0000
    2669.5908      93.7657   -9999.0000
    2669.7432      95.1097   -9999.0000
    2669.8956      94.1941   -9999.0000
    2670.0480      91.2685   -9999.0000
    2670.2004      88.5655   -9999.0000
    2670.3528      88.0956   -9999.0000
    2670.5052      90.1003   -9999.0000
    2670.6576      93.0891   -9999.0000
    2670.8100      95.0828   -9999.0000
    2670.9624      95.1913   -9999.0000
    2671.1148      93.7818   -9999.0000
    2671.2672      91.8780   -9999.0000
    2671.4196      90.3140   -9999.0000
    2671.5720      89.4240   -9999.0000
    2671.7244      89.1100   -9999.0000
    2671.8768      89.0151   -9999.0000
    2672.0292      88.9568   -9999.0000
    2672.1816      89.0016   -9999.0000
    2672.3340      89.3123   -9999.0000
    2672.4864      89.9354   -9999.0000
    2672.6388      90.6808   -9999.0000
    2672.7912      91.1951   -9999.0000
    2672.9436      91.2600   -9999.0000
    2673.0960      90.9217   -9999.0000
    2673.2484      90.4948   -9999.0000
    2673.4008      90.3549   -9999.0000
    2673.5532      90.6371   -9999.0000
    2673.7056      91.3083   -9999.0000
    2673.8580      92.1164   -9999.0000
    2674.0104      92.7339   -9999.0000
    2674.1628      93.0302   -9999.0000
    2674.3152      93.2187   -9999.0000
    2674.4676      93.6241   -9999.0000
    2674.6200      94.4460   -9999.0000
    2674.7724      95.5892   -9999.0000
    2674.9248      96.5767   -9999.0000
    2675.0772      96.9753   -9999.0000
    2675.2296      96.5965   -9999.0000
    2675.3820      95.7354   -9999.0000
    2675.5344      95.0872   -9999.0000
    2675.6868      95.2622   -9999.0000
    2675.8392      96.1249   -9999.0000
    2675.9916      96.7941   -9999.0000
    2676.1440      96.3639   -9999.0000
    2676.2964      94.6619   -9999.0000
    2676.4488      92.4866   -9999.0000
    2676.6012      90.9797   -9999.0000
    2676.7536      90.9821   -9999.0000
    2676.9060      92.1749   -9999.0000
    2677.0584      93.3893   -9999.0000
    2677.2108      93.6334   -9999.0000
