#------------------------------------------------------------------------------
#
#   Created by  : [OpenWorks] Log Export Utility (LEXP)
#   Created on  : 2008-05-07 10:33:46
#   Project     : NORNE
#   User        : TRAL
#   Interpreter : TRAL
#
#------------------------------------------------------------------------------
~VERSION INFORMATION
VERS. 2.0 : CWLS Log ASCII Standard - version 2.0
WRAP.  NO : One line per depth step
~WELL INFORMATION
#MNEMONIC   .UNIT                                           VALUE :DESCRIPTION
#------------------------------------------------------------------------------
STRT        .M                                          1300.1244 :START DEPTH
STOP        .M                                          4299.9658 :STOP DEPTH
STEP        .M                                             0.1524 :STEP
NULL        .                                           -999.2500 :NULL VALUE
COMP        .                                             STATOIL :COMPANY
WELL        .                                       6608/10-B-1 H :WELL
FLD         .                                               NORNE :FIELD
LOC         .                                             UNKNOWN :LOCATION
CNTY        .                                             UNKNOWN :COUNTY
STAT        .                                             UNKNOWN :STATE
CTRY        .                                              Norway :COUNTRY
SRVC        .                                             UNKNOWN :SERVICE COMPANY
DATE        .                                             UNKNOWN :LOG DATE
UWI         .                                    NO 6608/10-B-1 H :UNIQUE WELL ID
XCOORD      .                                       457125.588297 :SURFACE X
YCOORD      .                                      7322128.215510 :SURFACE Y
LAT         .                                           66.015337 :LATITUDE
LON         .                                            8.054802 :LONGITUDE
ELEV        .M                                            22.0000 :SURFACE ELEV
ELEV_TYPE   .                                                  KB :ELEV TYPE
~CURVE INFORMATION
#MNEMONIC.UNIT        API CODE       : CURVE DESCRIPTION
#------------------------------------------------------------------------------
DEPTH    .M                          : Measured Depth
TVD      .M                          : True Vertical Depth (TVD)
TVDSS    .M                          : True Vertical Depth (TVDSS)
DT-SYNT  .UNKNOWN     UNKNOWN        : DT-SYNT:PETROWORKS:rC:NONE:v1 
GR       .API         UNKNOWN        : GR:UNKNOWN:r1:MAIN:v1 
PHIF     .v/v_decimal UNKNOWN        : PHIF:UNKNOWN:r1:MAIN:v1 
RHOB     .g/cm3       UNKNOWN        : RHOB:UNKNOWN:r1:MAIN:v1 
~A     DEPTH         TVD       TVDSS      DT-SYNT           GR         PHIF         RHOB
# ...
   2493.4165   2386.0952  -2364.0952    -999.2500      96.1999    -999.2500    -999.2500
   2493.5688   2386.2217  -2364.2217    -999.2500      96.1999    -999.2500    -999.2500
   2493.7212   2386.3481  -2364.3481    -999.2500      84.6959    -999.2500    -999.2500
   2493.8735   2386.4746  -2364.4746    -999.2500      87.4869    -999.2500    -999.2500
   2494.0259   2386.6011  -2364.6011    -999.2500      92.1329    -999.2500    -999.2500
   2494.1785   2386.7278  -2364.7278    -999.2500      96.5439    -999.2500    -999.2500
   2494.3308   2386.8542  -2364.8542    -999.2500      91.0319    -999.2500    -999.2500
   2494.4832   2386.9807  -2364.9807    -999.2500      85.8889    -999.2500    -999.2500
   2494.6355   2387.1072  -2365.1072    -999.2500      87.4679    -999.2500    -999.2500
   2494.7881   2387.2339  -2365.2339    -999.2500      82.9509    -999.2500    -999.2500
   2494.9404   2387.3604  -2365.3604    -999.2500      77.4389    -999.2500    -999.2500
   2495.0928   2387.4868  -2365.4868    -999.2500      65.6549    -999.2500    -999.2500
   2495.2451   2387.6133  -2365.6133    -999.2500      60.7559    -999.2500    -999.2500
   2495.3977   2387.7400  -2365.7400    -999.2500      60.9739    -999.2500    -999.2500
   2495.5500   2387.8665  -2365.8665    -999.2500      54.1009    -999.2500    -999.2500
   2495.7024   2387.9929  -2365.9929    -999.2500      63.6969    -999.2500    -999.2500
   2495.8547   2388.1194  -2366.1194    -999.2500      70.7369    -999.2500    -999.2500
   2496.0071   2388.2458  -2366.2458    -999.2500      68.7519    -999.2500    -999.2500
   2496.1597   2388.3726  -2366.3726    -999.2500      48.7039    -999.2500    -999.2500
   2496.3120   2388.4990  -2366.4990    -999.2500      18.3169    -999.2500    -999.2500
   2496.4644   2388.6255  -2366.6255    -999.2500      18.0859    -999.2500    -999.2500
   2496.6167   2388.7520  -2366.7520    -999.2500      23.7319    -999.2500    -999.2500
   2496.7693   2388.8787  -2366.8787    -999.2500      31.5369    -999.2500    -999.2500
   2496.9216   2389.0051  -2367.0051    -999.2500      58.3789    -999.2500    -999.2500
   2497.0740   2389.1316  -2367.1316    -999.2500      59.3729    -999.2500    -999.2500
   2497.2263   2389.2581  -2367.2581    -999.2500      84.0549    -999.2500    -999.2500
   2497.3789   2389.3848  -2367.3848    -999.2500      84.8589    -999.2500    -999.2500
   2497.5312   2389.5112  -2367.5112    -999.2500      91.7119    -999.2500    -999.2500
   2497.6836   2389.6377  -2367.6377    -999.2500      88.5499    -999.2500    -999.2500
   2497.8359   2389.7642  -2367.7642    -999.2500      89.0219    -999.2500    -999.2500
   2497.9883   2389.8906  -2367.8906    -999.2500      91.5799    -999.2500    -999.2500
   2498.1409   2390.0173  -2368.0173    -999.2500      85.5549    -999.2500    -999.2500
   2498.2932   2390.1438  -2368.1438    -999.2500      60.4849    -999.2500    -999.2500
   2498.4456   2390.2703  -2368.2703    -999.2500      50.9749    -999.2500    -999.2500
   2498.5979   2390.3967  -2368.3967    -999.2500      74.6369    -999.2500    -999.2500
   2498.7505   2390.5234  -2368.5234    -999.2500      76.3719    -999.2500    -999.2500
   2498.9028   2390.6499  -2368.6499    -999.2500      77.3329    -999.2500    -999.2500
   2499.0552   2390.7764  -2368.7764    -999.2500      79.7199    -999.2500    -999.2500
   2499.2075   2390.9028  -2368.9028    -999.2500      87.2439    -999.2500    -999.2500
   2499.3601   2391.0295  -2369.0295    -999.2500      85.9939    -999.2500    -999.2500
   2499.5125   2391.1560  -2369.1560    -999.2500      97.6349    -999.2500    -999.2500
   2499.6648   2391.2825  -2369.2825    -999.2500      93.4959    -999.2500    -999.2500
   2499.8171   2391.4089  -2369.4089    -999.2500     105.7249    -999.2500    -999.2500
   2499.9695   2391.5354  -2369.5354    -999.2500      98.1249    -999.2500    -999.2500
   2500.1221   2391.6606  -2369.6606    -999.2500      87.3619    -999.2500    -999.2500
   2500.2744   2391.7854  -2369.7854    -999.2500      86.6309    -999.2500    -999.2500
   2500.4268   2391.9099  -2369.9099    -999.2500      89.7559    -999.2500    -999.2500
   2500.5791   2392.0347  -2370.0347    -999.2500      90.9439    -999.2500    -999.2500
   2500.7317   2392.1594  -2370.1594    -999.2500      83.2699    -999.2500    -999.2500
   2500.8840   2392.2839  -2370.2839    -999.2500      65.3089    -999.2500    -999.2500
   2501.0364   2392.4087  -2370.4087    -999.2500      59.8689    -999.2500    -999.2500
   2501.1887   2392.5332  -2370.5332    -999.2500      77.6949    -999.2500    -999.2500
   2501.3413   2392.6582  -2370.6582    -999.2500      74.7389    -999.2500    -999.2500
   2501.4937   2392.7827  -2370.7827    -999.2500      80.2319    -999.2500    -999.2500
   2501.6460   2392.9075  -2370.9075    -999.2500      85.2319    -999.2500    -999.2500
   2501.7983   2393.0320  -2371.0320    -999.2500      81.1899    -999.2500    -999.2500
   2501.9507   2393.1567  -2371.1567    -999.2500      84.1959    -999.2500    -999.2500
   2502.1033   2393.2815  -2371.2815    -999.2500      78.2339    -999.2500    -999.2500
   2502.2556   2393.4060  -2371.4060    -999.2500      69.7049    -999.2500    -999.2500
   2502.4080   2393.5308  -2371.5308    -999.2500      71.5619    -999.2500    -999.2500
   2502.5603   2393.6553  -2371.6553    -999.2500      72.5679    -999.2500    -999.2500
   2502.7129   2393.7803  -2371.7803    -999.2500      71.9189    -999.2500    -999.2500
   2502.8652   2393.9048  -2371.9048    -999.2500      75.0499    -999.2500    -999.2500
   2503.0176   2394.0295  -2372.0295    -999.2500      81.1789    -999.2500    -999.2500
   2503.1699   2394.1541  -2372.1541    -999.2500      82.6479    -999.2500    -999.2500
   2503.3225   2394.2788  -2372.2788    -999.2500      89.6789    -999.2500    -999.2500
   2503.4749   2394.4036  -2372.4036    -999.2500      81.3879    -999.2500    -999.2500
   2503.6272   2394.5281  -2372.5281    -999.2500      87.9669    -999.2500    -999.2500
   2503.7795   2394.6528  -2372.6528    -999.2500      90.8389    -999.2500    -999.2500
   2503.9319   2394.7773  -2372.7773    -999.2500      90.1089    -999.2500    -999.2500
   2504.0845   2394.9023  -2372.9023    -999.2500      83.7879    -999.2500    -999.2500
   2504.2368   2395.0269  -2373.0269    -999.2500      88.3819    -999.2500    -999.2500
   2504.3892   2395.1516  -2373.1516    -999.2500      84.1189    -999.2500    -999.2500
   2504.5415   2395.2761  -2373.2761    -999.2500      83.5839    -999.2500    -999.2500
   2504.6941   2395.4009  -2373.4009    -999.2500      79.7619    -999.2500    -999.2500
   2504.8464   2395.5256  -2373.5256    -999.2500      77.0549    -999.2500    -999.2500
   2504.9988   2395.6501  -2373.6501    -999.2500      75.8739    -999.2500    -999.2500
   2505.1511   2395.7749  -2373.7749    -999.2500      73.0489    -999.2500    -999.2500
   2505.3037   2395.8997  -2373.8997    -999.2500      61.0989    -999.2500    -999.2500
   2505.4561   2396.0244  -2374.0244    -999.2500      60.8529    -999.2500    -999.2500
   2505.6084   2396.1489  -2374.1489    -999.2500      77.3079    -999.2500    -999.2500
   2505.7607   2396.2737  -2374.2737    -999.2500      81.8559    -999.2500    -999.2500
   2505.9131   2396.3982  -2374.3982    -999.2500      86.7669    -999.2500    -999.2500
   2506.0657   2396.5229  -2374.5229    -999.2500      88.7659    -999.2500    -999.2500
   2506.2180   2396.6477  -2374.6477    -999.2500      87.4219    -999.2500    -999.2500
   2506.3704   2396.7722  -2374.7722    -999.2500      85.9149    -999.2500    -999.2500
   2506.5227   2396.8970  -2374.8970    -999.2500      82.3159    -999.2500    -999.2500
   2506.6753   2397.0217  -2375.0217    -999.2500      81.4149    -999.2500    -999.2500
   2506.8276   2397.1465  -2375.1465    -999.2500      73.1049    -999.2500    -999.2500
   2506.9800   2397.2710  -2375.2710    -999.2500      65.7549    -999.2500    -999.2500
