#------------------------------------------------------------------------------
#
#   Created by  : [OpenWorks] Log Export Utility (LEXP)
#   Created on  : 2008-05-07 10:33:46
#   Project     : NORNE
#   User        : TRAL
#   Interpreter : TRAL
#
#------------------------------------------------------------------------------
~VERSION INFORMATION
VERS. 2.0 : CWLS Log ASCII Standard - version 2.0
WRAP.  NO : One line per depth step
~WELL INFORMATION
#MNEMONIC   .UNIT                                           VALUE :DESCRIPTION
#------------------------------------------------------------------------------
STRT        .M                                          1300.1244 :START DEPTH
STOP        .M                                          4299.9658 :STOP DEPTH
STEP        .M                                             0.1524 :STEP
NULL        .                                           -999.2500 :NULL VALUE
COMP        .                                             STATOIL :COMPANY
WELL        .                                       6608/10-B-1 H :WELL
FLD         .                                               NORNE :FIELD
LOC         .                                             UNKNOWN :LOCATION
CNTY        .                                             UNKNOWN :COUNTY
STAT        .                                             UNKNOWN :STATE
CTRY        .                                              Norway :COUNTRY
SRVC        .                                             UNKNOWN :SERVICE COMPANY
DATE        .                                             UNKNOWN :LOG DATE
UWI         .                                    NO 6608/10-B-1 H :UNIQUE WELL ID
XCOORD      .                                       457125.588297 :SURFACE X
YCOORD      .                                      7322128.215510 :SURFACE Y
LAT         .                                           66.015337 :LATITUDE
LON         .                                            8.054802 :LONGITUDE
ELEV        .M                                            22.0000 :SURFACE ELEV
ELEV_TYPE   .                                                  KB :ELEV TYPE
~CURVE INFORMATION
#MNEMONIC.UNIT        API CODE       : CURVE DESCRIPTION
#------------------------------------------------------------------------------
DEPTH    .M                          : Measured Depth
TVD      .M                          : True Vertical Depth (TVD)
TVDSS    .M                          : True Vertical Depth (TVDSS)
DT-SYNT  .UNKNOWN     UNKNOWN        : DT-SYNT:PETROWORKS:rC:NONE:v1 
GR       .API         UNKNOWN        : GR:UNKNOWN:r1:MAIN:v1 
PHIF     .v/v_decimal UNKNOWN        : PHIF:UNKNOWN:r1:MAIN:v1 
RHOB     .g/cm3       UNKNOWN        : RHOB:UNKNOWN:r1:MAIN:v1 
~A     DEPTH         TVD       TVDSS      DT-SYNT           GR         PHIF         RHOB
   1300.1244   1299.2622  -1277.2622    -999.2500     115.3953    -999.2500    -999.2500
   1300.2767   1299.4146  -1277.4146    -999.2500     108.0300    -999.2500    -999.2500
   1300.4292   1299.5670  -1277.5670    -999.2500      96.7880    -999.2500    -999.2500
   1300.5815   1299.7194  -1277.7194    -999.2500     108.8080    -999.2500    -999.2500
   1300.7340   1299.8717  -1277.8717    -999.2500     111.7260    -999.2500    -999.2500
   1300.8864   1300.0240  -1278.0240    -999.2500     120.1900    -999.2500    -999.2500
   1301.0388   1300.1765  -1278.1765    -999.2500     113.9440    -999.2500    -999.2500
   1301.1912   1300.3289  -1278.3289    -999.2500     105.7750    -999.2500    -999.2500
   1301.3436   1300.4813  -1278.4813    -999.2500     100.3980    -999.2500    -999.2500
   1301.4960   1300.6337  -1278.6337    -999.2500     105.7960    -999.2500    -999.2500
   1301.6484   1300.7861  -1278.7861    -999.2500     104.5360    -999.2500    -999.2500
   1301.8008   1300.9385  -1278.9385    -999.2500     105.7460    -999.2500    -999.2500
   1301.9532   1301.0908  -1279.0908    -999.2500     107.1520    -999.2500    -999.2500
   1302.1056   1301.2432  -1279.2432    -999.2500     110.2190    -999.2500    -999.2500
   1302.2579   1301.3955  -1279.3955    -999.2500     107.1290    -999.2500    -999.2500
   1302.4104   1301.5480  -1279.5480    -999.2500     102.5640    -999.2500    -999.2500
   1302.5627   1301.7003  -1279.7003    -999.2500     107.8590    -999.2500    -999.2500
   1302.7152   1301.8528  -1279.8528    -999.2500     121.1970    -999.2500    -999.2500
   1302.8676   1302.0051  -1280.0051    -999.2500     113.8230    -999.2500    -999.2500
   1303.0200   1302.1576  -1280.1576    -999.2500     110.1250    -999.2500    -999.2500
   1303.1724   1302.3098  -1280.3098    -999.2500      97.2110    -999.2500    -999.2500
   1303.3248   1302.4623  -1280.4623    -999.2500     105.6650    -999.2500    -999.2500
   1303.4772   1302.6146  -1280.6146    -999.2500     110.7530    -999.2500    -999.2500
   1303.6296   1302.7671  -1280.7671    -999.2500     109.0020    -999.2500    -999.2500
   1303.7820   1302.9194  -1280.9194    -999.2500     107.5120    -999.2500    -999.2500
   1303.9344   1303.0719  -1281.0719    -999.2500     114.8890    -999.2500    -999.2500
   1304.0868   1303.2242  -1281.2242    -999.2500     110.1000    -999.2500    -999.2500
   1304.2391   1303.3766  -1281.3766    -999.2500     105.5290    -999.2500    -999.2500
   1304.3916   1303.5289  -1281.5289    -999.2500      97.2500    -999.2500    -999.2500
   1304.5439   1303.6813  -1281.6813    -999.2500      92.7890    -999.2500    -999.2500
   1304.6964   1303.8337  -1281.8337    -999.2500     100.7950    -999.2500    -999.2500
   1304.8488   1303.9861  -1281.9861    -999.2500      96.9960    -999.2500    -999.2500
   1305.0012   1304.1385  -1282.1385    -999.2500     100.5770    -999.2500    -999.2500
   1305.1536   1304.2909  -1282.2909    -999.2500     103.7660    -999.2500    -999.2500
   1305.3060   1304.4434  -1282.4434    -999.2500     102.6930    -999.2500    -999.2500
   1305.4584   1304.5957  -1282.5957    -999.2500      96.2270    -999.2500    -999.2500
   1305.6108   1304.7482  -1282.7482    -999.2500      86.5450    -999.2500    -999.2500
   1305.7632   1304.9004  -1282.9004    -999.2500      82.3890    -999.2500    -999.2500
   1305.9156   1305.0529  -1283.0529    -999.2500      80.0920    -999.2500    -999.2500
   1306.0680   1305.2052  -1283.2052    -999.2500      82.4340    -999.2500    -999.2500
   1306.2203   1305.3575  -1283.3575    -999.2500     100.7030    -999.2500    -999.2500
   1306.3728   1305.5100  -1283.5100    -999.2500     102.1720    -999.2500    -999.2500
   1306.5251   1305.6624  -1283.6624    -999.2500      97.5960    -999.2500    -999.2500
   1306.6776   1305.8148  -1283.8148    -999.2500      96.7350    -999.2500    -999.2500
   1306.8300   1305.9672  -1283.9672    -999.2500      94.7580    -999.2500    -999.2500
   1306.9824   1306.1195  -1284.1195    -999.2500     104.0270    -999.2500    -999.2500
   1307.1348   1306.2719  -1284.2719    -999.2500     103.0620    -999.2500    -999.2500
   1307.2872   1306.4243  -1284.4243    -999.2500      93.7380    -999.2500    -999.2500
   1307.4396   1306.5767  -1284.5767    -999.2500      82.4690    -999.2500    -999.2500
   1307.5920   1306.7291  -1284.7291    -999.2500      68.6220    -999.2500    -999.2500
   1307.7444   1306.8815  -1284.8815    -999.2500      77.5730    -999.2500    -999.2500
   1307.8969   1307.0339  -1285.0339    -999.2500      90.4670    -999.2500    -999.2500
   1308.0492   1307.1863  -1285.1863    -999.2500      90.3980    -999.2500    -999.2500
   1308.2015   1307.3385  -1285.3385    -999.2500     107.5820    -999.2500    -999.2500
   1308.3540   1307.4910  -1285.4910    -999.2500      94.7080    -999.2500    -999.2500
   1308.5063   1307.6433  -1285.6433    -999.2500     100.8600    -999.2500    -999.2500
   1308.6588   1307.7958  -1285.7958    -999.2500      98.8040    -999.2500    -999.2500
   1308.8112   1307.9481  -1285.9481    -999.2500      79.1800    -999.2500    -999.2500
   1308.9636   1308.1006  -1286.1006    -999.2500      89.2320    -999.2500    -999.2500
   1309.1160   1308.2529  -1286.2529    -999.2500     105.1650    -999.2500    -999.2500
   1309.2684   1308.4054  -1286.4054    -999.2500     100.9320    -999.2500    -999.2500
   1309.4208   1308.5576  -1286.5576    -999.2500     102.6710    -999.2500    -999.2500
   1309.5732   1308.7101  -1286.7101    -999.2500     102.4560    -999.2500    -999.2500
   1309.7256   1308.8624  -1286.8624    -999.2500      96.9710    -999.2500    -999.2500
   1309.8779   1309.0148  -1287.0148    -999.2500      98.9670    -999.2500    -999.2500
   1310.0304   1309.1672  -1287.1672    -999.2500      93.5660    -999.2500    -999.2500
   1310.1827   1309.3196  -1287.3196    -999.2500      94.7890    -999.2500    -999.2500
   1310.3352   1309.4720  -1287.4720    -999.2500      99.7020    -999.2500    -999.2500
   1310.4875   1309.6244  -1287.6244    -999.2500     104.3510    -999.2500    -999.2500
   1310.6400   1309.7767  -1287.7767    -999.2500     101.3300    -999.2500    -999.2500
   1310.7924   1309.9291  -1287.9291    -999.2500     100.3580    -999.2500    -999.2500
   1310.9448   1310.0815  -1288.0815    -999.2500     113.1580    -999.2500    -999.2500
   1311.0972   1310.2339  -1288.2339    -999.2500     105.1350    -999.2500    -999.2500
   1311.2496   1310.3864  -1288.3864    -999.2500      96.7570    -999.2500    -999.2500
   1311.4020   1310.5387  -1288.5387    -999.2500      98.9700    -999.2500    -999.2500
   1311.5544   1310.6912  -1288.6912    -999.2500     102.3000    -999.2500    -999.2500
   1311.7068   1310.8435  -1288.8435    -999.2500     102.2130    -999.2500    -999.2500
   1311.8591   1310.9958  -1288.9958    -999.2500      89.5680    -999.2500    -999.2500
   1312.0116   1311.1482  -1289.1482    -999.2500     102.7660    -999.2500    -999.2500
   1312.1639   1311.3005  -1289.3005    -999.2500     110.0340    -999.2500    -999.2500
   1312.3164   1311.4530  -1289.4530    -999.2500     114.7790    -999.2500    -999.2500
   1312.4688   1311.6053  -1289.6053    -999.2500     111.0010    -999.2500    -999.2500
   1312.6212   1311.7578  -1289.7578    -999.2500     104.0220    -999.2500    -999.2500
   1312.7736   1311.9102  -1289.9102    -999.2500     108.2160    -999.2500    -999.2500
   1312.9260   1312.0626  -1290.0626    -999.2500      98.9550    -999.2500    -999.2500
   1313.0784   1312.2150  -1290.2150    -999.2500     106.4760    -999.2500    -999.2500
   1313.2308   1312.3673  -1290.3673    -999.2500     116.3920    -999.2500    -999.2500
   1313.3832   1312.5197  -1290.5197    -999.2500     106.2530    -999.2500    -999.2500
   1313.5356   1312.6721  -1290.6721    -999.2500      87.7740    -999.2500    -999.2500
   1313.6880   1312.8245  -1290.8245    -999.2500     104.8240    -999.2500    -999.2500
