#------------------------------------------------------------------------------
#
#   Created by  : [OpenWorks] Log Export Utility (LEXP)
#   Created on  : 2008-05-07 10:33:46
#   Project     : NORNE
#   User        : TRAL
#   Interpreter : TRAL
#
#------------------------------------------------------------------------------
~VERSION INFORMATION
VERS. 2.0 : CWLS Log ASCII Standard - version 2.0
WRAP.  NO : One line per depth step
~WELL INFORMATION
#MNEMONIC   .UNIT                                           VALUE :DESCRIPTION
#------------------------------------------------------------------------------
STRT        .M                                          1300.1244 :START DEPTH
STOP        .M                                          4299.9658 :STOP DEPTH
STEP        .M                                             0.1524 :STEP
NULL        .                                           -999.2500 :NULL VALUE
COMP        .                                             STATOIL :COMPANY
WELL        .                                       6608/10-B-1 H :WELL
FLD         .                                               NORNE :FIELD
LOC         .                                             UNKNOWN :LOCATION
CNTY        .                                             UNKNOWN :COUNTY
STAT        .                                             UNKNOWN :STATE
CTRY        .                                              Norway :COUNTRY
SRVC        .                                             UNKNOWN :SERVICE COMPANY
DATE        .                                             UNKNOWN :LOG DATE
UWI         .                                    NO 6608/10-B-1 H :UNIQUE WELL ID
XCOORD      .                                       457125.588297 :SURFACE X
YCOORD      .                                      7322128.215510 :SURFACE Y
LAT         .                                           66.015337 :LATITUDE
LON         .                                            8.054802 :LONGITUDE
ELEV        .M                                            22.0000 :SURFACE ELEV
ELEV_TYPE   .                                                  KB :ELEV TYPE
~CURVE INFORMATION
#MNEMONIC.UNIT        API CODE       : CURVE DESCRIPTION
#------------------------------------------------------------------------------
DEPTH    .M                          : Measured Depth
TVD      .M                          : True Vertical Depth (TVD)
TVDSS    .M                          : True Vertical Depth (TVDSS)
DT-SYNT  .UNKNOWN     UNKNOWN        : DT-SYNT:PETROWORKS:rC:NONE:v1 
GR       .API         UNKNOWN        : GR:UNKNOWN:r1:MAIN:v1 
PHIF     .v/v_decimal UNKNOWN        : PHIF:UNKNOWN:r1:MAIN:v1 
RHOB     .g/cm3       UNKNOWN        : RHOB:UNKNOWN:r1:MAIN:v1 
~A     DEPTH         TVD       TVDSS      DT-SYNT           GR         PHIF         RHOB
# ...
   2685.4404   2514.5728  -2492.5728    -999.2500      59.4169    -999.2500    -999.2500
   2685.5928   2514.6438  -2492.6438    -999.2500      54.3929    -999.2500    -999.2500
   2685.7451   2514.7148  -2492.7148    -999.2500      52.7169    -999.2500    -999.2500
   2685.8977   2514.7859  -2492.7859    -999.2500      66.9589    -999.2500    -999.2500
   2686.0500   2514.8569  -2492.8569    -999.2500      67.7109    -999.2500    -999.2500
   2686.2024   2514.9280  -2492.9280    -999.2500      58.3519    -999.2500    -999.2500
   2686.3547   2514.9990  -2492.9990    -999.2500      60.1649    -999.2500    -999.2500
   2686.5071   2515.0701  -2493.0701    -999.2500      72.3519    -999.2500    -999.2500
   2686.6597   2515.1411  -2493.1411    -999.2500      74.6549    -999.2500    -999.2500
   2686.8120   2515.2122  -2493.2122    -999.2500      69.3719    -999.2500    -999.2500
   2686.9644   2515.2832  -2493.2832    -999.2500      74.9429    -999.2500    -999.2500
   2687.1167   2515.3542  -2493.3542    -999.2500      71.9739    -999.2500    -999.2500
   2687.2693   2515.4253  -2493.4253    -999.2500      67.4399    -999.2500    -999.2500
   2687.4216   2515.4963  -2493.4963    -999.2500      58.8239    -999.2500    -999.2500
   2687.5740   2515.5674  -2493.5674    -999.2500      60.7789    -999.2500    -999.2500
   2687.7263   2515.6384  -2493.6384    -999.2500      57.8679    -999.2500    -999.2500
   2687.8789   2515.7095  -2493.7095    -999.2500      49.0999    -999.2500    -999.2500
   2688.0312   2515.7805  -2493.7805    -999.2500      53.0079    -999.2500    -999.2500
   2688.1836   2515.8516  -2493.8516    -999.2500      61.9549    -999.2500    -999.2500
   2688.3359   2515.9226  -2493.9226    -999.2500      63.9199    -999.2500    -999.2500
   2688.4883   2515.9937  -2493.9937    -999.2500      46.8369    -999.2500    -999.2500
   2688.6409   2516.0647  -2494.0647    -999.2500      42.5629    -999.2500    -999.2500
   2688.7932   2516.1357  -2494.1357    -999.2500      42.6919    -999.2500    -999.2500
   2688.9456   2516.2068  -2494.2068    -999.2500      49.5049    -999.2500    -999.2500
   2689.0979   2516.2778  -2494.2778    -999.2500      44.8389    -999.2500    -999.2500
   2689.2505   2516.3489  -2494.3489    -999.2500      52.6369    -999.2500    -999.2500
   2689.4028   2516.4199  -2494.4199    -999.2500      60.9649    -999.2500    -999.2500
   2689.5552   2516.4910  -2494.4910    -999.2500      63.1099    -999.2500    -999.2500
   2689.7075   2516.5620  -2494.5620    -999.2500      64.0269    -999.2500    -999.2500
   2689.8601   2516.6331  -2494.6331    -999.2500      60.9509    -999.2500    -999.2500
   2690.0125   2516.7039  -2494.7039    -999.2500      65.9599    -999.2500    -999.2500
   2690.1648   2516.7722  -2494.7722    -999.2500      68.0789    -999.2500    -999.2500
   2690.3171   2516.8406  -2494.8406    -999.2500      72.0469    -999.2500    -999.2500
   2690.4695   2516.9087  -2494.9087    -999.2500      67.6299    -999.2500    -999.2500
   2690.6221   2516.9773  -2494.9773    -999.2500      64.8029    -999.2500    -999.2500
   2690.7744   2517.0457  -2495.0457    -999.2500      64.6009    -999.2500    -999.2500
   2690.9268   2517.1138  -2495.1138    -999.2500      63.2759    -999.2500    -999.2500
   2691.0791   2517.1821  -2495.1821    -999.2500      62.0379    -999.2500    -999.2500
   2691.2317   2517.2505  -2495.2505    -999.2500      57.0989    -999.2500    -999.2500
   2691.3840   2517.3188  -2495.3188    -999.2500      62.4429    -999.2500    -999.2500
   2691.5364   2517.3872  -2495.3872    -999.2500      55.5649    -999.2500    -999.2500
   2691.6887   2517.4556  -2495.4556    -999.2500      47.2089    -999.2500    -999.2500
   2691.8413   2517.5239  -2495.5239    -999.2500      43.5839    -999.2500    -999.2500
   2691.9937   2517.5923  -2495.5923    -999.2500      47.2679    -999.2500    -999.2500
   2692.1460   2517.6606  -2495.6606    -999.2500      50.8229    -999.2500    -999.2500
   2692.2983   2517.7290  -2495.7290    -999.2500      44.2329    -999.2500    -999.2500
   2692.4507   2517.7974  -2495.7974    -999.2500      47.5659    -999.2500    -999.2500
   2692.6033   2517.8657  -2495.8657    -999.2500      51.8759    -999.2500    -999.2500
   2692.7556   2517.9341  -2495.9341    -999.2500      52.2159    -999.2500    -999.2500
   2692.9080   2518.0024  -2496.0024    -999.2500      51.5979    -999.2500    -999.2500
   2693.0603   2518.0706  -2496.0706    -999.2500      51.8359    -999.2500    -999.2500
   2693.2129   2518.1392  -2496.1392    -999.2500      57.8439    -999.2500    -999.2500
   2693.3652   2518.2075  -2496.2075    -999.2500      59.6379    -999.2500    -999.2500
   2693.5176   2518.2756  -2496.2756    -999.2500      62.1419    -999.2500    -999.2500
   2693.6699   2518.3440  -2496.3440    -999.2500      58.3359    -999.2500    -999.2500
   2693.8225   2518.4126  -2496.4126    -999.2500      49.4399    -999.2500    -999.2500
   2693.9749   2518.4807  -2496.4807    -999.2500      50.6929    -999.2500    -999.2500
   2694.1272   2518.5491  -2496.5491    -999.2500      50.4599    -999.2500    -999.2500
   2694.2795   2518.6174  -2496.6174    -999.2500      57.2259    -999.2500    -999.2500
   2694.4319   2518.6858  -2496.6858    -999.2500      58.4959    -999.2500    -999.2500
   2694.5845   2518.7542  -2496.7542    -999.2500      52.7259    -999.2500    -999.2500
   2694.7368   2518.8225  -2496.8225    -999.2500      60.6279    -999.2500    -999.2500
   2694.8892   2518.8909  -2496.8909    -999.2500      63.2069    -999.2500    -999.2500
   2695.0415   2518.9592  -2496.9592    -999.2500      63.4419    -999.2500    -999.2500
   2695.1941   2519.0276  -2497.0276    -999.2500      72.0599    -999.2500    -999.2500
   2695.3464   2519.0959  -2497.0959    -999.2500      74.3839    -999.2500    -999.2500
   2695.4988   2519.1643  -2497.1643    -999.2500      77.2969    -999.2500    -999.2500
   2695.6511   2519.2327  -2497.2327    -999.2500      70.6089    -999.2500    -999.2500
   2695.8037   2519.3010  -2497.3010    -999.2500      63.6299    -999.2500    -999.2500
   2695.9561   2519.3694  -2497.3694    -999.2500      62.1559    -999.2500    -999.2500
   2696.1084   2519.4377  -2497.4377    -999.2500      65.3649    -999.2500    -999.2500
   2696.2607   2519.5059  -2497.5059    -999.2500      65.6819    -999.2500    -999.2500
   2696.4131   2519.5742  -2497.5742    -999.2500      68.3189    -999.2500    -999.2500
   2696.5657   2519.6426  -2497.6426    -999.2500      77.6049    -999.2500    -999.2500
   2696.7180   2519.7109  -2497.7109    -999.2500      77.4309    -999.2500    -999.2500
   2696.8704   2519.7793  -2497.7793    -999.2500      68.5619    -999.2500    -999.2500
   2697.0227   2519.8477  -2497.8477    -999.2500      62.6339    -999.2500    -999.2500
   2697.1753   2519.9160  -2497.9160    -999.2500      69.8019    -999.2500    -999.2500
   2697.3276   2519.9844  -2497.9844    -999.2500      75.1079    -999.2500    -999.2500
   2697.4800   2520.0527  -2498.0527    -999.2500      73.9429    -999.2500    -999.2500
   2697.6323   2520.1211  -2498.1211    -999.2500      69.0179    -999.2500    -999.2500
   2697.7847   2520.1895  -2498.1895    -999.2500      61.6879    -999.2500    -999.2500
   2697.9373   2520.2578  -2498.2578    -999.2500      63.1379    -999.2500    -999.2500
   2698.0896   2520.3262  -2498.3262    -999.2500      73.3939    -999.2500    -999.2500
   2698.2419   2520.3945  -2498.3945    -999.2500      73.8899    -999.2500    -999.2500
   2698.3943   2520.4626  -2498.4626    -999.2500      69.9339    -999.2500    -999.2500
   2698.5469   2520.5312  -2498.5312    -999.2500      64.4939    -999.2500    -999.2500
   2698.6992   2520.5996  -2498.5996    -999.2500      63.3319    -999.2500    -999.2500
   2698.8516   2520.6677  -2498.6677    -999.2500      62.5899    -999.2500    -999.2500
   2699.0039   2520.7361  -2498.7361    -999.2500      62.1969    -999.2500    -999.2500
