#------------------------------------------------------------------------------
#
#   Created by  : [OpenWorks] Log Export Utility (LEXP)
#   Created on  : 2008-05-07 10:33:00
#   Project     : NORNE
#   User        : TRAL
#   Interpreter : TRAL
#
#------------------------------------------------------------------------------
~VERSION INFORMATION
VERS. 2.0 : CWLS Log ASCII Standard - version 2.0
WRAP.  NO : One line per depth step
~WELL INFORMATION
#MNEMONIC   .UNIT                                           VALUE :DESCRIPTION
#------------------------------------------------------------------------------
STRT        .M                                             0.1522 :START DEPTH
STOP        .M                                          4349.9531 :STOP DEPTH
STEP        .M                                             0.1524 :STEP
NULL        .                                           -999.2500 :NULL VALUE
COMP        .                                             STATOIL :COMPANY
WELL        .                                       6608/10-E-1 H :WELL
FLD         .                                               NORNE :FIELD
LOC         .                                             UNKNOWN :LOCATION
CNTY        .                                             UNKNOWN :COUNTY
STAT        .                                             UNKNOWN :STATE
CTRY        .                                              Norway :COUNTRY
SRVC        .                                             UNKNOWN :SERVICE COMPANY
DATE        .                                             UNKNOWN :LOG DATE
UWI         .                                    NO 6608/10-E-1 H :UNIQUE WELL ID
XCOORD      .                                       459204.301905 :SURFACE X
YCOORD      .                                      7325445.854798 :SURFACE Y
LAT         .                                           66.045371 :LATITUDE
LON         .                                            8.099572 :LONGITUDE
ELEV        .M                                            24.0000 :SURFACE ELEV
ELEV_TYPE   .                                                  KB :ELEV TYPE
~CURVE INFORMATION
#MNEMONIC.UNIT        API CODE       : CURVE DESCRIPTION
#------------------------------------------------------------------------------
DEPTH    .M                          : Measured Depth
TVD      .M                          : True Vertical Depth (TVD)
TVDSS    .M                          : True Vertical Depth (TVDSS)
DT-SYNT  .UNKNOWN     UNKNOWN        : DT-SYNT:PETROWORKS:rC:NONE:v1 
GR       .API         UNKNOWN        : GR:UNKNOWN:rC:NONE:v1 
PHIF     .v/v_decimal UNKNOWN        : PHIF:UNKNOWN:rC:NONE:v1 
RHOB     .g/cm3       UNKNOWN        : RHOB:UNKNOWN:rC:NONE:v1 
~A     DEPTH         TVD       TVDSS      DT-SYNT           GR         PHIF         RHOB
# ...
    727.1002    725.4707   -701.4707    -999.2500      86.0100    -999.2500    -999.2500
    727.2526    725.6192   -701.6192    -999.2500      93.0700    -999.2500    -999.2500
    727.4050    725.7676   -701.7676    -999.2500      83.5200    -999.2500    -999.2500
    727.5574    725.9161   -701.9161    -999.2500      80.3800    -999.2500    -999.2500
    727.7098    726.0646   -702.0646    -999.2500      73.3400    -999.2500    -999.2500
    727.8622    726.2131   -702.2131    -999.2500      69.8600    -999.2500    -999.2500
    728.0146    726.3615   -702.3615    -999.2500      67.6800    -999.2500    -999.2500
    728.1670    726.5099   -702.5099    -999.2500      81.8200    -999.2500    -999.2500
    728.3194    726.6584   -702.6584    -999.2500      75.0400    -999.2500    -999.2500
    728.4718    726.8069   -702.8069    -999.2500      69.1000    -999.2500    -999.2500
    728.6242    726.9553   -702.9553    -999.2500      76.2300    -999.2500    -999.2500
    728.7766    727.1038   -703.1038    -999.2500      74.7000    -999.2500    -999.2500
    728.9290    727.2523   -703.2523    -999.2500      73.7700    -999.2500    -999.2500
    729.0814    727.4008   -703.4008    -999.2500      73.7200    -999.2500    -999.2500
    729.2338    727.5492   -703.5492    -999.2500      71.0400    -999.2500    -999.2500
    729.3862    727.6977   -703.6977    -999.2500      76.2100    -999.2500    -999.2500
    729.5386    727.8461   -703.8461    -999.2500      74.7900    -999.2500    -999.2500
    729.6910    727.9946   -703.9946    -999.2500      69.0700    -999.2500    -999.2500
    729.8434    728.1431   -704.1431    -999.2500      69.8900    -999.2500    -999.2500
    729.9958    728.2916   -704.2916    -999.2500      73.8500    -999.2500    -999.2500
    730.1482    728.4383   -704.4383    -999.2500      79.0000    -999.2500    -999.2500
    730.3006    728.5851   -704.5851    -999.2500      90.3100    -999.2500    -999.2500
    730.4530    728.7318   -704.7318    -999.2500      79.9900    -999.2500    -999.2500
    730.6054    728.8786   -704.8786    -999.2500      74.7200    -999.2500    -999.2500
    730.7578    729.0253   -705.0253    -999.2500      71.9200    -999.2500    -999.2500
    730.9102    729.1721   -705.1721    -999.2500      77.5500    -999.2500    -999.2500
    731.0626    729.3188   -705.3188    -999.2500      73.6400    -999.2500    -999.2500
    731.2150    729.4656   -705.4656    -999.2500      73.6600    -999.2500    -999.2500
    731.3674    729.6124   -705.6124    -999.2500      76.1600    -999.2500    -999.2500
    731.5198    729.7592   -705.7592    -999.2500      88.9100    -999.2500    -999.2500
    731.6722    729.9059   -705.9059    -999.2500      90.0700    -999.2500    -999.2500
    731.8246    730.0527   -706.0527    -999.2500      86.5500    -999.2500    -999.2500
    731.9770    730.1994   -706.1994    -999.2500      81.8000    -999.2500    -999.2500
    732.1294    730.3461   -706.3461    -999.2500      73.2600    -999.2500    -999.2500
    732.2818    730.4929   -706.4929    -999.2500      78.1500    -999.2500    -999.2500
    732.4342    730.6396   -706.6396    -999.2500      78.8800    -999.2500    -999.2500
    732.5866    730.7864   -706.7864    -999.2500      80.4000    -999.2500    -999.2500
    732.7390    730.9332   -706.9332    -999.2500      80.4000    -999.2500    -999.2500
    732.8914    731.0800   -707.0800    -999.2500      74.7200    -999.2500    -999.2500
    733.0438    731.2267   -707.2267    -999.2500      69.0400    -999.2500    -999.2500
    733.1962    731.3735   -707.3735    -999.2500      69.0400    -999.2500    -999.2500
    733.3486    731.5203   -707.5203    -999.2500      80.3200    -999.2500    -999.2500
    733.5010    731.6670   -707.6670    -999.2500      91.6100    -999.2500    -999.2500
    733.6534    731.8138   -707.8138    -999.2500      88.6000    -999.2500    -999.2500
    733.8058    731.9605   -707.9605    -999.2500      81.7100    -999.2500    -999.2500
    733.9582    732.1072   -708.1072    -999.2500      69.6300    -999.2500    -999.2500
    734.1106    732.2540   -708.2540    -999.2500      84.3600    -999.2500    -999.2500
    734.2630    732.4008   -708.4008    -999.2500      93.1500    -999.2500    -999.2500
    734.4154    732.5475   -708.5475    -999.2500      90.5400    -999.2500    -999.2500
    734.5678    732.6943   -708.6943    -999.2500      87.9300    -999.2500    -999.2500
    734.7202    732.8411   -708.8411    -999.2500      85.3200    -999.2500    -999.2500
    734.8726    732.9878   -708.9878    -999.2500      82.7100    -999.2500    -999.2500
    735.0250    733.1346   -709.1346    -999.2500      80.1100    -999.2500    -999.2500
    735.1774    733.2813   -709.2813    -999.2500      77.5000    -999.2500    -999.2500
    735.3298    733.4281   -709.4281    -999.2500      75.9800    -999.2500    -999.2500
    735.4822    733.5748   -709.5748    -999.2500      76.1200    -999.2500    -999.2500
    735.6346    733.7216   -709.7216    -999.2500      75.0200    -999.2500    -999.2500
    735.7870    733.8684   -709.8684    -999.2500      70.8000    -999.2500    -999.2500
    735.9394    734.0151   -710.0151    -999.2500      85.9300    -999.2500    -999.2500
    736.0918    734.1619   -710.1619    -999.2500      85.2400    -999.2500    -999.2500
    736.2442    734.3086   -710.3086    -999.2500      79.7200    -999.2500    -999.2500
    736.3966    734.4554   -710.4554    -999.2500      74.3300    -999.2500    -999.2500
    736.5490    734.6021   -710.6021    -999.2500      72.6900    -999.2500    -999.2500
    736.7014    734.7489   -710.7489    -999.2500      77.4800    -999.2500    -999.2500
    736.8538    734.8956   -710.8956    -999.2500      87.3100    -999.2500    -999.2500
    737.0062    735.0424   -711.0424    -999.2500      80.9200    -999.2500    -999.2500
    737.1586    735.1892   -711.1892    -999.2500      66.0000    -999.2500    -999.2500
    737.3110    735.3359   -711.3359    -999.2500      78.9800    -999.2500    -999.2500
    737.4634    735.4827   -711.4827    -999.2500      90.1500    -999.2500    -999.2500
    737.6158    735.6295   -711.6295    -999.2500      82.3600    -999.2500    -999.2500
    737.7682    735.7762   -711.7762    -999.2500      77.9000    -999.2500    -999.2500
    737.9206    735.9229   -711.9229    -999.2500      73.9200    -999.2500    -999.2500
    738.0730    736.0697   -712.0697    -999.2500      70.4600    -999.2500    -999.2500
    738.2254    736.2164   -712.2164    -999.2500      70.5200    -999.2500    -999.2500
    738.3778    736.3632   -712.3632    -999.2500      76.0900    -999.2500    -999.2500
    738.5302    736.5100   -712.5100    -999.2500      74.7700    -999.2500    -999.2500
    738.6826    736.6567   -712.6567    -999.2500      73.4200    -999.2500    -999.2500
    738.8350    736.8035   -712.8035    -999.2500      78.9000    -999.2500    -999.2500
    738.9874    736.9503   -712.9503    -999.2500      78.9500    -999.2500    -999.2500
    739.1398    737.0970   -713.0970    -999.2500      77.3100    -999.2500    -999.2500
    739.2922    737.2438   -713.2438    -999.2500      71.8900    -999.2500    -999.2500
    739.4446    737.3906   -713.3906    -999.2500      83.1400    -999.2500    -999.2500
    739.5970    737.5373   -713.5373    -999.2500      74.1000    -999.2500    -999.2500
    739.7494    737.6840   -713.6840    -999.2500      85.1800    -999.2500    -999.2500
    739.9018    737.8308   -713.8308    -999.2500      83.3600    -999.2500    -999.2500
    740.0542    737.9773   -713.9773    -999.2500      78.2300    -999.2500    -999.2500
    740.2066    738.1233   -714.1233    -999.2500      68.2700    -999.2500    -999.2500
    740.3590    738.2693   -714.2693    -999.2500      74.7300    -999.2500    -999.2500
    740.5114    738.4153   -714.4153    -999.2500      83.2000    -999.2500    -999.2500
    740.6638    738.5613   -714.5613    -999.2500      76.0900    -999.2500    -999.2500
