#------------------------------------------------------------------------------
#
#   Created by  : [OpenWorks] Log Export Utility (LEXP)
#   Created on  : 2008-05-07 10:33:00
#   Project     : NORNE
#   User        : TRAL
#   Interpreter : TRAL
#
#------------------------------------------------------------------------------
~VERSION INFORMATION
VERS. 2.0 : CWLS Log ASCII Standard - version 2.0
WRAP.  NO : One line per depth step
~WELL INFORMATION
#MNEMONIC   .UNIT                                           VALUE :DESCRIPTION
#------------------------------------------------------------------------------
STRT        .M                                             0.1522 :START DEPTH
STOP        .M                                          4349.9531 :STOP DEPTH
STEP        .M                                             0.1524 :STEP
NULL        .                                           -999.2500 :NULL VALUE
COMP        .                                             STATOIL :COMPANY
WELL        .                                       6608/10-E-1 H :WELL
FLD         .                                               NORNE :FIELD
LOC         .                                             UNKNOWN :LOCATION
CNTY        .                                             UNKNOWN :COUNTY
STAT        .                                             UNKNOWN :STATE
CTRY        .                                              Norway :COUNTRY
SRVC        .                                             UNKNOWN :SERVICE COMPANY
DATE        .                                             UNKNOWN :LOG DATE
UWI         .                                    NO 6608/10-E-1 H :UNIQUE WELL ID
XCOORD      .                                       459204.301905 :SURFACE X
YCOORD      .                                      7325445.854798 :SURFACE Y
LAT         .                                           66.045371 :LATITUDE
LON         .                                            8.099572 :LONGITUDE
ELEV        .M                                            24.0000 :SURFACE ELEV
ELEV_TYPE   .                                                  KB :ELEV TYPE
~CURVE INFORMATION
#MNEMONIC.UNIT        API CODE       : CURVE DESCRIPTION
#------------------------------------------------------------------------------
DEPTH    .M                          : Measured Depth
TVD      .M                          : True Vertical Depth (TVD)
TVDSS    .M                          : True Vertical Depth (TVDSS)
DT-SYNT  .UNKNOWN     UNKNOWN        : DT-SYNT:PETROWORKS:rC:NONE:v1 
GR       .API         UNKNOWN        : GR:UNKNOWN:rC:NONE:v1 
PHIF     .v/v_decimal UNKNOWN        : PHIF:UNKNOWN:rC:NONE:v1 
RHOB     .g/cm3       UNKNOWN        : RHOB:UNKNOWN:rC:NONE:v1 
~A     DEPTH         TVD       TVDSS      DT-SYNT           GR         PHIF         RHOB
# ...
   1755.8002   1664.8552  -1640.8552    -999.2500     112.8100    -999.2500    -999.2500
   1755.9526   1664.9933  -1640.9933    -999.2500     110.5700    -999.2500    -999.2500
   1756.1050   1665.1311  -1641.1311    -999.2500     119.8400    -999.2500    -999.2500
   1756.2574   1665.2690  -1641.2690    -999.2500     123.7000    -999.2500    -999.2500
   1756.4098   1665.4069  -1641.4069    -999.2500     117.4400    -999.2500    -999.2500
   1756.5623   1665.5448  -1641.5448    -999.2500     104.2800    -999.2500    -999.2500
   1756.7146   1665.6827  -1641.6827    -999.2500     113.4300    -999.2500    -999.2500
   1756.8671   1665.8207  -1641.8207    -999.2500     111.6000    -999.2500    -999.2500
   1757.0194   1665.9585  -1641.9585    -999.2500     108.7800    -999.2500    -999.2500
   1757.1719   1666.0964  -1642.0964    -999.2500     119.8700    -999.2500    -999.2500
   1757.3242   1666.2344  -1642.2344    -999.2500     129.5000    -999.2500    -999.2500
   1757.4766   1666.3722  -1642.3722    -999.2500     126.7400    -999.2500    -999.2500
   1757.6290   1666.5101  -1642.5101    -999.2500     120.5000    -999.2500    -999.2500
   1757.7814   1666.6479  -1642.6479    -999.2500     117.9900    -999.2500    -999.2500
   1757.9338   1666.7859  -1642.7859    -999.2500     125.3000    -999.2500    -999.2500
   1758.0862   1666.9238  -1642.9238    -999.2500     126.9300    -999.2500    -999.2500
   1758.2386   1667.0618  -1643.0618    -999.2500     116.9100    -999.2500    -999.2500
   1758.3910   1667.1996  -1643.1996    -999.2500     115.4700    -999.2500    -999.2500
   1758.5435   1667.3375  -1643.3375    -999.2500     116.2600    -999.2500    -999.2500
   1758.6958   1667.4753  -1643.4753    -999.2500     113.1700    -999.2500    -999.2500
   1758.8483   1667.6134  -1643.6134    -999.2500     118.4400    -999.2500    -999.2500
   1759.0006   1667.7512  -1643.7512    -999.2500     120.7400    -999.2500    -999.2500
   1759.1531   1667.8892  -1643.8892    -999.2500     120.5700    -999.2500    -999.2500
   1759.3054   1668.0270  -1644.0270    -999.2500     120.5700    -999.2500    -999.2500
   1759.4578   1668.1649  -1644.1649    -999.2500     115.9400    -999.2500    -999.2500
   1759.6102   1668.3029  -1644.3029    -999.2500     111.6600    -999.2500    -999.2500
   1759.7626   1668.4407  -1644.4407    -999.2500     120.7400    -999.2500    -999.2500
   1759.9150   1668.5786  -1644.5786    -999.2500     112.2900    -999.2500    -999.2500
   1760.0674   1668.7166  -1644.7166    -999.2500     117.0500    -999.2500    -999.2500
   1760.2198   1668.8546  -1644.8546    -999.2500     125.1100    -999.2500    -999.2500
   1760.3722   1668.9924  -1644.9924    -999.2500     121.9600    -999.2500    -999.2500
   1760.5247   1669.1305  -1645.1305    -999.2500     122.8500    -999.2500    -999.2500
   1760.6770   1669.2684  -1645.2684    -999.2500     123.7400    -999.2500    -999.2500
   1760.8295   1669.4065  -1645.4065    -999.2500     124.6200    -999.2500    -999.2500
   1760.9818   1669.5444  -1645.5444    -999.2500     119.4500    -999.2500    -999.2500
   1761.1343   1669.6824  -1645.6824    -999.2500     111.0600    -999.2500    -999.2500
   1761.2866   1669.8203  -1645.8203    -999.2500     115.3400    -999.2500    -999.2500
   1761.4390   1669.9583  -1645.9583    -999.2500     119.2300    -999.2500    -999.2500
   1761.5914   1670.0963  -1646.0963    -999.2500     102.1600    -999.2500    -999.2500
   1761.7438   1670.2343  -1646.2343    -999.2500     102.7200    -999.2500    -999.2500
   1761.8962   1670.3723  -1646.3723    -999.2500     103.7100    -999.2500    -999.2500
   1762.0486   1670.5103  -1646.5103    -999.2500     109.9900    -999.2500    -999.2500
   1762.2010   1670.6482  -1646.6482    -999.2500     109.9900    -999.2500    -999.2500
   1762.3534   1670.7861  -1646.7861    -999.2500     106.8500    -999.2500    -999.2500
   1762.5059   1670.9242  -1646.9242    -999.2500     115.7300    -999.2500    -999.2500
   1762.6582   1671.0621  -1647.0621    -999.2500     120.4900    -999.2500    -999.2500
   1762.8107   1671.2002  -1647.2002    -999.2500      93.0800    -999.2500    -999.2500
   1762.9630   1671.3380  -1647.3380    -999.2500      95.3400    -999.2500    -999.2500
   1763.1155   1671.4761  -1647.4761    -999.2500     100.0400    -999.2500    -999.2500
   1763.2678   1671.6140  -1647.6140    -999.2500      94.7600    -999.2500    -999.2500
   1763.4202   1671.7520  -1647.7520    -999.2500      97.8500    -999.2500    -999.2500
   1763.5726   1671.8900  -1647.8900    -999.2500     112.8900    -999.2500    -999.2500
   1763.7250   1672.0280  -1648.0280    -999.2500     101.3600    -999.2500    -999.2500
   1763.8774   1672.1659  -1648.1659    -999.2500     108.5600    -999.2500    -999.2500
   1764.0298   1672.3038  -1648.3038    -999.2500     106.4000    -999.2500    -999.2500
   1764.1823   1672.4419  -1648.4419    -999.2500     103.6700    -999.2500    -999.2500
   1764.3346   1672.5798  -1648.5798    -999.2500     106.8500    -999.2500    -999.2500
   1764.4871   1672.7179  -1648.7179    -999.2500     106.8500    -999.2500    -999.2500
   1764.6394   1672.8558  -1648.8558    -999.2500      96.2200    -999.2500    -999.2500
   1764.7919   1672.9938  -1648.9938    -999.2500      95.9000    -999.2500    -999.2500
   1764.9442   1673.1317  -1649.1317    -999.2500      93.2100    -999.2500    -999.2500
   1765.0967   1673.2698  -1649.2698    -999.2500      93.2900    -999.2500    -999.2500
   1765.2490   1673.4077  -1649.4077    -999.2500     101.8300    -999.2500    -999.2500
   1765.4014   1673.5457  -1649.5457    -999.2500     108.4400    -999.2500    -999.2500
   1765.5538   1673.6837  -1649.6837    -999.2500     114.5000    -999.2500    -999.2500
   1765.7062   1673.8215  -1649.8215    -999.2500     130.9700    -999.2500    -999.2500
   1765.8586   1673.9596  -1649.9596    -999.2500     129.5700    -999.2500    -999.2500
   1766.0110   1674.0975  -1650.0975    -999.2500     129.7500    -999.2500    -999.2500
   1766.1635   1674.2356  -1650.2356    -999.2500     133.0000    -999.2500    -999.2500
   1766.3158   1674.3735  -1650.3735    -999.2500     139.1000    -999.2500    -999.2500
   1766.4683   1674.5116  -1650.5116    -999.2500     137.6600    -999.2500    -999.2500
   1766.6206   1674.6494  -1650.6494    -999.2500     135.9200    -999.2500    -999.2500
   1766.7731   1674.7875  -1650.7875    -999.2500     120.6100    -999.2500    -999.2500
   1766.9254   1674.9254  -1650.9254    -999.2500     119.7900    -999.2500    -999.2500
   1767.0778   1675.0634  -1651.0634    -999.2500     118.9800    -999.2500    -999.2500
   1767.2302   1675.2014  -1651.2014    -999.2500     114.2900    -999.2500    -999.2500
   1767.3826   1675.3394  -1651.3394    -999.2500     114.4200    -999.2500    -999.2500
   1767.5350   1675.4773  -1651.4773    -999.2500     107.5400    -999.2500    -999.2500
   1767.6874   1675.6152  -1651.6152    -999.2500     109.5300    -999.2500    -999.2500
   1767.8398   1675.7533  -1651.7533    -999.2500     114.6500    -999.2500    -999.2500
   1767.9922   1675.8912  -1651.8912    -999.2500     111.3800    -999.2500    -999.2500
   1768.1447   1676.0293  -1652.0293    -999.2500     111.5800    -999.2500    -999.2500
   1768.2970   1676.1672  -1652.1672    -999.2500     112.3100    -999.2500    -999.2500
   1768.4495   1676.3052  -1652.3052    -999.2500     114.5900    -999.2500    -999.2500
   1768.6018   1676.4431  -1652.4431    -999.2500     108.3100    -999.2500    -999.2500
   1768.7543   1676.5812  -1652.5812    -999.2500     115.7000    -999.2500    -999.2500
   1768.9066   1676.7191  -1652.7191    -999.2500     125.1300    -999.2500    -999.2500
   1769.0590   1676.8571  -1652.8571    -999.2500     123.5000    -999.2500    -999.2500
   1769.2114   1676.9950  -1652.9950    -999.2500     123.5000    -999.2500    -999.2500
   1769.3638   1677.1329  -1653.1329    -999.2500     115.9700    -999.2500    -999.2500
