#------------------------------------------------------------------------------
#
#   Created by  : [OpenWorks] Log Export Utility (LEXP)
#   Created on  : 2008-05-07 10:33:46
#   Project     : NORNE
#   User        : TRAL
#   Interpreter : TRAL
#
#------------------------------------------------------------------------------
~VERSION INFORMATION
VERS. 2.0 : CWLS Log ASCII Standard - version 2.0
WRAP.  NO : One line per depth step
~WELL INFORMATION
#MNEMONIC   .UNIT                                           VALUE :DESCRIPTION
#------------------------------------------------------------------------------
STRT        .M                                          1300.1244 :START DEPTH
STOP        .M                                          4299.9658 :STOP DEPTH
STEP        .M                                             0.1524 :STEP
NULL        .                                           -999.2500 :NULL VALUE
COMP        .                                             STATOIL :COMPANY
WELL        .                                       6608/10-B-1 H :WELL
FLD         .                                               NORNE :FIELD
LOC         .                                             UNKNOWN :LOCATION
CNTY        .                                             UNKNOWN :COUNTY
STAT        .                                             UNKNOWN :STATE
CTRY        .                                              Norway :COUNTRY
SRVC        .                                             UNKNOWN :SERVICE COMPANY
DATE        .                                             UNKNOWN :LOG DATE
UWI         .                                    NO 6608/10-B-1 H :UNIQUE WELL ID
XCOORD      .                                       457125.588297 :SURFACE X
YCOORD      .                                      7322128.215510 :SURFACE Y
LAT         .                                           66.015337 :LATITUDE
LON         .                                            8.054802 :LONGITUDE
ELEV        .M                                            22.0000 :SURFACE ELEV
ELEV_TYPE   .                                                  KB :ELEV TYPE
~CURVE INFORMATION
#MNEMONIC.UNIT        API CODE       : CURVE DESCRIPTION
#------------------------------------------------------------------------------
DEPTH    .M                          : Measured Depth
TVD      .M                          : True Vertical Depth (TVD)
TVDSS    .M                          : True Vertical Depth (TVDSS)
DT-SYNT  .UNKNOWN     UNKNOWN        : DT-SYNT:PETROWORKS:rC:NONE:v1 
GR       .API         UNKNOWN        : GR:UNKNOWN:r1:MAIN:v1 
PHIF     .v/v_decimal UNKNOWN        : PHIF:UNKNOWN:r1:MAIN:v1 
RHOB     .g/cm3       UNKNOWN        : RHOB:UNKNOWN:r1:MAIN:v1 
~A     DEPTH         TVD       TVDSS      DT-SYNT           GR         PHIF         RHOB
# ...
   3878.7324   2672.7488  -2650.7488     102.7303      40.4875       0.2608       2.1710
   3878.8848   2672.7461  -2650.7461     102.3147      44.1575       0.2555       2.1810
   3879.0371   2672.7434  -2650.7434     101.9406      43.9975       0.2507       2.1900
   3879.1897   2672.7407  -2650.7407     102.3562      43.6175       0.2560       2.1801
   3879.3420   2672.7380  -2650.7380     103.2291      43.6175       0.2671       2.1591
   3879.4944   2672.7354  -2650.7354     103.9773      42.9575       0.2766       2.1411
   3879.6467   2672.7327  -2650.7327     102.6888      42.4875       0.2602       2.1720
   3879.7991   2672.7300  -2650.7300     102.1484      41.5375       0.2533       2.1850
   3879.9517   2672.7273  -2650.7273     102.5225      39.6175       0.2581       2.1761
   3880.1040   2672.7249  -2650.7249     102.7719      39.6175       0.2613       2.1701
   3880.2563   2672.7222  -2650.7222     102.4394      40.5075       0.2571       2.1780
   3880.4087   2672.7195  -2650.7195     102.5641      42.0575       0.2586       2.1751
   3880.5613   2672.7168  -2650.7168     102.6056      41.8175       0.2591       2.1741
   3880.7136   2672.7141  -2650.7141     102.4394      42.1275       0.2570       2.1780
   3880.8660   2672.7114  -2650.7114     101.6081      40.1275       0.2465       2.1980
   3881.0183   2672.7087  -2650.7087     101.9822      38.4775       0.2512       2.1891
   3881.1709   2672.7061  -2650.7061     102.7719      41.8275       0.2612       2.1701
   3881.3232   2672.7034  -2650.7034     102.7719      44.2675       0.2613       2.1701
   3881.4756   2672.7007  -2650.7007     102.6056      43.2475       0.2591       2.1740
   3881.6279   2672.6982  -2650.6982     102.5225      41.5775       0.2581       2.1760
   3881.7803   2672.6956  -2650.6956     102.4809      41.8775       0.2575       2.1771
   3881.9329   2672.6929  -2650.6929     100.8183      43.1275       0.2363       2.2170
   3882.0852   2672.6902  -2650.6902     101.4002      43.3775       0.2437       2.2031
   3882.2375   2672.6875  -2650.6875     102.1900      42.4875       0.2538       2.1841
   3882.3899   2672.6848  -2650.6848     102.2731      43.6775       0.2549       2.1821
   3882.5425   2672.6821  -2650.6821     102.4394      46.3675       0.2570       2.1781
   3882.6948   2672.6794  -2650.6794     102.5225      45.8475       0.2581       2.1761
   3882.8472   2672.6768  -2650.6768     102.1484      45.8475       0.2533       2.1850
   3882.9995   2672.6743  -2650.6743     101.9822      47.7175       0.2512       2.1890
   3883.1521   2672.6716  -2650.6716     102.2731      43.9275       0.2549       2.1821
   3883.3044   2672.6689  -2650.6689     102.2731      40.9275       0.2549       2.1821
   3883.4568   2672.6663  -2650.6663     102.1069      42.8375       0.2528       2.1860
   3883.6091   2672.6636  -2650.6636     102.4809      45.0175       0.2575       2.1771
   3883.7615   2672.6609  -2650.6609     102.9381      44.2375       0.2634       2.1661
   3883.9141   2672.6582  -2650.6582     103.0628      43.7775       0.2650       2.1631
   3884.0664   2672.6555  -2650.6555     103.0213      45.0575       0.2645       2.1641
   3884.2188   2672.6528  -2650.6528     102.8966      45.0575       0.2629       2.1670
   3884.3711   2672.6501  -2650.6501     102.5641      45.0475       0.2586       2.1750
   3884.5237   2672.6477  -2650.6477     103.1460      45.0475       0.2660       2.1611
   3884.6760   2672.6450  -2650.6450     100.9015      47.1075       0.2375       2.2150
   3884.8284   2672.6423  -2650.6423     101.6496      47.1075       0.2470       2.1971
   3884.9807   2672.6396  -2650.6396     103.1044      45.4675       0.2655       2.1621
   3885.1333   2672.6370  -2650.6370     102.8550      42.6375       0.2624       2.1680
   3885.2856   2672.6343  -2650.6343     102.4809      40.9975       0.2576       2.1770
   3885.4380   2672.6316  -2650.6316     102.0653      40.9975       0.2523       2.1870
   3885.5903   2672.6289  -2650.6289     102.0237      46.3675       0.2518       2.1881
   3885.7427   2672.6262  -2650.6262     102.5225      46.5975       0.2581       2.1761
   3885.8953   2672.6235  -2650.6235     102.8135      46.0475       0.2618       2.1691
   3886.0476   2672.6211  -2650.6211     102.8135      44.4775       0.2618       2.1691
   3886.2000   2672.6184  -2650.6184     100.5690      42.6575       0.2333       2.2230
   3886.3523   2672.6157  -2650.6157     100.6105      40.2675       0.2338       2.2221
   3886.5049   2672.6130  -2650.6130     101.9406      40.6575       0.2507       2.1901
   3886.6572   2672.6104  -2650.6104     102.7719      43.2575       0.2613       2.1701
   3886.8096   2672.6077  -2650.6077     103.1460      44.0375       0.2661       2.1611
   3886.9619   2672.6050  -2650.6050     102.8966      45.1575       0.2629       2.1670
   3887.1145   2672.6023  -2650.6023     102.1900      45.9875       0.2539       2.1840
   3887.2668   2672.5996  -2650.5996     102.7719      46.6775       0.2613       2.1701
   3887.4192   2672.5972  -2650.5972     103.2291      45.8075       0.2672       2.1591
   3887.5715   2672.5945  -2650.5945     101.6496      45.0175       0.2471       2.1970
   3887.7239   2672.5918  -2650.5918     101.5665      45.5775       0.2460       2.1990
   3887.8765   2672.5891  -2650.5891     101.9406      46.3775       0.2507       2.1901
   3888.0288   2672.5864  -2650.5864     102.8966      46.2375       0.2629       2.1671
   3888.1812   2672.5837  -2650.5837     102.6888      44.9275       0.2603       2.1720
   3888.3335   2672.5811  -2650.5811     101.7328      43.9475       0.2481       2.1950
   3888.4861   2672.5784  -2650.5784     102.2731      48.5575       0.2550       2.1821
   3888.6384   2672.5757  -2650.5757     102.2315      50.4275       0.2545       2.1831
   3888.7908   2672.5730  -2650.5730     102.3147      49.0875       0.2555       2.1811
   3888.9431   2672.5706  -2650.5706     102.6472      45.7375       0.2598       2.1731
   3889.0957   2672.5679  -2650.5679     102.8550      44.2875       0.2624       2.1681
   3889.2480   2672.5652  -2650.5652     102.8135      44.3675       0.2619       2.1691
   3889.4004   2672.5625  -2650.5625     102.0653      44.5275       0.2524       2.1870
   3889.5527   2672.5598  -2650.5598     101.8575      45.4275       0.2497       2.1920
   3889.7051   2672.5571  -2650.5571     101.4418      44.9075       0.2444       2.2020
   3889.8577   2672.5544  -2650.5544     101.4002      45.0875       0.2439       2.2031
   3890.0100   2672.5518  -2650.5518     102.0237      46.1675       0.2519       2.1881
   3890.1624   2672.5491  -2650.5491     102.3562      49.7575       0.2561       2.1801
   3890.3147   2672.5464  -2650.5464     102.4809      48.0175       0.2577       2.1771
   3890.4673   2672.5439  -2650.5439     102.2731      37.7175       0.2551       2.1820
   3890.6196   2672.5413  -2650.5413     102.1484      36.2275       0.2535       2.1850
   3890.7720   2672.5386  -2650.5386     102.1069      42.7575       0.2530       2.1861
   3890.9243   2672.5359  -2650.5359     101.9822      45.0175       0.2514       2.1890
   3891.0769   2672.5332  -2650.5332     101.9406      45.0175       0.2508       2.1901
   3891.2292   2672.5305  -2650.5305     102.1069      45.3375       0.2529       2.1861
   3891.3816   2672.5278  -2650.5278     102.3147      45.3875       0.2556       2.1811
   3891.5339   2672.5251  -2650.5251     102.1900      44.8275       0.2540       2.1840
   3891.6863   2672.5225  -2650.5225     101.8575      44.2475       0.2498       2.1920
   3891.8389   2672.5200  -2650.5200     101.8990      43.7975       0.2503       2.1911
   3891.9912   2672.5173  -2650.5173     102.1900      44.0775       0.2541       2.1841
   3892.1436   2672.5146  -2650.5146     103.1044      44.3175       0.2657       2.1621
   3892.2959   2672.5120  -2650.5120     102.8550      46.7675       0.2626       2.1680
