#------------------------------------------------------------------------------
#
#   Created by  : [OpenWorks] Log Export Utility (LEXP)
#   Created on  : 2008-05-07 10:33:00
#   Project     : NORNE
#   User        : TRAL
#   Interpreter : TRAL
#
#------------------------------------------------------------------------------
~VERSION INFORMATION
VERS. 2.0 : CWLS Log ASCII Standard - version 2.0
WRAP.  NO : One line per depth step
~WELL INFORMATION
#MNEMONIC   .UNIT                                           VALUE :DESCRIPTION
#------------------------------------------------------------------------------
STRT        .M                                             0.1522 :START DEPTH
STOP        .M                                          4349.9531 :STOP DEPTH
STEP        .M                                             0.1524 :STEP
NULL        .                                           -999.2500 :NULL VALUE
COMP        .                                             STATOIL :COMPANY
WELL        .                                       6608/10-E-1 H :WELL
FLD         .                                               NORNE :FIELD
LOC         .                                             UNKNOWN :LOCATION
CNTY        .                                             UNKNOWN :COUNTY
STAT        .                                             UNKNOWN :STATE
CTRY        .                                              Norway :COUNTRY
SRVC        .                                             UNKNOWN :SERVICE COMPANY
DATE        .                                             UNKNOWN :LOG DATE
UWI         .                                    NO 6608/10-E-1 H :UNIQUE WELL ID
XCOORD      .                                       459204.301905 :SURFACE X
YCOORD      .                                      7325445.854798 :SURFACE Y
LAT         .                                           66.045371 :LATITUDE
LON         .                                            8.099572 :LONGITUDE
ELEV        .M                                            24.0000 :SURFACE ELEV
ELEV_TYPE   .                                                  KB :ELEV TYPE
~CURVE INFORMATION
#MNEMONIC.UNIT        API CODE       : CURVE DESCRIPTION
#------------------------------------------------------------------------------
DEPTH    .M                          : Measured Depth
TVD      .M                          : True Vertical Depth (TVD)
TVDSS    .M                          : True Vertical Depth (TVDSS)
DT-SYNT  .UNKNOWN     UNKNOWN        : DT-SYNT:PETROWORKS:rC:NONE:v1 
GR       .API         UNKNOWN        : GR:UNKNOWN:rC:NONE:v1 
PHIF     .v/v_decimal UNKNOWN        : PHIF:UNKNOWN:rC:NONE:v1 
RHOB     .g/cm3       UNKNOWN        : RHOB:UNKNOWN:rC:NONE:v1 
~A     DEPTH         TVD       TVDSS      DT-SYNT           GR         PHIF         RHOB
# ...
   1234.5922   1193.2936  -1169.2936    -999.2500      71.8700    -999.2500    -999.2500
   1234.7446   1193.4333  -1169.4333    -999.2500      77.3900    -999.2500    -999.2500
   1234.8970   1193.5731  -1169.5731    -999.2500      83.2900    -999.2500    -999.2500
   1235.0494   1193.7129  -1169.7129    -999.2500      76.7400    -999.2500    -999.2500
   1235.2018   1193.8527  -1169.8527    -999.2500      77.8800    -999.2500    -999.2500
   1235.3542   1193.9924  -1169.9924    -999.2500      74.6900    -999.2500    -999.2500
   1235.5066   1194.1322  -1170.1322    -999.2500      71.5000    -999.2500    -999.2500
   1235.6591   1194.2720  -1170.2720    -999.2500      71.0200    -999.2500    -999.2500
   1235.8114   1194.4117  -1170.4117    -999.2500      72.4400    -999.2500    -999.2500
   1235.9639   1194.5515  -1170.5515    -999.2500      66.0200    -999.2500    -999.2500
   1236.1162   1194.6913  -1170.6913    -999.2500      66.4500    -999.2500    -999.2500
   1236.2687   1194.8311  -1170.8311    -999.2500      67.6800    -999.2500    -999.2500
   1236.4210   1194.9708  -1170.9708    -999.2500      67.0500    -999.2500    -999.2500
   1236.5734   1195.1105  -1171.1105    -999.2500      67.1600    -999.2500    -999.2500
   1236.7258   1195.2504  -1171.2504    -999.2500      77.5500    -999.2500    -999.2500
   1236.8782   1195.3900  -1171.3900    -999.2500      64.8800    -999.2500    -999.2500
   1237.0306   1195.5299  -1171.5299    -999.2500      67.2000    -999.2500    -999.2500
   1237.1830   1195.6696  -1171.6696    -999.2500      71.9100    -999.2500    -999.2500
   1237.3354   1195.8094  -1171.8094    -999.2500      69.0700    -999.2500    -999.2500
   1237.4878   1195.9491  -1171.9491    -999.2500      69.9300    -999.2500    -999.2500
   1237.6403   1196.0890  -1172.0890    -999.2500      73.6100    -999.2500    -999.2500
   1237.7926   1196.2286  -1172.2286    -999.2500      78.9300    -999.2500    -999.2500
   1237.9451   1196.3685  -1172.3685    -999.2500      74.5500    -999.2500    -999.2500
   1238.0974   1196.5082  -1172.5082    -999.2500      70.1600    -999.2500    -999.2500
   1238.2499   1196.6481  -1172.6481    -999.2500      75.0400    -999.2500    -999.2500
   1238.4022   1196.7877  -1172.7877    -999.2500      77.0300    -999.2500    -999.2500
   1238.5546   1196.9275  -1172.9275    -999.2500      79.0300    -999.2500    -999.2500
   1238.7070   1197.0673  -1173.0673    -999.2500      69.2400    -999.2500    -999.2500
   1238.8594   1197.2070  -1173.2070    -999.2500      64.8800    -999.2500    -999.2500
   1239.0118   1197.3468  -1173.3468    -999.2500      83.1500    -999.2500    -999.2500
   1239.1642   1197.4866  -1173.4866    -999.2500      78.2700    -999.2500    -999.2500
   1239.3167   1197.6263  -1173.6263    -999.2500      69.1700    -999.2500    -999.2500
   1239.4690   1197.7661  -1173.7661    -999.2500      66.3800    -999.2500    -999.2500
   1239.6215   1197.9059  -1173.9059    -999.2500      66.3800    -999.2500    -999.2500
   1239.7738   1198.0457  -1174.0457    -999.2500      88.8400    -999.2500    -999.2500
   1239.9263   1198.1854  -1174.1854    -999.2500      79.3100    -999.2500    -999.2500
   1240.0786   1198.3252  -1174.3252    -999.2500      70.4900    -999.2500    -999.2500
   1240.2311   1198.4651  -1174.4651    -999.2500      74.7300    -999.2500    -999.2500
   1240.3834   1198.6049  -1174.6049    -999.2500      74.7300    -999.2500    -999.2500
   1240.5358   1198.7446  -1174.7446    -999.2500      73.3600    -999.2500    -999.2500
   1240.6882   1198.8845  -1174.8845    -999.2500      81.6900    -999.2500    -999.2500
   1240.8406   1199.0243  -1175.0243    -999.2500      92.9800    -999.2500    -999.2500
   1240.9930   1199.1642  -1175.1642    -999.2500      71.9200    -999.2500    -999.2500
   1241.1454   1199.3040  -1175.3040    -999.2500      71.9200    -999.2500    -999.2500
   1241.2979   1199.4438  -1175.4438    -999.2500      66.2700    -999.2500    -999.2500
   1241.4502   1199.5836  -1175.5836    -999.2500      66.2700    -999.2500    -999.2500
   1241.6027   1199.7235  -1175.7235    -999.2500      60.6100    -999.2500    -999.2500
   1241.7550   1199.8633  -1175.8633    -999.2500      60.6100    -999.2500    -999.2500
   1241.9075   1200.0032  -1176.0032    -999.2500      74.6600    -999.2500    -999.2500
   1242.0598   1200.1429  -1176.1429    -999.2500      73.9900    -999.2500    -999.2500
   1242.2122   1200.2827  -1176.2827    -999.2500      71.9100    -999.2500    -999.2500
   1242.3646   1200.4226  -1176.4226    -999.2500      73.9800    -999.2500    -999.2500
   1242.5170   1200.5624  -1176.5624    -999.2500      76.0600    -999.2500    -999.2500
   1242.6694   1200.7023  -1176.7023    -999.2500      73.0400    -999.2500    -999.2500
   1242.8218   1200.8420  -1176.8420    -999.2500      66.2700    -999.2500    -999.2500
   1242.9742   1200.9819  -1176.9819    -999.2500      64.7800    -999.2500    -999.2500
   1243.1266   1201.1217  -1177.1217    -999.2500      78.9300    -999.2500    -999.2500
   1243.2791   1201.2616  -1177.2616    -999.2500      78.9100    -999.2500    -999.2500
   1243.4314   1201.4014  -1177.4014    -999.2500      78.9000    -999.2500    -999.2500
   1243.5839   1201.5413  -1177.5413    -999.2500      87.4400    -999.2500    -999.2500
   1243.7362   1201.6810  -1177.6810    -999.2500      87.4400    -999.2500    -999.2500
   1243.8887   1201.8209  -1177.8209    -999.2500      60.6300    -999.2500    -999.2500
   1244.0410   1201.9607  -1177.9607    -999.2500      70.1000    -999.2500    -999.2500
   1244.1934   1202.1006  -1178.1006    -999.2500      74.8100    -999.2500    -999.2500
   1244.3458   1202.2405  -1178.2405    -999.2500      81.8000    -999.2500    -999.2500
   1244.4982   1202.3802  -1178.3802    -999.2500      81.0400    -999.2500    -999.2500
   1244.6506   1202.5201  -1178.5201    -999.2500      80.3000    -999.2500    -999.2500
   1244.8030   1202.6599  -1178.6599    -999.2500      67.7500    -999.2500    -999.2500
   1244.9554   1202.7998  -1178.7998    -999.2500      57.0800    -999.2500    -999.2500
   1245.1078   1202.9396  -1178.9396    -999.2500      66.7100    -999.2500    -999.2500
   1245.2603   1203.0795  -1179.0795    -999.2500      76.0600    -999.2500    -999.2500
   1245.4126   1203.2192  -1179.2192    -999.2500      95.8200    -999.2500    -999.2500
   1245.5651   1203.3591  -1179.3591    -999.2500      89.9600    -999.2500    -999.2500
   1245.7174   1203.4989  -1179.4989    -999.2500      68.9900    -999.2500    -999.2500
   1245.8699   1203.6388  -1179.6388    -999.2500      77.4800    -999.2500    -999.2500
   1246.0222   1203.7786  -1179.7786    -999.2500      77.4800    -999.2500    -999.2500
   1246.1746   1203.9183  -1179.9183    -999.2500      93.0500    -999.2500    -999.2500
   1246.3270   1204.0582  -1180.0582    -999.2500      93.0500    -999.2500    -999.2500
   1246.4794   1204.1980  -1180.1980    -999.2500      86.0400    -999.2500    -999.2500
   1246.6318   1204.3379  -1180.3379    -999.2500      86.0400    -999.2500    -999.2500
   1246.7842   1204.4777  -1180.4777    -999.2500      76.2300    -999.2500    -999.2500
   1246.9366   1204.6176  -1180.6176    -999.2500      76.2300    -999.2500    -999.2500
   1247.0890   1204.7573  -1180.7573    -999.2500      77.5300    -999.2500    -999.2500
   1247.2415   1204.8972  -1180.8972    -999.2500      77.5300    -999.2500    -999.2500
   1247.3938   1205.0370  -1181.0370    -999.2500      69.0700    -999.2500    -999.2500
   1247.5463   1205.1769  -1181.1769    -999.2500      70.9600    -999.2500    -999.2500
   1247.6986   1205.3167  -1181.3167    -999.2500      73.2900    -999.2500    -999.2500
   1247.8511   1205.4565  -1181.4565    -999.2500      81.7700    -999.2500    -999.2500
   1248.0034   1205.5963  -1181.5963    -999.2500      81.7700    -999.2500    -999.2500
   1248.1558   1205.7361  -1181.7361    -999.2500      75.4400    -999.2500    -999.2500
