#------------------------------------------------------------------------------
#
#   Created by  : [OpenWorks] Log Export Utility (LEXP)
#   Created on  : 2008-05-07 10:33:46
#   Project     : NORNE
#   User        : TRAL
#   Interpreter : TRAL
#
#------------------------------------------------------------------------------
~VERSION INFORMATION
VERS. 2.0 : CWLS Log ASCII Standard - version 2.0
WRAP.  NO : One line per depth step
~WELL INFORMATION
#MNEMONIC   .UNIT                                           VALUE :DESCRIPTION
#------------------------------------------------------------------------------
STRT        .M                                          1300.1244 :START DEPTH
STOP        .M                                          4299.9658 :STOP DEPTH
STEP        .M                                             0.1524 :STEP
NULL        .                                           -999.2500 :NULL VALUE
COMP        .                                             STATOIL :COMPANY
WELL        .                                       6608/10-B-1 H :WELL
FLD         .                                               NORNE :FIELD
LOC         .                                             UNKNOWN :LOCATION
CNTY        .                                             UNKNOWN :COUNTY
STAT        .                                             UNKNOWN :STATE
CTRY        .                                              Norway :COUNTRY
SRVC        .                                             UNKNOWN :SERVICE COMPANY
DATE        .                                             UNKNOWN :LOG DATE
UWI         .                                    NO 6608/10-B-1 H :UNIQUE WELL ID
XCOORD      .                                       457125.588297 :SURFACE X
YCOORD      .                                      7322128.215510 :SURFACE Y
LAT         .                                           66.015337 :LATITUDE
LON         .                                            8.054802 :LONGITUDE
ELEV        .M                                            22.0000 :SURFACE ELEV
ELEV_TYPE   .                                                  KB :ELEV TYPE
~CURVE INFORMATION
#MNEMONIC.UNIT        API CODE       : CURVE DESCRIPTION
#------------------------------------------------------------------------------
DEPTH    .M                          : Measured Depth
TVD      .M                          : True Vertical Depth (TVD)
TVDSS    .M                          : True Vertical Depth (TVDSS)
DT-SYNT  .UNKNOWN     UNKNOWN        : DT-SYNT:PETROWORKS:rC:NONE:v1 
GR       .API         UNKNOWN        : GR:UNKNOWN:r1:MAIN:v1 
PHIF     .v/v_decimal UNKNOWN        : PHIF:UNKNOWN:r1:MAIN:v1 
RHOB     .g/cm3       UNKNOWN        : RHOB:UNKNOWN:r1:MAIN:v1 
~A     DEPTH         TVD       TVDSS      DT-SYNT           GR         PHIF         RHOB
# ...
   2891.1804   2585.3777  -2563.3777    -999.2500      51.5905       0.0010       2.7841
   2891.3328   2585.4207  -2563.4207    -999.2500      49.8505       0.0010       2.7821
   2891.4851   2585.4639  -2563.4639    -999.2500      52.1005       0.0010       2.7821
   2891.6377   2585.5068  -2563.5068    -999.2500      53.0905       0.0010       2.7831
   2891.7900   2585.5498  -2563.5498    -999.2500      53.2605       0.0010       2.7861
   2891.9424   2585.5928  -2563.5928    -999.2500      51.5405       0.0010       2.7911
   2892.0947   2585.6360  -2563.6360    -999.2500      46.6505       0.0010       2.7941
   2892.2471   2585.6790  -2563.6790    -999.2500      53.8605       0.0010       2.7561
   2892.3997   2585.7219  -2563.7219    -999.2500      56.8105       0.0010       2.7181
   2892.5520   2585.7649  -2563.7649    -999.2500      51.0905       0.0010       2.7500
   2892.7043   2585.8079  -2563.8079    -999.2500      47.9405       0.0010       2.7740
   2892.8567   2585.8511  -2563.8511    -999.2500      52.3705       0.0010       2.7521
   2893.0093   2585.8940  -2563.8940    -999.2500      52.8905       0.0010       2.7601
   2893.1616   2585.9370  -2563.9370    -999.2500      49.5205       0.0010       2.7551
   2893.3140   2585.9800  -2563.9800    -999.2500      47.1505       0.0010       2.7700
   2893.4663   2586.0232  -2564.0232    -999.2500      45.6205       0.0010       2.7701
   2893.6189   2586.0662  -2564.0662    -999.2500      46.8905       0.0010       2.7761
   2893.7712   2586.1091  -2564.1091    -999.2500      48.3205       0.0010       2.7801
   2893.9236   2586.1521  -2564.1521    -999.2500      48.6305       0.0010       2.7911
   2894.0759   2586.1953  -2564.1953    -999.2500      45.1805       0.0010       2.7811
   2894.2283   2586.2383  -2564.2383    -999.2500      47.1505       0.0010       2.7791
   2894.3809   2586.2812  -2564.2812    -999.2500      49.4905       0.0010       2.7781
   2894.5332   2586.3242  -2564.3242    -999.2500      49.3005       0.0010       2.6952
   2894.6855   2586.3674  -2564.3674    -999.2500      50.6305       0.0718       2.5163
   2894.8379   2586.4104  -2564.4104    -999.2500      51.0905       0.1090       2.4242
   2894.9905   2586.4534  -2564.4534    -999.2500      49.1705       0.1145       2.4121
   2895.1428   2586.4963  -2564.4963    -999.2500      51.1205       0.1279       2.3781
   2895.2952   2586.5396  -2564.5396    -999.2500      53.0805       0.1285       2.3771
   2895.4475   2586.5825  -2564.5825    -999.2500      54.6105       0.1454       2.3351
   2895.6001   2586.6255  -2564.6255    -999.2500      59.6005       0.1499       2.3241
   2895.7524   2586.6685  -2564.6685    -999.2500      62.3805       0.1647       2.2871
   2895.9048   2586.7114  -2564.7114    -999.2500      59.6405       0.1679       2.2791
   2896.0571   2586.7546  -2564.7546    -999.2500      59.5805       0.1683       2.2781
   2896.2095   2586.7976  -2564.7976    -999.2500      60.5205       0.1674       2.2801
   2896.3621   2586.8406  -2564.8406    -999.2500      58.5005       0.1674       2.2801
   2896.5144   2586.8835  -2564.8835    -999.2500      58.1905       0.1749       2.2611
   2896.6667   2586.9268  -2564.9268    -999.2500      61.7205       0.1765       2.2571
   2896.8191   2586.9697  -2564.9697    -999.2500      62.5405       0.1832       2.2401
   2896.9717   2587.0127  -2565.0127    -999.2500      62.1005       0.1911       2.2201
   2897.1240   2587.0557  -2565.0557    -999.2500      61.5805       0.2021       2.1921
   2897.2764   2587.0989  -2565.0989    -999.2500      60.6505       0.2081       2.1771
   2897.4287   2587.1418  -2565.1418    -999.2500      60.0405       0.2049       2.1851
   2897.5813   2587.1848  -2565.1848    -999.2500      57.8005       0.2096       2.1731
   2897.7336   2587.2278  -2565.2278    -999.2500      57.6805       0.2075       2.1781
   2897.8860   2587.2710  -2565.2710    -999.2500      57.0105       0.2047       2.1851
   2898.0383   2587.3140  -2565.3140    -999.2500      57.4005       0.2055       2.1831
   2898.1907   2587.3569  -2565.3569    -999.2500      61.6705       0.1995       2.1980
   2898.3433   2587.3999  -2565.3999    -999.2500      62.3505       0.1975       2.2031
   2898.4956   2587.4431  -2565.4431    -999.2500      59.2205       0.1982       2.2011
   2898.6479   2587.4861  -2565.4861    -999.2500      56.5805       0.2015       2.1931
   2898.8003   2587.5291  -2565.5291    -999.2500      57.2705       0.2018       2.1921
   2898.9529   2587.5720  -2565.5720    -999.2500      60.6405       0.1995       2.1981
   2899.1052   2587.6150  -2565.6150    -999.2500      61.7805       0.2010       2.1941
   2899.2576   2587.6582  -2565.6582    -999.2500      57.9205       0.2034       2.1881
   2899.4099   2587.7012  -2565.7012    -999.2500      54.8905       0.1991       2.1991
   2899.5625   2587.7441  -2565.7441    -999.2500      59.3005       0.1967       2.2051
   2899.7148   2587.7871  -2565.7871    -999.2500      59.5205       0.2003       2.1961
   2899.8672   2587.8303  -2565.8303    -999.2500      54.8605       0.2023       2.1911
   2900.0195   2587.8733  -2565.8733    -999.2500      52.1305       0.2078       2.1771
   2900.1719   2587.9163  -2565.9163    -999.2500      57.7205       0.2138       2.1621
   2900.3245   2587.9592  -2565.9592    -999.2500      57.7205       0.2158       2.1571
   2900.4768   2588.0024  -2566.0024    -999.2500      58.5405       0.2174       2.1531
   2900.6292   2588.0454  -2566.0454    -999.2500      60.8105       0.2159       2.1571
   2900.7815   2588.0884  -2566.0884    -999.2500      64.4805       0.2175       2.1531
   2900.9341   2588.1313  -2566.1313    -999.2500      66.1305       0.2211       2.1441
   2901.0864   2588.1746  -2566.1746    -999.2500      62.7405       0.2247       2.1351
   2901.2388   2588.2175  -2566.2175    -999.2500      60.1605       0.2252       2.1341
   2901.3911   2588.2605  -2566.2605    -999.2500      54.9705       0.2268       2.1301
   2901.5437   2588.3035  -2566.3035    -999.2500      53.2905       0.2268       2.1301
   2901.6960   2588.3467  -2566.3467    -999.2500      57.4905       0.2249       2.1351
   2901.8484   2588.3896  -2566.3896    -999.2500      58.4705       0.2246       2.1361
   2902.0007   2588.4326  -2566.4326    -999.2500      68.8537       0.2371       2.1046
   2902.1531   2588.4717  -2566.4717    -999.2500      69.2437       0.2399       2.0976
   2902.3057   2588.5107  -2566.5107    -999.2500      68.9637       0.2407       2.0956
   2902.4580   2588.5498  -2566.5498    -999.2500      69.4637       0.2367       2.1056
   2902.6104   2588.5889  -2566.5889    -999.2500      69.7137       0.2394       2.0986
   2902.7627   2588.6279  -2566.6279    -999.2500      71.5137       0.2330       2.1146
   2902.9153   2588.6670  -2566.6670    -999.2500      73.3337       0.2338       2.1126
   2903.0676   2588.7061  -2566.7061    -999.2500      71.9937       0.2429       2.0897
   2903.2200   2588.7451  -2566.7451    -999.2500      71.5637       0.2406       2.0956
   2903.3723   2588.7842  -2566.7842    -999.2500      73.8937       0.2374       2.1036
   2903.5249   2588.8235  -2566.8235    -999.2500      71.1737       0.2346       2.1106
   2903.6772   2588.8625  -2566.8625    -999.2500      69.3637       0.2314       2.1186
   2903.8296   2588.9016  -2566.9016    -999.2500      73.8737       0.2287       2.1256
   2903.9819   2588.9407  -2566.9407    -999.2500      74.7437       0.2291       2.1246
   2904.1343   2588.9797  -2566.9797    -999.2500      68.8137       0.2306       2.1206
   2904.2869   2589.0188  -2567.0188    -999.2500      66.6437       0.2309       2.1196
   2904.4392   2589.0579  -2567.0579    -999.2500      68.4737       0.2321       2.1166
   2904.5916   2589.0969  -2567.0969    -999.2500      66.0137       0.2321       2.1166
   2904.7439   2589.1360  -2567.1360    -999.2500      64.7137       0.2313       2.1186
