#------------------------------------------------------------------------------
#
#   Created by  : [OpenWorks] Log Export Utility (LEXP)
#   Created on  : 2008-05-07 10:33:46
#   Project     : NORNE
#   User        : TRAL
#   Interpreter : TRAL
#
#------------------------------------------------------------------------------
~VERSION INFORMATION
VERS. 2.0 : CWLS Log ASCII Standard - version 2.0
WRAP.  NO : One line per depth step
~WELL INFORMATION
#MNEMONIC   .UNIT                                           VALUE :DESCRIPTION
#------------------------------------------------------------------------------
STRT        .M                                          1300.1244 :START DEPTH
STOP        .M                                          4299.9658 :STOP DEPTH
STEP        .M                                             0.1524 :STEP
NULL        .                                           -999.2500 :NULL VALUE
COMP        .                                             STATOIL :COMPANY
WELL        .                                       6608/10-B-1 H :WELL
FLD         .                                               NORNE :FIELD
LOC         .                                             UNKNOWN :LOCATION
CNTY        .                                             UNKNOWN :COUNTY
STAT        .                                             UNKNOWN :STATE
CTRY        .                                              Norway :COUNTRY
SRVC        .                                             UNKNOWN :SERVICE COMPANY
DATE        .                                             UNKNOWN :LOG DATE
UWI         .                                    NO 6608/10-B-1 H :UNIQUE WELL ID
XCOORD      .                                       457125.588297 :SURFACE X
YCOORD      .                                      7322128.215510 :SURFACE Y
LAT         .                                           66.015337 :LATITUDE
LON         .                                            8.054802 :LONGITUDE
ELEV        .M                                            22.0000 :SURFACE ELEV
ELEV_TYPE   .                                                  KB :ELEV TYPE
~CURVE INFORMATION
#MNEMONIC.UNIT        API CODE       : CURVE DESCRIPTION
#------------------------------------------------------------------------------
DEPTH    .M                          : Measured Depth
TVD      .M                          : True Vertical Depth (TVD)
TVDSS    .M                          : True Vertical Depth (TVDSS)
DT-SYNT  .UNKNOWN     UNKNOWN        : DT-SYNT:PETROWORKS:rC:NONE:v1 
GR       .API         UNKNOWN        : GR:UNKNOWN:r1:MAIN:v1 
PHIF     .v/v_decimal UNKNOWN        : PHIF:UNKNOWN:r1:MAIN:v1 
RHOB     .g/cm3       UNKNOWN        : RHOB:UNKNOWN:r1:MAIN:v1 
~A     DEPTH         TVD       TVDSS      DT-SYNT           GR         PHIF         RHOB
# ...
   2095.6523   2012.8290  -1990.8290    -999.2500      55.3932    -999.2500    -999.2500
   2095.8047   2012.9795  -1990.9795    -999.2500      61.5023    -999.2500    -999.2500
   2095.9573   2013.1304  -1991.1304    -999.2500      70.3662    -999.2500    -999.2500
   2096.1096   2013.2810  -1991.2810    -999.2500      70.3662    -999.2500    -999.2500
   2096.2620   2013.4315  -1991.4315    -999.2500      75.0232    -999.2500    -999.2500
   2096.4143   2013.5822  -1991.5822    -999.2500      78.6022    -999.2500    -999.2500
   2096.5669   2013.7329  -1991.7329    -999.2500      72.4992    -999.2500    -999.2500
   2096.7192   2013.8835  -1991.8835    -999.2500      64.6172    -999.2500    -999.2500
   2096.8716   2014.0342  -1992.0342    -999.2500      63.1542    -999.2500    -999.2500
   2097.0239   2014.1847  -1992.1847    -999.2500      62.4792    -999.2500    -999.2500
   2097.1763   2014.3353  -1992.3353    -999.2500      64.0362    -999.2500    -999.2500
   2097.3289   2014.4861  -1992.4861    -999.2500      66.8132    -999.2500    -999.2500
   2097.4812   2014.6367  -1992.6367    -999.2500      76.7952    -999.2500    -999.2500
   2097.6335   2014.7874  -1992.7874    -999.2500      76.7952    -999.2500    -999.2500
   2097.7859   2014.9379  -1992.9379    -999.2500      72.5452    -999.2500    -999.2500
   2097.9385   2015.0887  -1993.0887    -999.2500      57.5723    -999.2500    -999.2500
   2098.0908   2015.2393  -1993.2393    -999.2500      47.1542    -999.2500    -999.2500
   2098.2432   2015.3899  -1993.3899    -999.2500      55.8342    -999.2500    -999.2500
   2098.3955   2015.5405  -1993.5405    -999.2500      68.2522    -999.2500    -999.2500
   2098.5481   2015.6913  -1993.6913    -999.2500      68.2522    -999.2500    -999.2500
   2098.7004   2015.8419  -1993.8419    -999.2500      76.9472    -999.2500    -999.2500
   2098.8528   2015.9924  -1993.9924    -999.2500      76.9472    -999.2500    -999.2500
   2099.0051   2016.1431  -1994.1431    -999.2500      76.9472    -999.2500    -999.2500
   2099.1575   2016.2937  -1994.2937    -999.2500     101.6142    -999.2500    -999.2500
   2099.3101   2016.4445  -1994.4445    -999.2500     101.6142    -999.2500    -999.2500
   2099.4624   2016.5951  -1994.5951    -999.2500     101.6142    -999.2500    -999.2500
   2099.6147   2016.7456  -1994.7456    -999.2500      81.7942    -999.2500    -999.2500
   2099.7671   2016.8962  -1994.8962    -999.2500      61.9753    -999.2500    -999.2500
   2099.9197   2017.0471  -1995.0471    -999.2500      61.9753    -999.2500    -999.2500
   2100.0720   2017.1978  -1995.1978    -999.2500      61.9753    -999.2500    -999.2500
   2100.2244   2017.3485  -1995.3485    -999.2500      81.2122    -999.2500    -999.2500
   2100.3767   2017.4991  -1995.4991    -999.2500      81.2122    -999.2500    -999.2500
   2100.5293   2017.6501  -1995.6501    -999.2500      81.2122    -999.2500    -999.2500
   2100.6816   2017.8009  -1995.8009    -999.2500      83.8262    -999.2500    -999.2500
   2100.8340   2017.9517  -1995.9517    -999.2500      86.4392    -999.2500    -999.2500
   2100.9863   2018.1024  -1996.1024    -999.2500      86.4392    -999.2500    -999.2500
   2101.1387   2018.2532  -1996.2532    -999.2500      86.4392    -999.2500    -999.2500
   2101.2913   2018.4042  -1996.4042    -999.2500      78.5042    -999.2500    -999.2500
   2101.4436   2018.5548  -1996.5548    -999.2500      78.5042    -999.2500    -999.2500
   2101.5959   2018.7056  -1996.7056    -999.2500      78.5042    -999.2500    -999.2500
   2101.7483   2018.8563  -1996.8563    -999.2500      78.5042    -999.2500    -999.2500
   2101.9009   2019.0073  -1997.0073    -999.2500      84.6802    -999.2500    -999.2500
   2102.0532   2019.1581  -1997.1581    -999.2500      84.6802    -999.2500    -999.2500
   2102.2056   2019.3088  -1997.3088    -999.2500      84.6802    -999.2500    -999.2500
   2102.3579   2019.4596  -1997.4596    -999.2500      84.6802    -999.2500    -999.2500
   2102.5105   2019.6105  -1997.6105    -999.2500      70.6152    -999.2500    -999.2500
   2102.6628   2019.7612  -1997.7612    -999.2500      63.5822    -999.2500    -999.2500
   2102.8152   2019.9120  -1997.9120    -999.2500      63.5822    -999.2500    -999.2500
   2102.9675   2020.0627  -1998.0627    -999.2500      63.5163    -999.2500    -999.2500
   2103.1199   2020.2135  -1998.2135    -999.2500      63.3292    -999.2500    -999.2500
   2103.2725   2020.3645  -1998.3645    -999.2500      63.3292    -999.2500    -999.2500
   2103.4248   2020.5151  -1998.5151    -999.2500      87.8942    -999.2500    -999.2500
   2103.5771   2020.6659  -1998.6659    -999.2500      87.8942    -999.2500    -999.2500
   2103.7295   2020.8167  -1998.8167    -999.2500      87.8942    -999.2500    -999.2500
   2103.8821   2020.9677  -1998.9677    -999.2500      68.5052    -999.2500    -999.2500
   2104.0344   2021.1184  -1999.1184    -999.2500      68.5052    -999.2500    -999.2500
   2104.1868   2021.2692  -1999.2692    -999.2500      66.8662    -999.2500    -999.2500
   2104.3391   2021.4199  -1999.4199    -999.2500      65.1892    -999.2500    -999.2500
   2104.4917   2021.5708  -1999.5708    -999.2500      65.1892    -999.2500    -999.2500
   2104.6440   2021.7216  -1999.7216    -999.2500      65.3222    -999.2500    -999.2500
   2104.7964   2021.8723  -1999.8723    -999.2500      65.4422    -999.2500    -999.2500
   2104.9487   2022.0231  -2000.0231    -999.2500      65.4422    -999.2500    -999.2500
   2105.1011   2022.1738  -2000.1738    -999.2500      42.7952    -999.2500    -999.2500
   2105.2537   2022.3248  -2000.3248    -999.2500      42.5232    -999.2500    -999.2500
   2105.4060   2022.4755  -2000.4755    -999.2500      52.3732    -999.2500    -999.2500
   2105.5583   2022.6262  -2000.6262    -999.2500      49.7072    -999.2500    -999.2500
   2105.7107   2022.7770  -2000.7770    -999.2500      41.2122    -999.2500    -999.2500
   2105.8633   2022.9280  -2000.9280    -999.2500      42.7432    -999.2500    -999.2500
   2106.0156   2023.0787  -2001.0787    -999.2500      52.4053    -999.2500    -999.2500
   2106.1680   2023.2295  -2001.2295    -999.2500      54.0882    -999.2500    -999.2500
   2106.3203   2023.3802  -2001.3802    -999.2500      53.1872    -999.2500    -999.2500
   2106.4729   2023.5311  -2001.5311    -999.2500      48.2232    -999.2500    -999.2500
   2106.6252   2023.6819  -2001.6819    -999.2500      29.9822    -999.2500    -999.2500
   2106.7776   2023.8326  -2001.8326    -999.2500      23.7842    -999.2500    -999.2500
   2106.9299   2023.9834  -2001.9834    -999.2500      24.8302    -999.2500    -999.2500
   2107.0823   2024.1342  -2002.1342    -999.2500      34.8752    -999.2500    -999.2500
   2107.2349   2024.2852  -2002.2852    -999.2500      32.6672    -999.2500    -999.2500
   2107.3872   2024.4358  -2002.4358    -999.2500      28.1892    -999.2500    -999.2500
   2107.5396   2024.5865  -2002.5865    -999.2500      36.8442    -999.2500    -999.2500
   2107.6919   2024.7373  -2002.7373    -999.2500      45.3722    -999.2500    -999.2500
   2107.8445   2024.8883  -2002.8883    -999.2500      44.5583    -999.2500    -999.2500
   2107.9968   2025.0391  -2003.0391    -999.2500      52.5822    -999.2500    -999.2500
   2108.1492   2025.1898  -2003.1898    -999.2500      55.2422    -999.2500    -999.2500
   2108.3015   2025.3406  -2003.3406    -999.2500      48.8002    -999.2500    -999.2500
   2108.4541   2025.4915  -2003.4915    -999.2500      50.5023    -999.2500    -999.2500
   2108.6064   2025.6422  -2003.6422    -999.2500      56.0312    -999.2500    -999.2500
   2108.7588   2025.7930  -2003.7930    -999.2500      57.4613    -999.2500    -999.2500
   2108.9111   2025.9437  -2003.9437    -999.2500      57.0382    -999.2500    -999.2500
   2109.0635   2026.0945  -2004.0945    -999.2500      59.6372    -999.2500    -999.2500
   2109.2161   2026.2455  -2004.2455    -999.2500      59.2092    -999.2500    -999.2500
