#------------------------------------------------------------------------------
#
#   Created by  : [OpenWorks] Log Export Utility (LEXP)
#   Created on  : 2008-05-07 10:33:46
#   Project     : NORNE
#   User        : TRAL
#   Interpreter : TRAL
#
#------------------------------------------------------------------------------
~VERSION INFORMATION
VERS. 2.0 : CWLS Log ASCII Standard - version 2.0
WRAP.  NO : One line per depth step
~WELL INFORMATION
#MNEMONIC   .UNIT                                           VALUE :DESCRIPTION
#------------------------------------------------------------------------------
STRT        .M                                          1300.1244 :START DEPTH
STOP        .M                                          4299.9658 :STOP DEPTH
STEP        .M                                             0.1524 :STEP
NULL        .                                           -999.2500 :NULL VALUE
COMP        .                                             STATOIL :COMPANY
WELL        .                                       6608/10-B-1 H :WELL
FLD         .                                               NORNE :FIELD
LOC         .                                             UNKNOWN :LOCATION
CNTY        .                                             UNKNOWN :COUNTY
STAT        .                                             UNKNOWN :STATE
CTRY        .                                              Norway :COUNTRY
SRVC        .                                             UNKNOWN :SERVICE COMPANY
DATE        .                                             UNKNOWN :LOG DATE
UWI         .                                    NO 6608/10-B-1 H :UNIQUE WELL ID
XCOORD      .                                       457125.588297 :SURFACE X
YCOORD      .                                      7322128.215510 :SURFACE Y
LAT         .                                           66.015337 :LATITUDE
LON         .                                            8.054802 :LONGITUDE
ELEV        .M                                            22.0000 :SURFACE ELEV
ELEV_TYPE   .                                                  KB :ELEV TYPE
~CURVE INFORMATION
#MNEMONIC.UNIT        API CODE       : CURVE DESCRIPTION
#------------------------------------------------------------------------------
DEPTH    .M                          : Measured Depth
TVD      .M                          : True Vertical Depth (TVD)
TVDSS    .M                          : True Vertical Depth (TVDSS)
DT-SYNT  .UNKNOWN     UNKNOWN        : DT-SYNT:PETROWORKS:rC:NONE:v1 
GR       .API         UNKNOWN        : GR:UNKNOWN:r1:MAIN:v1 
PHIF     .v/v_decimal UNKNOWN        : PHIF:UNKNOWN:r1:MAIN:v1 
RHOB     .g/cm3       UNKNOWN        : RHOB:UNKNOWN:r1:MAIN:v1 
~A     DEPTH         TVD       TVDSS      DT-SYNT           GR         PHIF         RHOB
# ...
   3288.9443   2639.9526  -2617.9526     103.3538      46.3875       0.2750       2.1507
   3289.0967   2639.9487  -2617.9487     103.2291      45.6275       0.2734       2.1537
   3289.2493   2639.9448  -2617.9448     103.2291      45.6475       0.2734       2.1537
   3289.4016   2639.9412  -2617.9412     102.7303      42.8775       0.2672       2.1656
   3289.5540   2639.9373  -2617.9373     102.9797      43.4675       0.2703       2.1597
   3289.7063   2639.9333  -2617.9333     102.8135      43.6975       0.2682       2.1637
   3289.8589   2639.9294  -2617.9294     103.6032      43.6075       0.2781       2.1447
   3290.0112   2639.9255  -2617.9255     103.5201      43.2275       0.2771       2.1467
   3290.1636   2639.9219  -2617.9219     103.8526      40.8575       0.2813       2.1387
   3290.3159   2639.9180  -2617.9180     103.4785      38.0675       0.2766       2.1476
   3290.4685   2639.9141  -2617.9141     103.0213      41.5875       0.2708       2.1586
   3290.6208   2639.9102  -2617.9102     102.7719      46.9475       0.2677       2.1647
   3290.7732   2639.9062  -2617.9062     102.9381      47.0475       0.2698       2.1607
   3290.9255   2639.9026  -2617.9026     103.3122      44.0675       0.2745       2.1517
   3291.0779   2639.8987  -2617.8987     103.9773      43.5975       0.2828       2.1357
   3291.2305   2639.8948  -2617.8948     103.5201      42.1575       0.2771       2.1466
   3291.3828   2639.8909  -2617.8909     103.4369      41.0875       0.2760       2.1487
   3291.5352   2639.8870  -2617.8870     104.1435      42.0675       0.2849       2.1317
   3291.6875   2639.8833  -2617.8833     104.1435      45.2375       0.2849       2.1317
   3291.8401   2639.8794  -2617.8794     104.4345      44.4775       0.2886       2.1247
   3291.9924   2639.8755  -2617.8755     104.1851      40.9675       0.2855       2.1307
   3292.1448   2639.8716  -2617.8716     103.8526      39.3975       0.2813       2.1386
   3292.2971   2639.8677  -2617.8677     104.0604      45.0275       0.2839       2.1337
   3292.4497   2639.8640  -2617.8640     103.7279      47.3775       0.2797       2.1416
   3292.6021   2639.8601  -2617.8601     103.6032      50.1275       0.2781       2.1447
   3292.7544   2639.8562  -2617.8562     103.8941      44.4075       0.2818       2.1377
   3292.9067   2639.8523  -2617.8523     104.1435      43.8075       0.2849       2.1317
   3293.0591   2639.8484  -2617.8484     103.5616      43.4775       0.2776       2.1456
   3293.2117   2639.8447  -2617.8447     103.8941      45.0775       0.2818       2.1377
   3293.3640   2639.8408  -2617.8408     104.0188      45.5675       0.2834       2.1347
   3293.5164   2639.8369  -2617.8369     103.9357      43.6275       0.2824       2.1367
   3293.6687   2639.8330  -2617.8330     103.7279      46.4975       0.2797       2.1417
   3293.8213   2639.8291  -2617.8291     103.5201      48.0875       0.2771       2.1467
   3293.9736   2639.8254  -2617.8254     103.9357      47.1275       0.2824       2.1367
   3294.1260   2639.8215  -2617.8215     104.0604      46.7675       0.2839       2.1337
   3294.2783   2639.8176  -2617.8176     103.6032      46.3375       0.2782       2.1446
   3294.4309   2639.8137  -2617.8137     103.0213      46.4475       0.2708       2.1586
   3294.5833   2639.8098  -2617.8098     103.1875      46.9975       0.2729       2.1547
   3294.7356   2639.8062  -2617.8062     103.1044      47.0675       0.2719       2.1567
   3294.8879   2639.8022  -2617.8022     102.6888      42.9575       0.2667       2.1666
   3295.0403   2639.7983  -2617.7983     103.1875      38.2675       0.2730       2.1547
   3295.1929   2639.7944  -2617.7944     103.4369      38.6575       0.2761       2.1487
   3295.3452   2639.7905  -2617.7905     102.7719      41.3375       0.2677       2.1646
   3295.4976   2639.7869  -2617.7869     102.6888      44.7675       0.2667       2.1667
   3295.6499   2639.7830  -2617.7830     102.3978      46.8375       0.2630       2.1737
   3295.8025   2639.7791  -2617.7791     102.6056      45.7875       0.2656       2.1687
   3295.9548   2639.7751  -2617.7751     102.6888      44.3975       0.2667       2.1667
   3296.1072   2639.7712  -2617.7712     103.6863      44.3975       0.2792       2.1427
   3296.2595   2639.7676  -2617.7676     103.8110      40.9975       0.2808       2.1397
   3296.4121   2639.7637  -2617.7637     103.6863      37.5975       0.2793       2.1427
   3296.5645   2639.7598  -2617.7598     103.6863      37.9175       0.2793       2.1427
   3296.7168   2639.7559  -2617.7559     103.4785      39.5975       0.2766       2.1477
   3296.8691   2639.7522  -2617.7522     103.6032      43.0175       0.2782       2.1447
   3297.0215   2639.7483  -2617.7483     103.5616      43.4575       0.2777       2.1457
   3297.1741   2639.7444  -2617.7444     103.8941      40.4275       0.2819       2.1377
   3297.3264   2639.7405  -2617.7405     103.6447      40.0675       0.2787       2.1437
   3297.4788   2639.7366  -2617.7366     103.0628      40.5416       0.2714       2.1576
   3297.6311   2639.7329  -2617.7329     103.3538      41.0164       0.2750       2.1507
   3297.7837   2639.7290  -2617.7290     103.5616      41.4905       0.2777       2.1457
   3297.9360   2639.7251  -2617.7251     102.7719      41.9645       0.2677       2.1646
   3298.0884   2639.7212  -2617.7212     102.7719      42.4386       0.2677       2.1647
   3298.2407   2639.7173  -2617.7173     103.1875      42.9127       0.2729       2.1547
   3298.3933   2639.7136  -2617.7136     103.5616      43.3875       0.2777       2.1457
   3298.5457   2639.7097  -2617.7097     103.7694      43.3875       0.2803       2.1407
   3298.6980   2639.7058  -2617.7058     102.4809      41.8675       0.2641       2.1716
   3298.8503   2639.7019  -2617.7019     103.3122      41.1975       0.2745       2.1517
   3299.0027   2639.6980  -2617.6980     103.9357      40.7575       0.2824       2.1367
   3299.1553   2639.6943  -2617.6943     103.8526      42.0075       0.2813       2.1387
   3299.3076   2639.6904  -2617.6904     103.6447      40.5875       0.2787       2.1437
   3299.4600   2639.6865  -2617.6865     103.6032      41.8775       0.2782       2.1447
   3299.6123   2639.6826  -2617.6826     103.4369      42.4475       0.2761       2.1487
   3299.7649   2639.6787  -2617.6787     103.4369      44.9075       0.2761       2.1487
   3299.9172   2639.6750  -2617.6750     102.9797      44.0175       0.2703       2.1596
   3300.0696   2639.6704  -2617.6704     102.9381      42.4675       0.2698       2.1607
   3300.2219   2639.6650  -2617.6650     103.8110      42.5275       0.2808       2.1397
   3300.3745   2639.6597  -2617.6597     103.7694      42.8875       0.2803       2.1407
   3300.5269   2639.6545  -2617.6545     103.8526      43.4575       0.2813       2.1387
   3300.6792   2639.6492  -2617.6492     103.9357      44.9875       0.2823       2.1367
   3300.8315   2639.6438  -2617.6438     104.0604      44.9875       0.2839       2.1337
   3300.9839   2639.6384  -2617.6384     104.1435      44.9875       0.2850       2.1317
   3301.1365   2639.6333  -2617.6333     104.2682      41.2875       0.2865       2.1287
   3301.2888   2639.6279  -2617.6279     104.3098      37.5875       0.2871       2.1277
   3301.4412   2639.6226  -2617.6226     104.3098      37.5875       0.2871       2.1277
   3301.5935   2639.6172  -2617.6172     104.2682      37.5875       0.2865       2.1287
   3301.7461   2639.6118  -2617.6118     104.2266      37.5875       0.2860       2.1297
   3301.8984   2639.6067  -2617.6067     104.2266      37.5887       0.2860       2.1297
   3302.0508   2639.6013  -2617.6013     103.1044      37.5899       0.2719       2.1566
   3302.2031   2639.5959  -2617.5959     102.7303      37.5911       0.2672       2.1656
   3302.3555   2639.5906  -2617.5906     102.9797      37.5923       0.2703       2.1597
   3302.5081   2639.5852  -2617.5852     103.2707      37.5935       0.2740       2.1527
