#------------------------------------------------------------------------------
#
#   Created by  : [OpenWorks] Log Export Utility (LEXP)
#   Created on  : 2008-05-07 10:33:00
#   Project     : NORNE
#   User        : TRAL
#   Interpreter : TRAL
#
#------------------------------------------------------------------------------
~VERSION INFORMATION
VERS. 2.0 : CWLS Log ASCII Standard - version 2.0
WRAP.  NO : One line per depth step
~WELL INFORMATION
#MNEMONIC   .UNIT                                           VALUE :DESCRIPTION
#------------------------------------------------------------------------------
STRT        .M                                             0.1522 :START DEPTH
STOP        .M                                          4349.9531 :STOP DEPTH
STEP        .M                                             0.1524 :STEP
NULL        .                                           -999.2500 :NULL VALUE
COMP        .                                             STATOIL :COMPANY
WELL        .                                       6608/10-E-1 H :WELL
FLD         .                                               NORNE :FIELD
LOC         .                                             UNKNOWN :LOCATION
CNTY        .                                             UNKNOWN :COUNTY
STAT        .                                             UNKNOWN :STATE
CTRY        .                                              Norway :COUNTRY
SRVC        .                                             UNKNOWN :SERVICE COMPANY
DATE        .                                             UNKNOWN :LOG DATE
UWI         .                                    NO 6608/10-E-1 H :UNIQUE WELL ID
XCOORD      .                                       459204.301905 :SURFACE X
YCOORD      .                                      7325445.854798 :SURFACE Y
LAT         .                                           66.045371 :LATITUDE
LON         .                                            8.099572 :LONGITUDE
ELEV        .M                                            24.0000 :SURFACE ELEV
ELEV_TYPE   .                                                  KB :ELEV TYPE
~CURVE INFORMATION
#MNEMONIC.UNIT        API CODE       : CURVE DESCRIPTION
#------------------------------------------------------------------------------
DEPTH    .M                          : Measured Depth
TVD      .M                          : True Vertical Depth (TVD)
TVDSS    .M                          : True Vertical Depth (TVDSS)
DT-SYNT  .UNKNOWN     UNKNOWN        : DT-SYNT:PETROWORKS:rC:NONE:v1 
GR       .API         UNKNOWN        : GR:UNKNOWN:rC:NONE:v1 
PHIF     .v/v_decimal UNKNOWN        : PHIF:UNKNOWN:rC:NONE:v1 
RHOB     .g/cm3       UNKNOWN        : RHOB:UNKNOWN:rC:NONE:v1 
~A     DEPTH         TVD       TVDSS      DT-SYNT           GR         PHIF         RHOB
# ...
    987.7042    967.6584   -943.6584    -999.2500      71.8400    -999.2500    -999.2500
    987.8566    967.7979   -943.7979    -999.2500      71.8400    -999.2500    -999.2500
    988.0090    967.9372   -943.9372    -999.2500      73.9800    -999.2500    -999.2500
    988.1614    968.0766   -944.0766    -999.2500      76.1300    -999.2500    -999.2500
    988.3138    968.2160   -944.2160    -999.2500      76.1300    -999.2500    -999.2500
    988.4662    968.3554   -944.3554    -999.2500      77.5700    -999.2500    -999.2500
    988.6186    968.4948   -944.4948    -999.2500      79.0200    -999.2500    -999.2500
    988.7710    968.6342   -944.6342    -999.2500      79.0200    -999.2500    -999.2500
    988.9234    968.7736   -944.7736    -999.2500      73.3400    -999.2500    -999.2500
    989.0758    968.9129   -944.9129    -999.2500      73.3400    -999.2500    -999.2500
    989.2282    969.0523   -945.0523    -999.2500      87.4800    -999.2500    -999.2500
    989.3806    969.1917   -945.1917    -999.2500      88.4900    -999.2500    -999.2500
    989.5330    969.3311   -945.3311    -999.2500      90.2300    -999.2500    -999.2500
    989.6854    969.4705   -945.4705    -999.2500      78.8800    -999.2500    -999.2500
    989.8378    969.6099   -945.6099    -999.2500      77.8400    -999.2500    -999.2500
    989.9902    969.7493   -945.7493    -999.2500      74.6900    -999.2500    -999.2500
    990.1426    969.8889   -945.8889    -999.2500      88.7800    -999.2500    -999.2500
    990.2950    970.0284   -946.0284    -999.2500      88.7800    -999.2500    -999.2500
    990.4474    970.1680   -946.1680    -999.2500      88.7800    -999.2500    -999.2500
    990.5998    970.3076   -946.3076    -999.2500      88.7800    -999.2500    -999.2500
    990.7522    970.4471   -946.4471    -999.2500      81.0300    -999.2500    -999.2500
    990.9046    970.5867   -946.5867    -999.2500      69.0700    -999.2500    -999.2500
    991.0570    970.7263   -946.7263    -999.2500      69.0500    -999.2500    -999.2500
    991.2094    970.8658   -946.8658    -999.2500      69.0500    -999.2500    -999.2500
    991.3618    971.0054   -947.0054    -999.2500      74.7800    -999.2500    -999.2500
    991.5142    971.1450   -947.1450    -999.2500      74.7800    -999.2500    -999.2500
    991.6666    971.2845   -947.2845    -999.2500      93.0500    -999.2500    -999.2500
    991.8190    971.4241   -947.4241    -999.2500      93.0500    -999.2500    -999.2500
    991.9714    971.5637   -947.5637    -999.2500      84.7100    -999.2500    -999.2500
    992.1238    971.7032   -947.7032    -999.2500      84.7100    -999.2500    -999.2500
    992.2762    971.8428   -947.8428    -999.2500      74.7300    -999.2500    -999.2500
    992.4286    971.9824   -947.9824    -999.2500      74.7300    -999.2500    -999.2500
    992.5810    972.1219   -948.1219    -999.2500      70.5400    -999.2500    -999.2500
    992.7334    972.2615   -948.2615    -999.2500      70.5400    -999.2500    -999.2500
    992.8858    972.4011   -948.4011    -999.2500      74.0800    -999.2500    -999.2500
    993.0382    972.5406   -948.5406    -999.2500      77.6100    -999.2500    -999.2500
    993.1906    972.6802   -948.6802    -999.2500      77.6100    -999.2500    -999.2500
    993.3430    972.8198   -948.8198    -999.2500      56.3700    -999.2500    -999.2500
    993.4954    972.9594   -948.9594    -999.2500      56.3700    -999.2500    -999.2500
    993.6478    973.0989   -949.0989    -999.2500      70.5200    -999.2500    -999.2500
    993.8002    973.2385   -949.2385    -999.2500      70.5200    -999.2500    -999.2500
    993.9526    973.3781   -949.3781    -999.2500      67.6200    -999.2500    -999.2500
    994.1050    973.5176   -949.5176    -999.2500      67.6200    -999.2500    -999.2500
    994.2574    973.6572   -949.6572    -999.2500      80.4000    -999.2500    -999.2500
    994.4098    973.7968   -949.7968    -999.2500      80.4000    -999.2500    -999.2500
    994.5622    973.9363   -949.9363    -999.2500      88.8400    -999.2500    -999.2500
    994.7146    974.0759   -950.0759    -999.2500      88.8400    -999.2500    -999.2500
    994.8670    974.2155   -950.2155    -999.2500      85.9700    -999.2500    -999.2500
    995.0194    974.3550   -950.3550    -999.2500      85.9700    -999.2500    -999.2500
    995.1718    974.4946   -950.4946    -999.2500      56.3400    -999.2500    -999.2500
    995.3242    974.6342   -950.6342    -999.2500      65.2700    -999.2500    -999.2500
    995.4766    974.7737   -950.7737    -999.2500      76.1300    -999.2500    -999.2500
    995.6290    974.9133   -950.9133    -999.2500      73.2700    -999.2500    -999.2500
    995.7814    975.0529   -951.0529    -999.2500      73.2700    -999.2500    -999.2500
    995.9338    975.1924   -951.1924    -999.2500      77.5500    -999.2500    -999.2500
    996.0862    975.3320   -951.3320    -999.2500      76.5700    -999.2500    -999.2500
    996.2386    975.4716   -951.4716    -999.2500      76.1800    -999.2500    -999.2500
    996.3910    975.6111   -951.6111    -999.2500      70.5500    -999.2500    -999.2500
    996.5434    975.7507   -951.7507    -999.2500      62.7300    -999.2500    -999.2500
    996.6958    975.8903   -951.8903    -999.2500      59.2200    -999.2500    -999.2500
    996.8482    976.0298   -952.0298    -999.2500      78.9300    -999.2500    -999.2500
    997.0006    976.1694   -952.1694    -999.2500      78.9300    -999.2500    -999.2500
    997.1530    976.3090   -952.3090    -999.2500      69.1000    -999.2500    -999.2500
    997.3054    976.4485   -952.4485    -999.2500      59.2700    -999.2500    -999.2500
    997.4578    976.5881   -952.5881    -999.2500      59.2700    -999.2500    -999.2500
    997.6102    976.7277   -952.7277    -999.2500      71.8700    -999.2500    -999.2500
    997.7626    976.8672   -952.8672    -999.2500      71.8700    -999.2500    -999.2500
    997.9150    977.0068   -953.0068    -999.2500      74.6400    -999.2500    -999.2500
    998.0674    977.1464   -953.1464    -999.2500      74.6400    -999.2500    -999.2500
    998.2198    977.2860   -953.2860    -999.2500      83.1900    -999.2500    -999.2500
    998.3722    977.4255   -953.4255    -999.2500      83.1900    -999.2500    -999.2500
    998.5246    977.5651   -953.5651    -999.2500      66.2700    -999.2500    -999.2500
    998.6770    977.7047   -953.7047    -999.2500      66.2700    -999.2500    -999.2500
    998.8294    977.8442   -953.8442    -999.2500      84.6100    -999.2500    -999.2500
    998.9818    977.9838   -953.9838    -999.2500      84.6100    -999.2500    -999.2500
    999.1342    978.1234   -954.1234    -999.2500      83.2000    -999.2500    -999.2500
    999.2866    978.2629   -954.2629    -999.2500      81.7900    -999.2500    -999.2500
    999.4390    978.4025   -954.4025    -999.2500      75.7600    -999.2500    -999.2500
    999.5914    978.5421   -954.5421    -999.2500      71.9900    -999.2500    -999.2500
    999.7438    978.6816   -954.6816    -999.2500      67.6200    -999.2500    -999.2500
    999.8962    978.8212   -954.8212    -999.2500      67.6200    -999.2500    -999.2500
   1000.0486    978.9609   -954.9609    -999.2500      74.8100    -999.2500    -999.2500
   1000.2010    979.1005   -955.1005    -999.2500      74.8100    -999.2500    -999.2500
   1000.3534    979.2402   -955.2402    -999.2500      77.4500    -999.2500    -999.2500
   1000.5058    979.3799   -955.3799    -999.2500      77.4500    -999.2500    -999.2500
   1000.6582    979.5195   -955.5195    -999.2500      61.9600    -999.2500    -999.2500
   1000.8106    979.6592   -955.6592    -999.2500      61.9600    -999.2500    -999.2500
   1000.9630    979.7990   -955.7990    -999.2500      63.4000    -999.2500    -999.2500
   1001.1154    979.9386   -955.9386    -999.2500      64.8500    -999.2500    -999.2500
   1001.2678    980.0783   -956.0783    -999.2500      75.1000    -999.2500    -999.2500
