#------------------------------------------------------------------------------
#
#   Created by  : [OpenWorks] Log Export Utility (LEXP)
#   Created on  : 2008-05-07 10:33:46
#   Project     : NORNE
#   User        : TRAL
#   Interpreter : TRAL
#
#------------------------------------------------------------------------------
~VERSION INFORMATION
VERS. 2.0 : CWLS Log ASCII Standard - version 2.0
WRAP.  NO : One line per depth step
~WELL INFORMATION
#MNEMONIC   .UNIT                                           VALUE :DESCRIPTION
#------------------------------------------------------------------------------
STRT        .M                                          1300.1244 :START DEPTH
STOP        .M                                          4299.9658 :STOP DEPTH
STEP        .M                                             0.1524 :STEP
NULL        .                                           -999.2500 :NULL VALUE
COMP        .                                             STATOIL :COMPANY
WELL        .                                       6608/10-B-1 H :WELL
FLD         .                                               NORNE :FIELD
LOC         .                                             UNKNOWN :LOCATION
CNTY        .                                             UNKNOWN :COUNTY
STAT        .                                             UNKNOWN :STATE
CTRY        .                                              Norway :COUNTRY
SRVC        .                                             UNKNOWN :SERVICE COMPANY
DATE        .                                             UNKNOWN :LOG DATE
UWI         .                                    NO 6608/10-B-1 H :UNIQUE WELL ID
XCOORD      .                                       457125.588297 :SURFACE X
YCOORD      .                                      7322128.215510 :SURFACE Y
LAT         .                                           66.015337 :LATITUDE
LON         .                                            8.054802 :LONGITUDE
ELEV        .M                                            22.0000 :SURFACE ELEV
ELEV_TYPE   .                                                  KB :ELEV TYPE
~CURVE INFORMATION
#MNEMONIC.UNIT        API CODE       : CURVE DESCRIPTION
#------------------------------------------------------------------------------
DEPTH    .M                          : Measured Depth
TVD      .M                          : True Vertical Depth (TVD)
TVDSS    .M                          : True Vertical Depth (TVDSS)
DT-SYNT  .UNKNOWN     UNKNOWN        : DT-SYNT:PETROWORKS:rC:NONE:v1 
GR       .API         UNKNOWN        : GR:UNKNOWN:r1:MAIN:v1 
PHIF     .v/v_decimal UNKNOWN        : PHIF:UNKNOWN:r1:MAIN:v1 
RHOB     .g/cm3       UNKNOWN        : RHOB:UNKNOWN:r1:MAIN:v1 
~A     DEPTH         TVD       TVDSS      DT-SYNT           GR         PHIF         RHOB
# ...
   3083.2043   2627.6226  -2605.6226      98.4076      53.1301       0.2075       2.2899
   3083.3567   2627.6489  -2605.6489      99.1142      48.8701       0.2164       2.2729
   3083.5093   2627.6755  -2605.6755      99.5714      48.0101       0.2222       2.2619
   3083.6616   2627.7019  -2605.7019      99.4051      50.7101       0.2201       2.2659
   3083.8140   2627.7283  -2605.7283      98.9064      50.2901       0.2139       2.2779
   3083.9663   2627.7549  -2605.7549      99.2389      49.4801       0.2180       2.2699
   3084.1189   2627.7812  -2605.7812      99.4051      49.5901       0.2201       2.2659
   3084.2712   2627.8079  -2605.8079      98.7817      49.3301       0.2123       2.2809
   3084.4236   2627.8342  -2605.8342      98.4492      50.8201       0.2081       2.2889
   3084.5759   2627.8606  -2605.8606      97.6179      53.9801       0.1976       2.3089
   3084.7283   2627.8872  -2605.8872      97.9504      53.1201       0.2018       2.3009
   3084.8809   2627.9136  -2605.9136      97.4932      51.0001       0.1960       2.3119
   3085.0332   2627.9402  -2605.9402      97.0359      51.7501       0.1902       2.3229
   3085.1855   2627.9666  -2605.9666      97.2022      52.8601       0.1922       2.3189
   3085.3379   2627.9929  -2605.9929      97.2022      52.8301       0.1922       2.3189
   3085.4905   2628.0195  -2606.0195      97.9504      54.4301       0.2016       2.3009
   3085.6428   2628.0459  -2606.0459      98.0335      55.3301       0.2026       2.2989
   3085.7952   2628.0725  -2606.0725      97.5763      55.1201       0.1968       2.3099
   3085.9475   2628.0989  -2606.0989      97.5347      49.7001       0.1962       2.3109
   3086.1001   2628.1255  -2606.1255      96.4125      54.7201       0.1820       2.3378
   3086.2524   2628.1519  -2606.1519      95.2902      50.4401       0.1677       2.3648
   3086.4048   2628.1782  -2606.1782      95.3734      50.7701       0.1685       2.3629
   3086.5571   2628.2048  -2606.2048      96.3709      51.6701       0.1809       2.3389
   3086.7095   2628.2312  -2606.2312      96.2878      51.8301       0.1797       2.3409
   3086.8621   2628.2578  -2606.2578      96.2047      52.2401       0.1785       2.3429
   3087.0144   2628.2842  -2606.2842      95.7890      52.9601       0.1729       2.3529
   3087.1667   2628.3105  -2606.3105      96.6203      55.7301       0.1832       2.3329
   3087.3191   2628.3372  -2606.3372      97.7010      57.0701       0.1965       2.3069
   3087.4717   2628.3635  -2606.3635      97.8673      57.7301       0.1984       2.3029
   3087.6240   2628.3901  -2606.3901      98.2413      56.2101       0.2029       2.2939
   3087.7764   2628.4165  -2606.4165      99.0311      50.8201       0.2125       2.2749
   3087.9287   2628.4429  -2606.4429     100.4443      49.4301       0.2301       2.2409
   3088.0813   2628.4695  -2606.4695     101.3171      49.7201       0.2409       2.2199
   3088.2336   2628.4958  -2606.4958     101.4418      48.5601       0.2424       2.2169
   3088.3860   2628.5225  -2606.5225     101.7743      48.5501       0.2465       2.2089
   3088.5383   2628.5488  -2606.5488     102.2315      51.4401       0.2521       2.1979
   3088.6907   2628.5752  -2606.5752     102.7303      52.4801       0.2582       2.1859
   3088.8433   2628.6018  -2606.6018     102.7719      52.5301       0.2588       2.1849
   3088.9956   2628.6282  -2606.6282     102.2731      46.1301       0.2525       2.1969
   3089.1479   2628.6548  -2606.6548     102.0653      47.4501       0.2498       2.2019
   3089.3003   2628.6812  -2606.6812     102.0653      49.8301       0.2497       2.2019
   3089.4529   2628.7078  -2606.7078     101.9406      49.7701       0.2481       2.2049
   3089.6052   2628.7341  -2606.7341     101.8575      47.5701       0.2471       2.2069
   3089.7576   2628.7605  -2606.7605     101.3587      47.9301       0.2409       2.2189
   3089.9099   2628.7871  -2606.7871      99.8624      48.1701       0.2220       2.2548
   3090.0625   2628.8135  -2606.8135      99.1558      42.1102       0.2385       2.2233
   3090.2148   2628.8401  -2606.8401      96.8697      40.7502       0.2098       2.2783
   3090.3672   2628.8665  -2606.8665      94.9577      41.3602       0.1857       2.3243
   3090.5195   2628.8928  -2606.8928      95.2902      40.3502       0.1898       2.3164
   3090.6719   2628.9194  -2606.9194      94.5421      39.4802       0.1804       2.3343
   3090.8245   2628.9458  -2606.9458      94.2511      39.2402       0.1768       2.3413
   3090.9768   2628.9724  -2606.9724      93.0873      42.6402       0.1622       2.3693
   3091.1292   2628.9988  -2606.9988      92.2560      41.7002       0.1517       2.3893
   3091.2815   2629.0251  -2607.0251      91.2169      40.2502       0.1387       2.4143
   3091.4341   2629.0518  -2607.0518      91.6741      38.1902       0.0010       2.4034
   3091.5864   2629.0781  -2607.0781      91.6741      34.1002       0.0010       2.4034
   3091.7388   2629.1047  -2607.1047      91.6325      36.1502       0.0010       2.4044
   3091.8911   2629.1311  -2607.1311      92.0482      39.9002       0.0010       2.3944
   3092.0437   2629.1577  -2607.1577      88.9724      39.3502       0.0010       2.4683
   3092.1960   2629.1841  -2607.1841      87.8086      39.0202       0.0010       2.4963
   3092.3484   2629.2104  -2607.2104      89.3049      38.7102       0.0010       2.4604
   3092.5007   2629.2371  -2607.2371      89.0140      36.9102       0.0010       2.4673
   3092.6531   2629.2634  -2607.2634      88.7230      39.5502       0.0010       2.4743
   3092.8057   2629.2900  -2607.2900      89.1802      41.0502       0.0010       2.4634
   3092.9580   2629.3164  -2607.3164      90.6350      40.2502       0.0010       2.4284
   3093.1104   2629.3428  -2607.3428      91.7988      40.1502       0.0010       2.4004
   3093.2627   2629.3694  -2607.3694      93.8355      41.2802       0.1717       2.3514
   3093.4153   2629.3958  -2607.3958      96.3709      42.7402       0.2036       2.2904
   3093.5676   2629.4224  -2607.4224      96.4956      42.1802       0.2053       2.2874
   3093.7200   2629.4487  -2607.4487      96.0384      42.2802       0.1996       2.2983
   3093.8723   2629.4751  -2607.4751      96.7034      42.4802       0.2081       2.2824
   3094.0249   2629.5017  -2607.5017      97.8673      42.2002       0.2228       2.2544
   3094.1772   2629.5281  -2607.5281      97.7841      41.2202       0.2218       2.2564
   3094.3296   2629.5547  -2607.5547      97.6594      39.3702       0.2203       2.2593
   3094.4819   2629.5811  -2607.5811      97.6594      39.9002       0.2203       2.2594
   3094.6343   2629.6074  -2607.6074      98.4907      41.0302       0.2308       2.2394
   3094.7869   2629.6340  -2607.6340      98.2413      42.7102       0.2277       2.2453
   3094.9392   2629.6604  -2607.6604      98.1998      42.9502       0.2273       2.2464
   3095.0916   2629.6870  -2607.6870      98.9895      43.5402       0.2372       2.2274
   3095.2439   2629.7134  -2607.7134      98.8648      41.6102       0.2357       2.2303
   3095.3965   2629.7400  -2607.7400      98.6154      41.6702       0.2325       2.2363
   3095.5488   2629.7664  -2607.7664      98.6985      41.5702       0.2336       2.2344
   3095.7012   2629.7927  -2607.7927      99.1142      40.6802       0.2388       2.2244
   3095.8535   2629.8193  -2607.8193      99.3220      42.1002       0.2415       2.2194
   3096.0061   2629.8457  -2607.8457      99.5714      42.8002       0.2446       2.2134
   3096.1584   2629.8723  -2607.8723      99.6130      44.2102       0.2452       2.2124
   3096.3108   2629.8987  -2607.8987      99.5714      44.2102       0.2446       2.2134
   3096.4631   2629.9250  -2607.9250      99.7792      43.0202       0.2472       2.2084
   3096.6155   2629.9517  -2607.9517     100.2364      40.8202       0.2529       2.1974
   3096.7681   2629.9780  -2607.9780      99.7792      39.9902       0.2472       2.2083
