#------------------------------------------------------------------------------
#
#   Created by  : [OpenWorks] Log Export Utility (LEXP)
#   Created on  : 2008-05-07 10:33:00
#   Project     : NORNE
#   User        : TRAL
#   Interpreter : TRAL
#
#------------------------------------------------------------------------------
~VERSION INFORMATION
VERS. 2.0 : CWLS Log ASCII Standard - version 2.0
WRAP.  NO : One line per depth step
~WELL INFORMATION
#MNEMONIC   .UNIT                                           VALUE :DESCRIPTION
#------------------------------------------------------------------------------
STRT        .M                                             0.1522 :START DEPTH
STOP        .M                                          4349.9531 :STOP DEPTH
STEP        .M                                             0.1524 :STEP
NULL        .                                           -999.2500 :NULL VALUE
COMP        .                                             STATOIL :COMPANY
WELL        .                                       6608/10-E-1 H :WELL
FLD         .                                               NORNE :FIELD
LOC         .                                             UNKNOWN :LOCATION
CNTY        .                                             UNKNOWN :COUNTY
STAT        .                                             UNKNOWN :STATE
CTRY        .                                              Norway :COUNTRY
SRVC        .                                             UNKNOWN :SERVICE COMPANY
DATE        .                                             UNKNOWN :LOG DATE
UWI         .                                    NO 6608/10-E-1 H :UNIQUE WELL ID
XCOORD      .                                       459204.301905 :SURFACE X
YCOORD      .                                      7325445.854798 :SURFACE Y
LAT         .                                           66.045371 :LATITUDE
LON         .                                            8.099572 :LONGITUDE
ELEV        .M                                            24.0000 :SURFACE ELEV
ELEV_TYPE   .                                                  KB :ELEV TYPE
~CURVE INFORMATION
#MNEMONIC.UNIT        API CODE       : CURVE DESCRIPTION
#------------------------------------------------------------------------------
DEPTH    .M                          : Measured Depth
TVD      .M                          : True Vertical Depth (TVD)
TVDSS    .M                          : True Vertical Depth (TVDSS)
DT-SYNT  .UNKNOWN     UNKNOWN        : DT-SYNT:PETROWORKS:rC:NONE:v1 
GR       .API         UNKNOWN        : GR:UNKNOWN:rC:NONE:v1 
PHIF     .v/v_decimal UNKNOWN        : PHIF:UNKNOWN:rC:NONE:v1 
RHOB     .g/cm3       UNKNOWN        : RHOB:UNKNOWN:rC:NONE:v1 
~A     DEPTH         TVD       TVDSS      DT-SYNT           GR         PHIF         RHOB
# ...
   1495.1962   1429.5063  -1405.5063    -999.2500     132.9900    -999.2500    -999.2500
   1495.3486   1429.6428  -1405.6428    -999.2500     132.6000    -999.2500    -999.2500
   1495.5010   1429.7792  -1405.7792    -999.2500     132.2100    -999.2500    -999.2500
   1495.6534   1429.9156  -1405.9156    -999.2500     131.8200    -999.2500    -999.2500
   1495.8058   1430.0521  -1406.0521    -999.2500     131.4300    -999.2500    -999.2500
   1495.9583   1430.1885  -1406.1885    -999.2500     131.0400    -999.2500    -999.2500
   1496.1106   1430.3250  -1406.3250    -999.2500     130.6500    -999.2500    -999.2500
   1496.2631   1430.4614  -1406.4614    -999.2500     130.2600    -999.2500    -999.2500
   1496.4154   1430.5978  -1406.5978    -999.2500     129.8700    -999.2500    -999.2500
   1496.5679   1430.7343  -1406.7343    -999.2500     129.4800    -999.2500    -999.2500
   1496.7202   1430.8706  -1406.8706    -999.2500     129.0900    -999.2500    -999.2500
   1496.8726   1431.0070  -1407.0070    -999.2500     128.7000    -999.2500    -999.2500
   1497.0250   1431.1434  -1407.1434    -999.2500     128.3100    -999.2500    -999.2500
   1497.1774   1431.2798  -1407.2798    -999.2500     131.3400    -999.2500    -999.2500
   1497.3298   1431.4163  -1407.4163    -999.2500     137.5600    -999.2500    -999.2500
   1497.4822   1431.5526  -1407.5526    -999.2500     144.4800    -999.2500    -999.2500
   1497.6346   1431.6891  -1407.6891    -999.2500     137.4100    -999.2500    -999.2500
   1497.7870   1431.8254  -1407.8254    -999.2500     141.8600    -999.2500    -999.2500
   1497.9395   1431.9619  -1407.9619    -999.2500     147.3800    -999.2500    -999.2500
   1498.0918   1432.0983  -1408.0983    -999.2500     141.3800    -999.2500    -999.2500
   1498.2443   1432.2347  -1408.2347    -999.2500     122.1200    -999.2500    -999.2500
   1498.3966   1432.3711  -1408.3711    -999.2500     129.2400    -999.2500    -999.2500
   1498.5491   1432.5076  -1408.5076    -999.2500     137.1000    -999.2500    -999.2500
   1498.7014   1432.6439  -1408.6439    -999.2500     145.8700    -999.2500    -999.2500
   1498.8538   1432.7803  -1408.7803    -999.2500     141.2500    -999.2500    -999.2500
   1499.0062   1432.9167  -1408.9167    -999.2500     133.3700    -999.2500    -999.2500
   1499.1586   1433.0531  -1409.0531    -999.2500     124.5700    -999.2500    -999.2500
   1499.3110   1433.1896  -1409.1896    -999.2500     128.2700    -999.2500    -999.2500
   1499.4634   1433.3259  -1409.3259    -999.2500     133.7800    -999.2500    -999.2500
   1499.6158   1433.4624  -1409.4624    -999.2500     137.9200    -999.2500    -999.2500
   1499.7682   1433.5988  -1409.5988    -999.2500     130.3500    -999.2500    -999.2500
   1499.9207   1433.7352  -1409.7352    -999.2500     131.0500    -999.2500    -999.2500
   1500.0730   1433.8717  -1409.8717    -999.2500     138.2800    -999.2500    -999.2500
   1500.2255   1434.0083  -1410.0083    -999.2500     133.0800    -999.2500    -999.2500
   1500.3778   1434.1448  -1410.1448    -999.2500     120.5900    -999.2500    -999.2500
   1500.5303   1434.2814  -1410.2814    -999.2500     111.4100    -999.2500    -999.2500
   1500.6826   1434.4178  -1410.4178    -999.2500     134.3600    -999.2500    -999.2500
   1500.8350   1434.5544  -1410.5544    -999.2500     138.7200    -999.2500    -999.2500
   1500.9874   1434.6910  -1410.6910    -999.2500     136.0100    -999.2500    -999.2500
   1501.1398   1434.8275  -1410.8275    -999.2500     139.6400    -999.2500    -999.2500
   1501.2922   1434.9641  -1410.9641    -999.2500     146.0800    -999.2500    -999.2500
   1501.4446   1435.1006  -1411.1006    -999.2500     149.0200    -999.2500    -999.2500
   1501.5970   1435.2372  -1411.2372    -999.2500     144.2800    -999.2500    -999.2500
   1501.7494   1435.3737  -1411.3737    -999.2500     130.5600    -999.2500    -999.2500
   1501.9019   1435.5103  -1411.5103    -999.2500     116.7800    -999.2500    -999.2500
   1502.0542   1435.6469  -1411.6469    -999.2500     122.8300    -999.2500    -999.2500
   1502.2067   1435.7834  -1411.7834    -999.2500     131.7000    -999.2500    -999.2500
   1502.3590   1435.9199  -1411.9199    -999.2500     128.5200    -999.2500    -999.2500
   1502.5115   1436.0565  -1412.0565    -999.2500     124.1600    -999.2500    -999.2500
   1502.6638   1436.1930  -1412.1930    -999.2500     130.7100    -999.2500    -999.2500
   1502.8162   1436.3295  -1412.3295    -999.2500     126.2600    -999.2500    -999.2500
   1502.9686   1436.4661  -1412.4661    -999.2500     128.6100    -999.2500    -999.2500
   1503.1210   1436.6027  -1412.6027    -999.2500     150.9600    -999.2500    -999.2500
   1503.2734   1436.7393  -1412.7393    -999.2500     145.1300    -999.2500    -999.2500
   1503.4258   1436.8757  -1412.8757    -999.2500     136.6600    -999.2500    -999.2500
   1503.5782   1437.0123  -1413.0123    -999.2500     127.4400    -999.2500    -999.2500
   1503.7306   1437.1488  -1413.1488    -999.2500     134.3700    -999.2500    -999.2500
   1503.8831   1437.2854  -1413.2854    -999.2500     141.9900    -999.2500    -999.2500
   1504.0354   1437.4219  -1413.4219    -999.2500     145.4400    -999.2500    -999.2500
   1504.1879   1437.5586  -1413.5586    -999.2500     137.5600    -999.2500    -999.2500
   1504.3402   1437.6951  -1413.6951    -999.2500     140.4000    -999.2500    -999.2500
   1504.4927   1437.8317  -1413.8317    -999.2500     145.6600    -999.2500    -999.2500
   1504.6450   1437.9681  -1413.9681    -999.2500     127.6700    -999.2500    -999.2500
   1504.7974   1438.1046  -1414.1046    -999.2500     139.4100    -999.2500    -999.2500
   1504.9498   1438.2412  -1414.2412    -999.2500     142.1400    -999.2500    -999.2500
   1505.1022   1438.3777  -1414.3777    -999.2500     136.3400    -999.2500    -999.2500
   1505.2546   1438.5144  -1414.5144    -999.2500     136.9200    -999.2500    -999.2500
   1505.4070   1438.6509  -1414.6509    -999.2500     139.3800    -999.2500    -999.2500
   1505.5594   1438.7875  -1414.7875    -999.2500     144.4800    -999.2500    -999.2500
   1505.7118   1438.9240  -1414.9240    -999.2500     139.3800    -999.2500    -999.2500
   1505.8643   1439.0605  -1415.0605    -999.2500     144.7900    -999.2500    -999.2500
   1506.0166   1439.1970  -1415.1970    -999.2500     134.6400    -999.2500    -999.2500
   1506.1691   1439.3336  -1415.3336    -999.2500     140.7100    -999.2500    -999.2500
   1506.3214   1439.4702  -1415.4702    -999.2500     141.2800    -999.2500    -999.2500
   1506.4739   1439.6068  -1415.6068    -999.2500     139.6300    -999.2500    -999.2500
   1506.6262   1439.7433  -1415.7433    -999.2500     143.9900    -999.2500    -999.2500
   1506.7786   1439.8798  -1415.8798    -999.2500     135.8100    -999.2500    -999.2500
   1506.9310   1440.0164  -1416.0164    -999.2500     145.7900    -999.2500    -999.2500
   1507.0834   1440.1528  -1416.1528    -999.2500     146.0800    -999.2500    -999.2500
   1507.2358   1440.2894  -1416.2894    -999.2500     148.4700    -999.2500    -999.2500
   1507.3882   1440.4260  -1416.4260    -999.2500     147.0300    -999.2500    -999.2500
   1507.5406   1440.5626  -1416.5626    -999.2500     147.0700    -999.2500    -999.2500
   1507.6930   1440.6991  -1416.6991    -999.2500     142.9200    -999.2500    -999.2500
   1507.8455   1440.8357  -1416.8357    -999.2500     141.0600    -999.2500    -999.2500
   1507.9978   1440.9722  -1416.9722    -999.2500     132.6900    -999.2500    -999.2500
   1508.1503   1441.1088  -1417.1088    -999.2500     140.1100    -999.2500    -999.2500
   1508.3026   1441.2452  -1417.2452    -999.2500     138.5000    -999.2500    -999.2500
   1508.4551   1441.3818  -1417.3818    -999.2500     125.7700    -999.2500    -999.2500
   1508.6074   1441.5184  -1417.5184    -999.2500     135.7400    -999.2500    -999.2500
   1508.7598   1441.6549  -1417.6549    -999.2500     140.8500    -999.2500    -999.2500
