#------------------------------------------------------------------------------
#
#   Created by  : [OpenWorks] Log Export Utility (LEXP)
#   Created on  : 2008-05-07 10:33:46
#   Project     : NORNE
#   User        : TRAL
#   Interpreter : TRAL
#
#------------------------------------------------------------------------------
~VERSION INFORMATION
VERS. 2.0 : CWLS Log ASCII Standard - version 2.0
WRAP.  NO : One line per depth step
~WELL INFORMATION
#MNEMONIC   .UNIT                                           VALUE :DESCRIPTION
#------------------------------------------------------------------------------
STRT        .M                                          1300.1244 :START DEPTH
STOP        .M                                          4299.9658 :STOP DEPTH
STEP        .M                                             0.1524 :STEP
NULL        .                                           -999.2500 :NULL VALUE
COMP        .                                             STATOIL :COMPANY
WELL        .                                       6608/10-B-1 H :WELL
FLD         .                                               NORNE :FIELD
LOC         .                                             UNKNOWN :LOCATION
CNTY        .                                             UNKNOWN :COUNTY
STAT        .                                             UNKNOWN :STATE
CTRY        .                                              Norway :COUNTRY
SRVC        .                                             UNKNOWN :SERVICE COMPANY
DATE        .                                             UNKNOWN :LOG DATE
UWI         .                                    NO 6608/10-B-1 H :UNIQUE WELL ID
XCOORD      .                                       457125.588297 :SURFACE X
YCOORD      .                                      7322128.215510 :SURFACE Y
LAT         .                                           66.015337 :LATITUDE
LON         .                                            8.054802 :LONGITUDE
ELEV        .M                                            22.0000 :SURFACE ELEV
ELEV_TYPE   .                                                  KB :ELEV TYPE
~CURVE INFORMATION
#MNEMONIC.UNIT        API CODE       : CURVE DESCRIPTION
#------------------------------------------------------------------------------
DEPTH    .M                          : Measured Depth
TVD      .M                          : True Vertical Depth (TVD)
TVDSS    .M                          : True Vertical Depth (TVDSS)
DT-SYNT  .UNKNOWN     UNKNOWN        : DT-SYNT:PETROWORKS:rC:NONE:v1 
GR       .API         UNKNOWN        : GR:UNKNOWN:r1:MAIN:v1 
PHIF     .v/v_decimal UNKNOWN        : PHIF:UNKNOWN:r1:MAIN:v1 
RHOB     .g/cm3       UNKNOWN        : RHOB:UNKNOWN:r1:MAIN:v1 
~A     DEPTH         TVD       TVDSS      DT-SYNT           GR         PHIF         RHOB
# ...
   3480.9685   2636.5840  -2614.5840     103.2707      38.7775       0.2739       2.1527
   3481.1208   2636.5854  -2614.5854     103.6447      39.3275       0.2786       2.1437
   3481.2732   2636.5872  -2614.5872     102.7303      38.8175       0.2671       2.1656
   3481.4255   2636.5886  -2614.5886     102.5225      39.9075       0.2644       2.1707
   3481.5779   2636.5903  -2614.5903     103.1460      42.5875       0.2723       2.1557
   3481.7305   2636.5918  -2614.5918     103.4369      43.0075       0.2759       2.1487
   3481.8828   2636.5935  -2614.5935     103.5616      36.2075       0.2775       2.1457
   3482.0352   2636.5950  -2614.5950     103.1875      38.5475       0.2728       2.1546
   3482.1875   2636.5967  -2614.5967     102.6472      39.4675       0.2660       2.1676
   3482.3401   2636.5981  -2614.5981     103.3954      39.6375       0.2754       2.1497
   3482.4924   2636.5999  -2614.5999     102.9381      38.4975       0.2697       2.1606
   3482.6448   2636.6016  -2614.6016     102.2731      37.8975       0.2613       2.1766
   3482.7971   2636.6030  -2614.6030     102.4394      38.8275       0.2634       2.1727
   3482.9497   2636.6047  -2614.6047     103.1875      38.3375       0.2728       2.1547
   3483.1021   2636.6062  -2614.6062     102.8135      38.5175       0.2681       2.1636
   3483.2544   2636.6079  -2614.6079     102.3978      37.7875       0.2629       2.1736
   3483.4067   2636.6094  -2614.6094     102.2315      37.7075       0.2607       2.1777
   3483.5591   2636.6111  -2614.6111     102.4809      37.4975       0.2639       2.1717
   3483.7117   2636.6125  -2614.6125     102.1069      38.0175       0.2592       2.1806
   3483.8640   2636.6143  -2614.6143     102.2315      35.0875       0.2607       2.1777
   3484.0164   2636.6157  -2614.6157     102.1069      34.3275       0.2592       2.1807
   3484.1687   2636.6174  -2614.6174     102.5641      37.7375       0.2649       2.1697
   3484.3213   2636.6189  -2614.6189     102.5641      39.2075       0.2649       2.1697
   3484.4736   2636.6206  -2614.6206     102.3562      39.8575       0.2623       2.1747
   3484.6260   2636.6223  -2614.6223     103.0213      39.5475       0.2707       2.1587
   3484.7783   2636.6238  -2614.6238     102.6472      37.2175       0.2660       2.1676
   3484.9309   2636.6255  -2614.6255     102.2315      38.6975       0.2607       2.1776
   3485.0833   2636.6270  -2614.6270     102.4809      38.8775       0.2638       2.1717
   3485.2356   2636.6287  -2614.6287     102.7303      37.5075       0.2671       2.1657
   3485.3879   2636.6301  -2614.6301     102.5641      36.7675       0.2650       2.1697
   3485.5403   2636.6318  -2614.6318     102.7719      38.6575       0.2676       2.1647
   3485.6929   2636.6333  -2614.6333     103.4785      37.5375       0.2765       2.1477
   3485.8452   2636.6350  -2614.6350     103.4785      37.0275       0.2765       2.1477
   3485.9976   2636.6365  -2614.6365     103.1875      36.7275       0.2728       2.1547
   3486.1499   2636.6382  -2614.6382     103.4785      37.1775       0.2765       2.1477
   3486.3025   2636.6396  -2614.6396     103.4369      37.5475       0.2759       2.1487
   3486.4548   2636.6414  -2614.6414     103.4785      38.4475       0.2765       2.1477
   3486.6072   2636.6428  -2614.6428     103.2291      38.3875       0.2733       2.1537
   3486.7595   2636.6445  -2614.6445     103.0628      39.5875       0.2712       2.1577
   3486.9121   2636.6462  -2614.6462     103.1875      39.6175       0.2728       2.1547
   3487.0645   2636.6477  -2614.6477     103.3122      36.3275       0.2744       2.1517
   3487.2168   2636.6494  -2614.6494     102.8966      34.4075       0.2691       2.1616
   3487.3691   2636.6509  -2614.6509     103.3954      34.0075       0.2754       2.1497
   3487.5215   2636.6526  -2614.6526     103.0213      33.7475       0.2707       2.1586
   3487.6741   2636.6541  -2614.6541     102.9797      36.5675       0.2702       2.1597
   3487.8264   2636.6558  -2614.6558     103.0628      36.5675       0.2712       2.1577
   3487.9788   2636.6572  -2614.6572     102.9381      37.0175       0.2696       2.1607
   3488.1311   2636.6589  -2614.6589     103.2291      37.9675       0.2733       2.1537
   3488.2837   2636.6604  -2614.6604     102.6056      38.4175       0.2655       2.1686
   3488.4360   2636.6621  -2614.6621     102.9797      39.8175       0.2702       2.1597
   3488.5884   2636.6636  -2614.6636     103.6447      39.6575       0.2785       2.1437
   3488.7407   2636.6653  -2614.6653     102.9381      39.0575       0.2697       2.1606
   3488.8933   2636.6670  -2614.6670     102.6056      38.3075       0.2655       2.1686
   3489.0457   2636.6685  -2614.6685     102.9797      38.3475       0.2702       2.1597
   3489.1980   2636.6702  -2614.6702     102.8550      37.6975       0.2686       2.1627
   3489.3503   2636.6716  -2614.6716     102.6056      37.3275       0.2655       2.1687
   3489.5027   2636.6733  -2614.6733     102.5641      37.1575       0.2649       2.1697
   3489.6553   2636.6748  -2614.6748     102.5641      38.4875       0.2649       2.1697
   3489.8076   2636.6765  -2614.6765     102.9797      39.2475       0.2702       2.1597
   3489.9600   2636.6780  -2614.6780     103.1875      41.1475       0.2728       2.1547
   3490.1123   2636.6797  -2614.6797     103.7694      39.6175       0.2801       2.1407
   3490.2649   2636.6812  -2614.6812     103.6863      37.0075       0.2791       2.1427
   3490.4172   2636.6829  -2614.6829     102.9797      38.4375       0.2702       2.1596
   3490.5696   2636.6843  -2614.6843     102.6056      39.2175       0.2655       2.1686
   3490.7219   2636.6860  -2614.6860     102.8135      39.1375       0.2681       2.1637
   3490.8745   2636.6877  -2614.6877     102.8135      39.1175       0.2681       2.1637
   3491.0269   2636.6892  -2614.6892     102.8550      39.0075       0.2686       2.1627
   3491.1792   2636.6909  -2614.6909     102.8550      38.2275       0.2686       2.1627
   3491.3315   2636.6924  -2614.6924     102.8966      37.4875       0.2691       2.1617
   3491.4839   2636.6941  -2614.6941     102.7303      36.1375       0.2670       2.1657
   3491.6365   2636.6956  -2614.6956     102.7303      37.6775       0.2670       2.1657
   3491.7888   2636.6973  -2614.6973     102.9381      39.2175       0.2696       2.1607
   3491.9412   2636.6987  -2614.6987     102.7719      39.2275       0.2675       2.1647
   3492.0935   2636.7004  -2614.7004     102.9381      40.1875       0.2696       2.1607
   3492.2461   2636.7019  -2614.7019     103.0628      39.9175       0.2712       2.1577
   3492.3984   2636.7036  -2614.7036     102.8135      37.5575       0.2681       2.1637
   3492.5508   2636.7051  -2614.7051     103.1044      36.6975       0.2717       2.1567
   3492.7031   2636.7068  -2614.7068     103.4369      37.4075       0.2759       2.1487
   3492.8555   2636.7085  -2614.7085     103.6447      36.8675       0.2785       2.1437
   3493.0081   2636.7100  -2614.7100     103.4785      36.6775       0.2765       2.1477
   3493.1604   2636.7117  -2614.7117     103.4369      38.1775       0.2759       2.1487
   3493.3127   2636.7131  -2614.7131     103.7279      38.4175       0.2796       2.1417
   3493.4651   2636.7148  -2614.7148     103.1044      38.7675       0.2717       2.1566
   3493.6177   2636.7163  -2614.7163     103.2291      38.3875       0.2733       2.1537
   3493.7700   2636.7180  -2614.7180     103.3122      38.2575       0.2744       2.1517
   3493.9224   2636.7195  -2614.7195     103.4369      38.3475       0.2759       2.1487
   3494.0747   2636.7212  -2614.7212     103.5616      37.6646       0.2775       2.1457
   3494.2273   2636.7227  -2614.7227     103.5616      36.9828       0.2775       2.1457
   3494.3796   2636.7244  -2614.7244     103.0213      36.3010       0.2707       2.1586
   3494.5320   2636.7258  -2614.7258     103.8526      35.6193       0.2811       2.1387
