#------------------------------------------------------------------------------
#
#   Created by  : [OpenWorks] Log Export Utility (LEXP)
#   Created on  : 2008-05-07 10:33:46
#   Project     : NORNE
#   User        : TRAL
#   Interpreter : TRAL
#
#------------------------------------------------------------------------------
~VERSION INFORMATION
VERS. 2.0 : CWLS Log ASCII Standard - version 2.0
WRAP.  NO : One line per depth step
~WELL INFORMATION
#MNEMONIC   .UNIT                                           VALUE :DESCRIPTION
#------------------------------------------------------------------------------
STRT        .M                                          1300.1244 :START DEPTH
STOP        .M                                          4299.9658 :STOP DEPTH
STEP        .M                                             0.1524 :STEP
NULL        .                                           -999.2500 :NULL VALUE
COMP        .                                             STATOIL :COMPANY
WELL        .                                       6608/10-B-1 H :WELL
FLD         .                                               NORNE :FIELD
LOC         .                                             UNKNOWN :LOCATION
CNTY        .                                             UNKNOWN :COUNTY
STAT        .                                             UNKNOWN :STATE
CTRY        .                                              Norway :COUNTRY
SRVC        .                                             UNKNOWN :SERVICE COMPANY
DATE        .                                             UNKNOWN :LOG DATE
UWI         .                                    NO 6608/10-B-1 H :UNIQUE WELL ID
XCOORD      .                                       457125.588297 :SURFACE X
YCOORD      .                                      7322128.215510 :SURFACE Y
LAT         .                                           66.015337 :LATITUDE
LON         .                                            8.054802 :LONGITUDE
ELEV        .M                                            22.0000 :SURFACE ELEV
ELEV_TYPE   .                                                  KB :ELEV TYPE
~CURVE INFORMATION
#MNEMONIC.UNIT        API CODE       : CURVE DESCRIPTION
#------------------------------------------------------------------------------
DEPTH    .M                          : Measured Depth
TVD      .M                          : True Vertical Depth (TVD)
TVDSS    .M                          : True Vertical Depth (TVDSS)
DT-SYNT  .UNKNOWN     UNKNOWN        : DT-SYNT:PETROWORKS:rC:NONE:v1 
GR       .API         UNKNOWN        : GR:UNKNOWN:r1:MAIN:v1 
PHIF     .v/v_decimal UNKNOWN        : PHIF:UNKNOWN:r1:MAIN:v1 
RHOB     .g/cm3       UNKNOWN        : RHOB:UNKNOWN:r1:MAIN:v1 
~A     DEPTH         TVD       TVDSS      DT-SYNT           GR         PHIF         RHOB
# ...
   4084.4724   2659.5078  -2637.5078     103.4369      44.6875       0.2689       2.1541
   4084.6248   2659.4922  -2637.4922     102.8135      44.0475       0.2609       2.1690
   4084.7771   2659.4763  -2637.4763     102.9797      45.3775       0.2631       2.1651
   4084.9297   2659.4604  -2637.4604     103.4369      46.1575       0.2689       2.1541
   4085.0820   2659.4446  -2637.4446     103.2291      46.1275       0.2662       2.1590
   4085.2344   2659.4290  -2637.4290     103.0213      45.0275       0.2636       2.1640
   4085.3867   2659.4131  -2637.4131     103.1875      45.6575       0.2657       2.1601
   4085.5393   2659.3972  -2637.3972     103.2707      46.2675       0.2668       2.1581
   4085.6917   2659.3816  -2637.3816     103.4785      45.8575       0.2694       2.1531
   4085.8440   2659.3657  -2637.3657     103.5616      46.5975       0.2705       2.1511
   4085.9963   2659.3499  -2637.3499     102.7303      44.9675       0.2599       2.1710
   4086.1487   2659.3342  -2637.3342     101.8990      44.9275       0.2493       2.1910
   4086.3013   2659.3184  -2637.3184     102.5641      49.6475       0.2577       2.1751
   4086.4536   2659.3025  -2637.3025     103.1044      47.4775       0.2646       2.1621
   4086.6060   2659.2866  -2637.2866     102.3978      45.2975       0.2556       2.1790
   4086.7583   2659.2710  -2637.2710     102.6056      47.0375       0.2583       2.1741
   4086.9109   2659.2551  -2637.2551     102.5641      48.6075       0.2577       2.1751
   4087.0632   2659.2393  -2637.2393     102.7303      45.6775       0.2599       2.1711
   4087.2156   2659.2234  -2637.2234     102.6888      44.3975       0.2593       2.1721
   4087.3679   2659.2078  -2637.2078     102.5641      43.0375       0.2577       2.1750
   4087.5205   2659.1919  -2637.1919     102.6888      42.8275       0.2593       2.1721
   4087.6729   2659.1760  -2637.1760     102.5225      43.1075       0.2572       2.1760
   4087.8252   2659.1604  -2637.1604     102.4809      45.0675       0.2567       2.1771
   4087.9775   2659.1445  -2637.1445     102.8966      45.3175       0.2620       2.1671
   4088.1299   2659.1287  -2637.1287     102.7719      44.7275       0.2604       2.1700
   4088.2825   2659.1128  -2637.1128     102.9797      44.0675       0.2630       2.1651
   4088.4348   2659.0972  -2637.0972     103.2291      43.3475       0.2662       2.1591
   4088.5872   2659.0813  -2637.0813     103.0628      44.1275       0.2641       2.1630
   4088.7395   2659.0654  -2637.0654     102.9381      44.1975       0.2625       2.1660
   4088.8921   2659.0496  -2637.0496     103.2291      42.5375       0.2662       2.1591
   4089.0444   2659.0339  -2637.0339     103.0628      43.6475       0.2641       2.1630
   4089.1968   2659.0181  -2637.0181     103.2707      45.5175       0.2667       2.1581
   4089.3491   2659.0022  -2637.0022     102.3147      45.4075       0.2546       2.1810
   4089.5017   2658.9866  -2636.9866     102.6056      43.1775       0.2582       2.1741
   4089.6541   2658.9707  -2636.9707     102.9797      45.2775       0.2630       2.1651
   4089.8064   2658.9548  -2636.9548     103.4369      44.3875       0.2688       2.1541
   4089.9587   2658.9392  -2636.9392     102.8966      41.4775       0.2620       2.1670
   4090.1111   2658.9233  -2636.9233     103.5201      39.6075       0.2699       2.1521
   4090.2637   2658.9075  -2636.9075     103.3538      40.9875       0.2678       2.1560
   4090.4160   2658.8916  -2636.8916     102.8550      41.6275       0.2614       2.1680
   4090.5684   2658.8760  -2636.8760     102.6888      41.3375       0.2593       2.1720
   4090.7207   2658.8601  -2636.8601     103.2291      41.3175       0.2662       2.1591
   4090.8733   2658.8442  -2636.8442     103.4785      42.7975       0.2694       2.1531
   4091.0256   2658.8284  -2636.8284     103.1875      44.0075       0.2656       2.1600
   4091.1780   2658.8127  -2636.8127     102.2315      47.8375       0.2535       2.1830
   4091.3303   2658.7969  -2636.7969     103.3122      47.2275       0.2672       2.1571
   4091.4829   2658.7810  -2636.7810     103.7279      44.7575       0.2725       2.1471
   4091.6353   2658.7654  -2636.7654     104.0604      43.6775       0.2767       2.1391
   4091.7876   2658.7495  -2636.7495     103.5616      44.1175       0.2704       2.1510
   4091.9399   2658.7336  -2636.7336     103.1044      44.8075       0.2646       2.1620
   4092.0923   2658.7178  -2636.7178     103.4369      46.7875       0.2688       2.1541
   4092.2449   2658.7021  -2636.7021     103.6863      46.6475       0.2720       2.1481
   4092.3972   2658.6863  -2636.6863     103.1875      45.7475       0.2656       2.1600
   4092.5496   2658.6704  -2636.6704     103.0628      45.9575       0.2640       2.1630
   4092.7019   2658.6548  -2636.6548     103.2707      45.6975       0.2667       2.1581
   4092.8545   2658.6389  -2636.6389     103.3538      44.1375       0.2677       2.1561
   4093.0068   2658.6230  -2636.6230     103.3954      44.2675       0.2683       2.1551
   4093.1592   2658.6072  -2636.6072     103.7694      42.1375       0.2730       2.1461
   4093.3115   2658.5916  -2636.5916     104.1020      42.3775       0.2773       2.1381
   4093.4641   2658.5757  -2636.5757     104.3098      46.4475       0.2799       2.1331
   4093.6165   2658.5598  -2636.5598     102.8966      46.9475       0.2619       2.1670
   4093.7688   2658.5442  -2636.5442     103.8941      44.0075       0.2746       2.1431
   4093.9211   2658.5283  -2636.5283     104.0604      42.9075       0.2767       2.1391
   4094.0735   2658.5125  -2636.5125     103.9357      42.4875       0.2751       2.1420
   4094.2261   2658.4966  -2636.4966     103.5201      42.6475       0.2698       2.1520
   4094.3784   2658.4810  -2636.4810     103.6032      42.4775       0.2709       2.1501
   4094.5308   2658.4651  -2636.4651     103.4785      42.1375       0.2693       2.1530
   4094.6831   2658.4492  -2636.4492     103.3954      43.9075       0.2682       2.1551
   4094.8357   2658.4333  -2636.4333     104.4760      44.7375       0.2819       2.1291
   4094.9880   2658.4177  -2636.4177     103.3538      45.0275       0.2676       2.1560
   4095.1404   2658.4019  -2636.4019     102.8550      44.8275       0.2612       2.1680
   4095.2927   2658.3860  -2636.3860     102.9797      41.4575       0.2628       2.1651
   4095.4451   2658.3704  -2636.3704     101.9822      41.0375       0.2501       2.1890
   4095.5977   2658.3545  -2636.3545     103.0213      42.4975       0.2632       2.1641
   4095.7500   2658.3386  -2636.3386     103.4785      43.4575       0.2691       2.1531
   4095.9023   2658.3228  -2636.3228     103.6863      40.7975       0.2717       2.1481
   4096.0547   2658.3071  -2636.3071     103.1460      34.9375       0.2648       2.1610
   4096.2070   2658.2913  -2636.2913     102.6888      39.3175       0.2590       2.1720
   4096.3594   2658.2754  -2636.2754     103.1875      42.2275       0.2653       2.1601
   4096.5122   2658.2595  -2636.2595     103.0628      42.8475       0.2637       2.1630
   4096.6646   2658.2439  -2636.2439     103.7279      40.7675       0.2722       2.1471
   4096.8169   2658.2280  -2636.2280     103.5201      40.4375       0.2696       2.1520
   4096.9692   2658.2122  -2636.2122     103.0213      40.6575       0.2633       2.1640
   4097.1216   2658.1965  -2636.1965     103.0213      40.9475       0.2633       2.1641
   4097.2739   2658.1807  -2636.1807     103.0213      42.6375       0.2633       2.1641
   4097.4263   2658.1648  -2636.1648     103.1460      42.7075       0.2649       2.1611
   4097.5786   2658.1492  -2636.1492     102.8135      42.4375       0.2607       2.1690
   4097.7310   2658.1333  -2636.1333     102.3978      43.2175       0.2554       2.1790
   4097.8838   2658.1174  -2636.1174     102.6472      42.4875       0.2586       2.1731
   4098.0361   2658.1016  -2636.1016     102.0653      42.7975       0.2512       2.1870
