#------------------------------------------------------------------------------
#
#   Created by  : [OpenWorks] Log Export Utility (LEXP)
#   Created on  : 2008-05-07 10:33:00
#   Project     : NORNE
#   User        : TRAL
#   Interpreter : TRAL
#
#------------------------------------------------------------------------------
~VERSION INFORMATION
VERS. 2.0 : CWLS Log ASCII Standard - version 2.0
WRAP.  NO : One line per depth step
~WELL INFORMATION
#MNEMONIC   .UNIT                                           VALUE :DESCRIPTION
#------------------------------------------------------------------------------
STRT        .M                                             0.1522 :START DEPTH
STOP        .M                                          4349.9531 :STOP DEPTH
STEP        .M                                             0.1524 :STEP
NULL        .                                           -999.2500 :NULL VALUE
COMP        .                                             STATOIL :COMPANY
WELL        .                                       6608/10-E-1 H :WELL
FLD         .                                               NORNE :FIELD
LOC         .                                             UNKNOWN :LOCATION
CNTY        .                                             UNKNOWN :COUNTY
STAT        .                                             UNKNOWN :STATE
CTRY        .                                              Norway :COUNTRY
SRVC        .                                             UNKNOWN :SERVICE COMPANY
DATE        .                                             UNKNOWN :LOG DATE
UWI         .                                    NO 6608/10-E-1 H :UNIQUE WELL ID
XCOORD      .                                       459204.301905 :SURFACE X
YCOORD      .                                      7325445.854798 :SURFACE Y
LAT         .                                           66.045371 :LATITUDE
LON         .                                            8.099572 :LONGITUDE
ELEV        .M                                            24.0000 :SURFACE ELEV
ELEV_TYPE   .                                                  KB :ELEV TYPE
~CURVE INFORMATION
#MNEMONIC.UNIT        API CODE       : CURVE DESCRIPTION
#------------------------------------------------------------------------------
DEPTH    .M                          : Measured Depth
TVD      .M                          : True Vertical Depth (TVD)
TVDSS    .M                          : True Vertical Depth (TVDSS)
DT-SYNT  .UNKNOWN     UNKNOWN        : DT-SYNT:PETROWORKS:rC:NONE:v1 
GR       .API         UNKNOWN        : GR:UNKNOWN:rC:NONE:v1 
PHIF     .v/v_decimal UNKNOWN        : PHIF:UNKNOWN:rC:NONE:v1 
RHOB     .g/cm3       UNKNOWN        : RHOB:UNKNOWN:rC:NONE:v1 
~A     DEPTH         TVD       TVDSS      DT-SYNT           GR         PHIF         RHOB
# ...
   4073.8042   2623.3005  -2599.3005      88.8061      64.5800       0.1198       2.4400
   4073.9565   2623.3010  -2599.3010      89.6374      62.7800       0.1302       2.4200
   4074.1091   2623.3015  -2599.3015      88.8061      63.8600       0.1198       2.4400
   4074.2615   2623.3022  -2599.3022      88.8061      52.6000       0.1198       2.4400
   4074.4138   2623.3027  -2599.3027      90.0531      59.1000       0.1354       2.4100
   4074.5662   2623.3032  -2599.3032      88.8061      66.6400       0.1198       2.4400
   4074.7185   2623.3037  -2599.3037      87.5592      59.1900       0.1042       2.4700
   4074.8711   2623.3042  -2599.3042      86.7279      54.1400       0.0938       2.4900
   4075.0234   2623.3047  -2599.3047      88.3905      54.1400       0.1146       2.4500
   4075.1758   2623.3052  -2599.3052      88.3905      63.9500       0.1146       2.4500
   4075.3281   2623.3057  -2599.3057      87.9749      63.9500       0.1094       2.4600
   4075.4807   2623.3064  -2599.3064      85.8966      62.7200       0.0833       2.5100
   4075.6331   2623.3069  -2599.3069      86.7279      62.7200       0.0938       2.4900
   4075.7854   2623.3074  -2599.3074      86.7279      46.4500       0.0938       2.4900
   4075.9377   2623.3079  -2599.3079      87.5592      46.4500       0.1042       2.4700
   4076.0903   2623.3083  -2599.3083      88.8061      73.9800       0.1198       2.4400
   4076.2427   2623.3088  -2599.3088      89.6374      66.7900       0.1302       2.4200
   4076.3950   2623.3093  -2599.3093      90.0531      58.9400       0.1354       2.4100
   4076.5474   2623.3098  -2599.3098      89.6374      59.7200       0.1302       2.4200
   4076.6997   2623.3105  -2599.3105      88.3905      60.5000       0.1146       2.4500
   4076.8523   2623.3110  -2599.3110      87.1436      64.5400       0.0990       2.4800
   4077.0046   2623.3115  -2599.3115      85.8966      66.1500       0.0833       2.5100
   4077.1570   2623.3120  -2599.3120      87.1436      66.1500       0.0990       2.4800
   4077.3093   2623.3125  -2599.3125      88.3905      61.9200       0.1146       2.4500
   4077.4619   2623.3130  -2599.3130      93.7939      66.9100       0.1823       2.3200
   4077.6143   2623.3135  -2599.3135      95.4565      71.4700       0.2031       2.2800
   4077.7666   2623.3140  -2599.3140      95.0409      71.4700       0.1979       2.2900
   4077.9189   2623.3147  -2599.3147      95.0409      81.2800       0.1979       2.2900
   4078.0715   2623.3152  -2599.3152      95.0409      81.2800       0.1979       2.2900
   4078.2239   2623.3157  -2599.3157      95.0409      71.3000       0.1979       2.2900
   4078.3762   2623.3162  -2599.3162      95.0409      71.3000       0.1979       2.2900
   4078.5286   2623.3167  -2599.3167      95.8721      75.5400       0.2083       2.2700
   4078.6809   2623.3171  -2599.3171      97.1191      66.1300       0.2240       2.2400
   4078.8335   2623.3176  -2599.3176      97.5347      82.9100       0.2292       2.2300
   4078.9858   2623.3181  -2599.3181      97.9504      82.3500       0.2344       2.2200
   4079.1382   2623.3186  -2599.3186      97.5347      80.3000       0.2292       2.2300
   4079.2905   2623.3193  -2599.3193      97.1191      74.0200       0.2240       2.2400
   4079.4431   2623.3198  -2599.3198      97.5347      78.9100       0.2292       2.2300
   4079.5955   2623.3203  -2599.3203      97.5347      78.9100       0.2292       2.2300
   4079.7478   2623.3208  -2599.3208      97.9504      82.7300       0.2344       2.2200
   4079.9001   2623.3213  -2599.3213      97.1191      82.7300       0.2240       2.2400
   4080.0527   2623.3218  -2599.3218      97.1191      81.4100       0.2240       2.2400
   4080.2051   2623.3223  -2599.3223      97.5347      76.6100       0.2292       2.2300
   4080.3574   2623.3228  -2599.3228      98.3660      78.9200       0.2396       2.2100
   4080.5098   2623.3235  -2599.3235      98.3660      76.4000       0.2396       2.2100
   4080.6621   2623.3240  -2599.3240      98.3660      75.0800       0.2396       2.2100
   4080.8147   2623.3245  -2599.3245      97.9504      84.7600       0.2344       2.2200
   4080.9670   2623.3250  -2599.3250      97.5347      79.3100       0.2292       2.2300
   4081.1194   2623.3254  -2599.3254      97.1191      77.6400       0.2240       2.2400
   4081.2717   2623.3259  -2599.3259      96.7034      78.0700       0.2188       2.2500
   4081.4243   2623.3264  -2599.3264      96.2878      78.2200       0.2135       2.2600
   4081.5767   2623.3269  -2599.3269      96.7034      75.4000       0.2188       2.2500
   4081.7290   2623.3276  -2599.3276      96.7034      71.8500       0.2188       2.2500
   4081.8813   2623.3281  -2599.3281      97.1191      71.1700       0.2240       2.2400
   4082.0339   2623.3286  -2599.3286      95.8721      76.0100       0.2083       2.2700
   4082.1863   2623.3291  -2599.3291      95.8721      76.8600       0.2083       2.2700
   4082.3386   2623.3296  -2599.3296      96.2878      69.9700       0.2135       2.2600
   4082.4910   2623.3301  -2599.3301      96.2878      60.9100       0.2135       2.2600
   4082.6433   2623.3306  -2599.3306      96.2878      70.0300       0.2135       2.2600
   4082.7959   2623.3311  -2599.3311      96.2878      69.7300       0.2135       2.2600
   4082.9482   2623.3318  -2599.3318      96.2878      56.1200       0.2135       2.2600
   4083.1006   2623.3323  -2599.3323      96.2878      70.0200       0.2135       2.2600
   4083.2529   2623.3328  -2599.3328      96.2878      72.5300       0.2135       2.2600
   4083.4055   2623.3333  -2599.3333      95.4565      73.1000       0.2031       2.2800
   4083.5579   2623.3337  -2599.3337      95.0409      74.4300       0.1979       2.2900
   4083.7102   2623.3342  -2599.3342      94.6252      75.9900       0.1927       2.3000
   4083.8625   2623.3347  -2599.3347      95.0409      69.0200       0.1979       2.2900
   4084.0151   2623.3352  -2599.3352      93.3783      69.0500       0.1771       2.3300
   4084.1675   2623.3359  -2599.3359      95.0409      76.6300       0.1979       2.2900
   4084.3198   2623.3364  -2599.3364      94.6252      78.8200       0.1927       2.3000
   4084.4722   2623.3369  -2599.3369      94.2096      68.8000       0.1875       2.3100
   4084.6245   2623.3374  -2599.3374      94.6252      65.7600       0.1927       2.3000
   4084.7771   2623.3379  -2599.3379      95.4565      69.6400       0.2031       2.2800
   4084.9294   2623.3384  -2599.3384      94.2096      74.1100       0.1875       2.3100
   4085.0818   2623.3389  -2599.3389      94.6252      80.7800       0.1927       2.3000
   4085.2341   2623.3394  -2599.3394      95.0409      72.2200       0.1979       2.2900
   4085.3867   2623.3401  -2599.3401      96.2878      64.1100       0.2135       2.2600
   4085.5391   2623.3406  -2599.3406      96.2878      99.6700       0.2135       2.2600
   4085.6914   2623.3411  -2599.3411      98.7817      99.8900       0.2448       2.2000
   4085.8438   2623.3416  -2599.3416      98.3660      94.1700       0.2396       2.2100
   4085.9963   2623.3420  -2599.3420      98.3660      87.4100       0.2396       2.2100
   4086.1487   2623.3425  -2599.3425      98.7817      80.6500       0.2448       2.2000
   4086.3010   2623.3430  -2599.3430      99.1973      83.7600       0.2500       2.1900
   4086.4534   2623.3435  -2599.3435      99.1973      78.9900       0.2500       2.1900
   4086.6057   2623.3440  -2599.3440      99.6130      75.0100       0.2552       2.1800
   4086.7583   2623.3447  -2599.3447      98.3660      79.5100       0.2396       2.2100
   4086.9106   2623.3452  -2599.3452      97.5347      85.0000       0.2292       2.2300
   4087.0630   2623.3457  -2599.3457      95.8721      80.6300       0.2083       2.2700
   4087.2153   2623.3462  -2599.3462      96.2878      76.2600       0.2135       2.2600
   4087.3679   2623.3467  -2599.3467      97.9504      71.8900       0.2344       2.2200
