#------------------------------------------------------------------------------
#
#   Created by  : [OpenWorks] Log Export Utility (LEXP)
#   Created on  : 2008-05-07 10:33:00
#   Project     : NORNE
#   User        : TRAL
#   Interpreter : TRAL
#
#------------------------------------------------------------------------------
~VERSION INFORMATION
VERS. 2.0 : CWLS Log ASCII Standard - version 2.0
WRAP.  NO : One line per depth step
~WELL INFORMATION
#MNEMONIC   .UNIT                                           VALUE :DESCRIPTION
#------------------------------------------------------------------------------
STRT        .M                                             0.1522 :START DEPTH
STOP        .M                                          4349.9531 :STOP DEPTH
STEP        .M                                             0.1524 :STEP
NULL        .                                           -999.2500 :NULL VALUE
COMP        .                                             STATOIL :COMPANY
WELL        .                                       6608/10-E-1 H :WELL
FLD         .                                               NORNE :FIELD
LOC         .                                             UNKNOWN :LOCATION
CNTY        .                                             UNKNOWN :COUNTY
STAT        .                                             UNKNOWN :STATE
CTRY        .                                              Norway :COUNTRY
SRVC        .                                             UNKNOWN :SERVICE COMPANY
DATE        .                                             UNKNOWN :LOG DATE
UWI         .                                    NO 6608/10-E-1 H :UNIQUE WELL ID
XCOORD      .                                       459204.301905 :SURFACE X
YCOORD      .                                      7325445.854798 :SURFACE Y
LAT         .                                           66.045371 :LATITUDE
LON         .                                            8.099572 :LONGITUDE
ELEV        .M                                            24.0000 :SURFACE ELEV
ELEV_TYPE   .                                                  KB :ELEV TYPE
~CURVE INFORMATION
#MNEMONIC.UNIT        API CODE       : CURVE DESCRIPTION
#------------------------------------------------------------------------------
DEPTH    .M                          : Measured Depth
TVD      .M                          : True Vertical Depth (TVD)
TVDSS    .M                          : True Vertical Depth (TVDSS)
DT-SYNT  .UNKNOWN     UNKNOWN        : DT-SYNT:PETROWORKS:rC:NONE:v1 
GR       .API         UNKNOWN        : GR:UNKNOWN:rC:NONE:v1 
PHIF     .v/v_decimal UNKNOWN        : PHIF:UNKNOWN:rC:NONE:v1 
RHOB     .g/cm3       UNKNOWN        : RHOB:UNKNOWN:rC:NONE:v1 
~A     DEPTH         TVD       TVDSS      DT-SYNT           GR         PHIF         RHOB
# ...
   4334.4082   2623.6980  -2599.6980     102.5225      84.8300       0.2917       2.1100
   4334.5605   2623.6978  -2599.6978     101.6912    -999.2500       0.2812       2.1300
   4334.7129   2623.6973  -2599.6973     100.8599    -999.2500       0.2708       2.1500
   4334.8652   2623.6968  -2599.6968     100.8599    -999.2500       0.2708       2.1500
   4335.0176   2623.6963  -2599.6963     101.6912    -999.2500       0.2812       2.1300
   4335.1704   2623.6958  -2599.6958     102.1069    -999.2500       0.2865       2.1200
   4335.3228   2623.6953  -2599.6953     102.1069    -999.2500       0.2865       2.1200
   4335.4751   2623.6948  -2599.6948     102.1069    -999.2500       0.2865       2.1200
   4335.6274   2623.6946  -2599.6946     102.1069    -999.2500       0.2865       2.1200
   4335.7798   2623.6941  -2599.6941     101.6912    -999.2500       0.2812       2.1300
   4335.9321   2623.6936  -2599.6936     102.1069    -999.2500       0.2865       2.1200
   4336.0845   2623.6931  -2599.6931     102.1069    -999.2500       0.2865       2.1200
   4336.2368   2623.6926  -2599.6926     101.6912    -999.2500       0.2812       2.1300
   4336.3896   2623.6921  -2599.6921     102.1069    -999.2500       0.2865       2.1200
   4336.5420   2623.6917  -2599.6917     101.6912    -999.2500       0.2812       2.1300
   4336.6943   2623.6914  -2599.6914     100.8599    -999.2500       0.2708       2.1500
   4336.8467   2623.6909  -2599.6909     101.2756    -999.2500       0.2760       2.1400
   4336.9990   2623.6904  -2599.6904     101.2756    -999.2500       0.2760       2.1400
   4337.1514   2623.6899  -2599.6899     101.2756    -999.2500       0.2760       2.1400
   4337.3037   2623.6895  -2599.6895   41713.3516    -999.2500       0.0010    -999.0000
   4337.4561   2623.6890  -2599.6890   41713.3516    -999.2500       0.0010    -999.0000
   4337.6084   2623.6887  -2599.6887   41713.3516    -999.2500       0.0010    -999.0000
   4337.7612   2623.6882  -2599.6882   41713.3516    -999.2500       0.0010    -999.0000
   4337.9136   2623.6877  -2599.6877   41713.3516    -999.2500       0.0010    -999.0000
   4338.0659   2623.6873  -2599.6873   41713.3516    -999.2500       0.0010    -999.0000
   4338.2183   2623.6868  -2599.6868   41713.3516    -999.2500       0.0010    -999.0000
   4338.3706   2623.6863  -2599.6863   41713.3516    -999.2500       0.0010    -999.0000
   4338.5229   2623.6858  -2599.6858   41713.3516    -999.2500       0.0010    -999.0000
   4338.6753   2623.6855  -2599.6855   41713.3516    -999.2500       0.0010    -999.0000
   4338.8276   2623.6851  -2599.6851   41713.3516    -999.2500       0.0010    -999.0000
   4338.9800   2623.6846  -2599.6846   41713.3516    -999.2500       0.0010    -999.0000
   4339.1328   2623.6841  -2599.6841   41713.3516    -999.2500       0.0010    -999.0000
   4339.2852   2623.6836  -2599.6836   41713.3516    -999.2500       0.0010    -999.0000
   4339.4375   2623.6831  -2599.6831   41713.3516    -999.2500       0.0010    -999.0000
   4339.5898   2623.6829  -2599.6829   41713.3516    -999.2500       0.0010    -999.0000
   4339.7422   2623.6824  -2599.6824   41713.3516    -999.2500       0.0010    -999.0000
   4339.8945   2623.6819  -2599.6819   41713.3516    -999.2500       0.0010    -999.0000
   4340.0469   2623.6816  -2599.6816   41713.3516    -999.2500       0.0010    -999.0000
   4340.1992   2623.6814  -2599.6814   41713.3516    -999.2500       0.0010    -999.0000
   4340.3521   2623.6812  -2599.6812   41713.3516    -999.2500       0.0010    -999.0000
   4340.5044   2623.6807  -2599.6807   41713.3516    -999.2500       0.0010    -999.0000
   4340.6567   2623.6804  -2599.6804   41713.3516    -999.2500       0.0010    -999.0000
   4340.8091   2623.6802  -2599.6802   41713.3516    -999.2500       0.0010    -999.0000
   4340.9614   2623.6799  -2599.6799   41713.3516    -999.2500       0.0010    -999.0000
   4341.1138   2623.6797  -2599.6797   41713.3516    -999.2500       0.0010    -999.0000
   4341.2661   2623.6792  -2599.6792   41713.3516    -999.2500       0.0010    -999.0000
   4341.4185   2623.6790  -2599.6790   41713.3516    -999.2500       0.0010    -999.0000
   4341.5708   2623.6787  -2599.6787   41713.3516    -999.2500       0.0010    -999.0000
   4341.7236   2623.6785  -2599.6785   41713.3516    -999.2500       0.0010    -999.0000
   4341.8760   2623.6782  -2599.6782   41713.3516    -999.2500       0.0010    -999.0000
   4342.0283   2623.6780  -2599.6780   41713.3516    -999.2500       0.0010    -999.0000
   4342.1807   2623.6775  -2599.6775   41713.3516    -999.2500       0.0010    -999.0000
   4342.3330   2623.6772  -2599.6772   41713.3516    -999.2500       0.0010    -999.0000
   4342.4854   2623.6770  -2599.6770   41713.3516    -999.2500       0.0010    -999.0000
   4342.6377   2623.6768  -2599.6768   41713.3516    -999.2500       0.0010    -999.0000
   4342.7900   2623.6765  -2599.6765   41713.3516    -999.2500       0.0010    -999.0000
   4342.9424   2623.6760  -2599.6760   41713.3516    -999.2500       0.0010    -999.0000
   4343.0952   2623.6758  -2599.6758   41713.3516    -999.2500       0.0010    -999.0000
   4343.2476   2623.6755  -2599.6755   41713.3516    -999.2500       0.0010    -999.0000
   4343.3999   2623.6753  -2599.6753   41713.3516    -999.2500       0.0010    -999.0000
   4343.5522   2623.6750  -2599.6750   41713.3516    -999.2500       0.0010    -999.0000
   4343.7046   2623.6746  -2599.6746   41713.3516    -999.2500       0.0010    -999.0000
   4343.8569   2623.6743  -2599.6743   41713.3516    -999.2500       0.0010    -999.0000
   4344.0093   2623.6741  -2599.6741   41713.3516    -999.2500       0.0010    -999.0000
   4344.1616   2623.6738  -2599.6738   41713.3516    -999.2500       0.0010    -999.0000
   4344.3145   2623.6736  -2599.6736   41713.3516    -999.2500       0.0010    -999.0000
   4344.4668   2623.6731  -2599.6731   41713.3516    -999.2500       0.0010    -999.0000
   4344.6191   2623.6729  -2599.6729   41713.3516    -999.2500       0.0010    -999.0000
   4344.7715   2623.6726  -2599.6726   41713.3516    -999.2500       0.0010    -999.0000
   4344.9238   2623.6724  -2599.6724   41713.3516    -999.2500       0.0010    -999.0000
   4345.0762   2623.6721  -2599.6721   41713.3516    -999.2500       0.0010    -999.0000
   4345.2285   2623.6716  -2599.6716   41713.3516    -999.2500       0.0010    -999.0000
   4345.3809   2623.6714  -2599.6714   41713.3516    -999.2500       0.0010    -999.0000
   4345.5332   2623.6711  -2599.6711   41713.3516    -999.2500       0.0010    -999.0000
   4345.6860   2623.6709  -2599.6709   41713.3516    -999.2500       0.0010    -999.0000
   4345.8384   2623.6707  -2599.6707   41713.3516    -999.2500       0.0010    -999.0000
   4345.9907   2623.6702  -2599.6702   41713.3516    -999.2500       0.0010    -999.0000
   4346.1431   2623.6699  -2599.6699   41713.3516    -999.2500       0.0010    -999.0000
   4346.2954   2623.6697  -2599.6697   41713.3516    -999.2500       0.0010    -999.0000
   4346.4478   2623.6694  -2599.6694   41713.3516    -999.2500       0.0010    -999.0000
   4346.6001   2623.6692  -2599.6692   41713.3516    -999.2500       0.0010    -999.0000
   4346.7524   2623.6687  -2599.6687   41713.3516    -999.2500       0.0010    -999.0000
   4346.9048   2623.6685  -2599.6685   41713.3516    -999.2500       0.0010    -999.0000
   4347.0576   2623.6682  -2599.6682   41713.3516    -999.2500       0.0010    -999.0000
   4347.2100   2623.6680  -2599.6680   41713.3516    -999.2500       0.0010    -999.0000
   4347.3623   2623.6677  -2599.6677   41713.3516    -999.2500       0.0010    -999.0000
   4347.5146   2623.6672  -2599.6672   41713.3516    -999.2500       0.0010    -999.0000
   4347.6670   2623.6670  -2599.6670   41713.3516    -999.2500       0.0010    -999.0000
   4347.8193   2623.6667  -2599.6667   41713.3516    -999.2500       0.0010    -999.0000
   4347.9717   2623.6665  -2599.6665   41713.3516    -999.2500       0.0010    -999.0000
