#------------------------------------------------------------------------------
#
#   Created by  : [OpenWorks] Log Export Utility (LEXP)
#   Created on  : 2008-05-07 10:33:46
#   Project     : NORNE
#   User        : TRAL
#   Interpreter : TRAL
#
#------------------------------------------------------------------------------
~VERSION INFORMATION
VERS. 2.0 : CWLS Log ASCII Standard - version 2.0
WRAP.  NO : One line per depth step
~WELL INFORMATION
#MNEMONIC   .UNIT                                           VALUE :DESCRIPTION
#------------------------------------------------------------------------------
STRT        .M                                          1300.1244 :START DEPTH
STOP        .M                                          4299.9658 :STOP DEPTH
STEP        .M                                             0.1524 :STEP
NULL        .                                           -999.2500 :NULL VALUE
COMP        .                                             STATOIL :COMPANY
WELL        .                                       6608/10-B-1 H :WELL
FLD         .                                               NORNE :FIELD
LOC         .                                             UNKNOWN :LOCATION
CNTY        .                                             UNKNOWN :COUNTY
STAT        .                                             UNKNOWN :STATE
CTRY        .                                              Norway :COUNTRY
SRVC        .                                             UNKNOWN :SERVICE COMPANY
DATE        .                                             UNKNOWN :LOG DATE
UWI         .                                    NO 6608/10-B-1 H :UNIQUE WELL ID
XCOORD      .                                       457125.588297 :SURFACE X
YCOORD      .                                      7322128.215510 :SURFACE Y
LAT         .                                           66.015337 :LATITUDE
LON         .                                            8.054802 :LONGITUDE
ELEV        .M                                            22.0000 :SURFACE ELEV
ELEV_TYPE   .                                                  KB :ELEV TYPE
~CURVE INFORMATION
#MNEMONIC.UNIT        API CODE       : CURVE DESCRIPTION
#------------------------------------------------------------------------------
DEPTH    .M                          : Measured Depth
TVD      .M                          : True Vertical Depth (TVD)
TVDSS    .M                          : True Vertical Depth (TVDSS)
DT-SYNT  .UNKNOWN     UNKNOWN        : DT-SYNT:PETROWORKS:rC:NONE:v1 
GR       .API         UNKNOWN        : GR:UNKNOWN:r1:MAIN:v1 
PHIF     .v/v_decimal UNKNOWN        : PHIF:UNKNOWN:r1:MAIN:v1 
RHOB     .g/cm3       UNKNOWN        : RHOB:UNKNOWN:r1:MAIN:v1 
~A     DEPTH         TVD       TVDSS      DT-SYNT           GR         PHIF         RHOB
# ...
   2287.6763   2200.7605  -2178.7605    -999.2500      46.6572    -999.2500    -999.2500
   2287.8289   2200.9072  -2178.9072    -999.2500      54.0993    -999.2500    -999.2500
   2287.9812   2201.0540  -2179.0540    -999.2500      63.3292    -999.2500    -999.2500
   2288.1335   2201.2004  -2179.2004    -999.2500      64.9752    -999.2500    -999.2500
   2288.2859   2201.3472  -2179.3472    -999.2500      53.4893    -999.2500    -999.2500
   2288.4385   2201.4939  -2179.4939    -999.2500      49.5112    -999.2500    -999.2500
   2288.5908   2201.6404  -2179.6404    -999.2500      40.8262    -999.2500    -999.2500
   2288.7432   2201.7871  -2179.7871    -999.2500      44.3532    -999.2500    -999.2500
   2288.8955   2201.9336  -2179.9336    -999.2500      52.5562    -999.2500    -999.2500
   2289.0481   2202.0803  -2180.0803    -999.2500      55.0502    -999.2500    -999.2500
   2289.2004   2202.2271  -2180.2271    -999.2500      50.0993    -999.2500    -999.2500
   2289.3528   2202.3735  -2180.3735    -999.2500      32.3612    -999.2500    -999.2500
   2289.5051   2202.5203  -2180.5203    -999.2500      30.8932    -999.2500    -999.2500
   2289.6575   2202.6667  -2180.6667    -999.2500      42.0142    -999.2500    -999.2500
   2289.8101   2202.8135  -2180.8135    -999.2500      47.3532    -999.2500    -999.2500
   2289.9624   2202.9602  -2180.9602    -999.2500      50.8652    -999.2500    -999.2500
   2290.1147   2203.1062  -2181.1062    -999.2500      50.1892    -999.2500    -999.2500
   2290.2671   2203.2520  -2181.2520    -999.2500      48.3572    -999.2500    -999.2500
   2290.4197   2203.3979  -2181.3979    -999.2500      45.9622    -999.2500    -999.2500
   2290.5720   2203.5437  -2181.5437    -999.2500      47.7752    -999.2500    -999.2500
   2290.7244   2203.6895  -2181.6895    -999.2500      48.7052    -999.2500    -999.2500
   2290.8767   2203.8352  -2181.8352    -999.2500      49.2402    -999.2500    -999.2500
   2291.0293   2203.9812  -2181.9812    -999.2500      49.9862    -999.2500    -999.2500
   2291.1816   2204.1270  -2182.1270    -999.2500      53.4502    -999.2500    -999.2500
   2291.3340   2204.2727  -2182.2727    -999.2500      46.1722    -999.2500    -999.2500
   2291.4863   2204.4185  -2182.4185    -999.2500      43.7383    -999.2500    -999.2500
   2291.6387   2204.5642  -2182.5642    -999.2500      52.3412    -999.2500    -999.2500
   2291.7913   2204.7102  -2182.7102    -999.2500      56.9872    -999.2500    -999.2500
   2291.9436   2204.8560  -2182.8560    -999.2500      61.2172    -999.2500    -999.2500
   2292.0959   2205.0017  -2183.0017    -999.2500      61.5802    -999.2500    -999.2500
   2292.2483   2205.1475  -2183.1475    -999.2500      54.3422    -999.2500    -999.2500
   2292.4009   2205.2935  -2183.2935    -999.2500      50.0902    -999.2500    -999.2500
   2292.5532   2205.4392  -2183.4392    -999.2500      48.8773    -999.2500    -999.2500
   2292.7056   2205.5850  -2183.5850    -999.2500      36.8783    -999.2500    -999.2500
   2292.8579   2205.7307  -2183.7307    -999.2500      30.8783    -999.2500    -999.2500
   2293.0105   2205.8767  -2183.8767    -999.2500      30.6003    -999.2500    -999.2500
   2293.1628   2206.0225  -2184.0225    -999.2500      29.8032    -999.2500    -999.2500
   2293.3152   2206.1685  -2184.1685    -999.2500      34.3182    -999.2500    -999.2500
   2293.4675   2206.3142  -2184.3142    -999.2500      38.9662    -999.2500    -999.2500
   2293.6199   2206.4600  -2184.4600    -999.2500      33.0542    -999.2500    -999.2500
   2293.7725   2206.6060  -2184.6060    -999.2500      28.4492    -999.2500    -999.2500
   2293.9248   2206.7517  -2184.7517    -999.2500      40.6572    -999.2500    -999.2500
   2294.0771   2206.8975  -2184.8975    -999.2500      48.8633    -999.2500    -999.2500
   2294.2295   2207.0432  -2185.0432    -999.2500      37.3952    -999.2500    -999.2500
   2294.3821   2207.1892  -2185.1892    -999.2500      33.9622    -999.2500    -999.2500
   2294.5344   2207.3350  -2185.3350    -999.2500      39.1262    -999.2500    -999.2500
   2294.6868   2207.4807  -2185.4807    -999.2500      42.5352    -999.2500    -999.2500
   2294.8391   2207.6265  -2185.6265    -999.2500      44.5962    -999.2500    -999.2500
   2294.9917   2207.7725  -2185.7725    -999.2500      47.2052    -999.2500    -999.2500
   2295.1440   2207.9182  -2185.9182    -999.2500      45.1852    -999.2500    -999.2500
   2295.2964   2208.0640  -2186.0640    -999.2500      37.2062    -999.2500    -999.2500
   2295.4487   2208.2097  -2186.2097    -999.2500      37.7432    -999.2500    -999.2500
   2295.6011   2208.3555  -2186.3555    -999.2500      45.9062    -999.2500    -999.2500
   2295.7537   2208.5015  -2186.5015    -999.2500      51.9082    -999.2500    -999.2500
   2295.9060   2208.6472  -2186.6472    -999.2500      47.9672    -999.2500    -999.2500
   2296.0583   2208.7930  -2186.7930    -999.2500      44.3742    -999.2500    -999.2500
   2296.2107   2208.9387  -2186.9387    -999.2500      42.3322    -999.2500    -999.2500
   2296.3633   2209.0847  -2187.0847    -999.2500      42.3322    -999.2500    -999.2500
   2296.5156   2209.2305  -2187.2305    -999.2500      42.5082    -999.2500    -999.2500
   2296.6680   2209.3762  -2187.3762    -999.2500      44.2592    -999.2500    -999.2500
   2296.8203   2209.5220  -2187.5220    -999.2500      56.1802    -999.2500    -999.2500
   2296.9729   2209.6680  -2187.6680    -999.2500      56.9582    -999.2500    -999.2500
   2297.1252   2209.8140  -2187.8140    -999.2500      57.7122    -999.2500    -999.2500
   2297.2776   2209.9597  -2187.9597    -999.2500      56.6922    -999.2500    -999.2500
   2297.4299   2210.1055  -2188.1055    -999.2500      57.6172    -999.2500    -999.2500
   2297.5823   2210.2512  -2188.2512    -999.2500      55.2243    -999.2500    -999.2500
   2297.7349   2210.3972  -2188.3972    -999.2500      54.7673    -999.2500    -999.2500
   2297.8872   2210.5430  -2188.5430    -999.2500      58.1042    -999.2500    -999.2500
   2298.0396   2210.6887  -2188.6887    -999.2500      54.1102    -999.2500    -999.2500
   2298.1919   2210.8345  -2188.8345    -999.2500      49.7292    -999.2500    -999.2500
   2298.3445   2210.9805  -2188.9805    -999.2500      53.4852    -999.2500    -999.2500
   2298.4968   2211.1262  -2189.1262    -999.2500      48.1992    -999.2500    -999.2500
   2298.6492   2211.2720  -2189.2720    -999.2500      49.2812    -999.2500    -999.2500
   2298.8015   2211.4177  -2189.4177    -999.2500      59.8992    -999.2500    -999.2500
   2298.9541   2211.5637  -2189.5637    -999.2500      49.1462    -999.2500    -999.2500
   2299.1064   2211.7095  -2189.7095    -999.2500      47.1712    -999.2500    -999.2500
   2299.2588   2211.8552  -2189.8552    -999.2500      48.8232    -999.2500    -999.2500
   2299.4111   2212.0010  -2190.0010    -999.2500      49.9852    -999.2500    -999.2500
   2299.5635   2212.1467  -2190.1467    -999.2500      53.9222    -999.2500    -999.2500
   2299.7161   2212.2927  -2190.2927    -999.2500      42.1232    -999.2500    -999.2500
   2299.8684   2212.4385  -2190.4385    -999.2500      43.4402    -999.2500    -999.2500
   2300.0208   2212.5842  -2190.5842    -999.2500      54.6982    -999.2500    -999.2500
   2300.1731   2212.7292  -2190.7292    -999.2500      45.1122    -999.2500    -999.2500
   2300.3257   2212.8745  -2190.8745    -999.2500      38.8852    -999.2500    -999.2500
   2300.4780   2213.0198  -2191.0198    -999.2500      45.6592    -999.2500    -999.2500
   2300.6304   2213.1648  -2191.1648    -999.2500      47.6452    -999.2500    -999.2500
   2300.7827   2213.3098  -2191.3098    -999.2500      41.3083    -999.2500    -999.2500
   2300.9353   2213.4551  -2191.4551    -999.2500      47.8732    -999.2500    -999.2500
   2301.0876   2213.6003  -2191.6003    -999.2500      40.4692    -999.2500    -999.2500
   2301.2400   2213.7454  -2191.7454    -999.2500      40.1782    -999.2500    -999.2500
