#------------------------------------------------------------------------------
#
#   Created by  : [OpenWorks] Log Export Utility (LEXP)
#   Created on  : 2008-05-07 10:33:46
#   Project     : NORNE
#   User        : TRAL
#   Interpreter : TRAL
#
#------------------------------------------------------------------------------
~VERSION INFORMATION
VERS. 2.0 : CWLS Log ASCII Standard - version 2.0
WRAP.  NO : One line per depth step
~WELL INFORMATION
#MNEMONIC   .UNIT                                           VALUE :DESCRIPTION
#------------------------------------------------------------------------------
STRT        .M                                          1300.1244 :START DEPTH
STOP        .M                                          4299.9658 :STOP DEPTH
STEP        .M                                             0.1524 :STEP
NULL        .                                           -999.2500 :NULL VALUE
COMP        .                                             STATOIL :COMPANY
WELL        .                                       6608/10-B-1 H :WELL
FLD         .                                               NORNE :FIELD
LOC         .                                             UNKNOWN :LOCATION
CNTY        .                                             UNKNOWN :COUNTY
STAT        .                                             UNKNOWN :STATE
CTRY        .                                              Norway :COUNTRY
SRVC        .                                             UNKNOWN :SERVICE COMPANY
DATE        .                                             UNKNOWN :LOG DATE
UWI         .                                    NO 6608/10-B-1 H :UNIQUE WELL ID
XCOORD      .                                       457125.588297 :SURFACE X
YCOORD      .                                      7322128.215510 :SURFACE Y
LAT         .                                           66.015337 :LATITUDE
LON         .                                            8.054802 :LONGITUDE
ELEV        .M                                            22.0000 :SURFACE ELEV
ELEV_TYPE   .                                                  KB :ELEV TYPE
~CURVE INFORMATION
#MNEMONIC.UNIT        API CODE       : CURVE DESCRIPTION
#------------------------------------------------------------------------------
DEPTH    .M                          : Measured Depth
TVD      .M                          : True Vertical Depth (TVD)
TVDSS    .M                          : True Vertical Depth (TVDSS)
DT-SYNT  .UNKNOWN     UNKNOWN        : DT-SYNT:PETROWORKS:rC:NONE:v1 
GR       .API         UNKNOWN        : GR:UNKNOWN:r1:MAIN:v1 
PHIF     .v/v_decimal UNKNOWN        : PHIF:UNKNOWN:r1:MAIN:v1 
RHOB     .g/cm3       UNKNOWN        : RHOB:UNKNOWN:r1:MAIN:v1 
~A     DEPTH         TVD       TVDSS      DT-SYNT           GR         PHIF         RHOB
# ...
   4276.4966   2639.5952  -2617.5952     104.6423      41.7375       0.2815       2.1250
   4276.6489   2639.5793  -2617.5793     104.3098      41.7275       0.2773       2.1330
   4276.8013   2639.5632  -2617.5632     104.8501      41.6175       0.2841       2.1201
   4276.9536   2639.5471  -2617.5471     104.8086      43.4075       0.2836       2.1211
   4277.1060   2639.5310  -2617.5310     104.8501      44.8775       0.2841       2.1201
   4277.2583   2639.5151  -2617.5151     104.7670      44.3775       0.2831       2.1221
   4277.4106   2639.4990  -2617.4990     104.7670      43.7375       0.2831       2.1221
   4277.5630   2639.4829  -2617.4829     104.8086      42.7175    -999.2500       2.1211
   4277.7158   2639.4668  -2617.4668     104.6007      41.9775    -999.2500       2.1260
   4277.8682   2639.4507  -2617.4507     104.3098      42.0875    -999.2500       2.1330
   4278.0205   2639.4348  -2617.4348     104.4345      41.8775    -999.2500       2.1301
   4278.1729   2639.4187  -2617.4187     104.5592      43.1575    -999.2500       2.1271
   4278.3252   2639.4026  -2617.4026     104.3513      44.4575    -999.2500       2.1320
   4278.4775   2639.3865  -2617.3865     104.6839      43.6075    -999.2500       2.1241
   4278.6299   2639.3704  -2617.3704     104.3929      44.4475    -999.2500       2.1310
   4278.7822   2639.3545  -2617.3545     104.9748      44.4675    -999.2500       2.1171
   4278.9346   2639.3384  -2617.3384     104.8917      44.3975    -999.2500       2.1191
   4279.0874   2639.3223  -2617.3223     104.8501      43.4975    -999.2500       2.1201
   4279.2397   2639.3062  -2617.3062     104.7670      43.9875    -999.2500       2.1221
   4279.3921   2639.2900  -2617.2900     104.7670      43.0375    -999.2500       2.1221
   4279.5444   2639.2742  -2617.2742     104.9748      42.9975    -999.2500       2.1171
   4279.6968   2639.2581  -2617.2581     104.6839      43.3975    -999.2500       2.1240
   4279.8491   2639.2419  -2617.2419     104.6007      43.9675    -999.2500       2.1260
   4280.0015   2639.2258  -2617.2258     105.1826      43.9375    -999.2500       2.1121
   4280.1538   2639.2100  -2617.2100     104.8501      41.9075    -999.2500       2.1200
   4280.3062   2639.1938  -2617.1938     104.8086      40.7675    -999.2500       2.1211
   4280.4590   2639.1777  -2617.1777     105.0164      42.8675    -999.2500       2.1161
   4280.6113   2639.1616  -2617.1616     104.6839      43.4275    -999.2500       2.1240
   4280.7637   2639.1455  -2617.1455     104.8501      41.8975    -999.2500       2.1201
   4280.9160   2639.1296  -2617.1296     104.6007      40.6475    -999.2500       2.1260
   4281.0684   2639.1135  -2617.1135     104.3513      39.0175    -999.2500       2.1320
   4281.2207   2639.0974  -2617.0974     104.6839      39.6275    -999.2500       2.1241
   4281.3730   2639.0813  -2617.0813     104.9333      40.3275    -999.2500       2.1181
   4281.5254   2639.0652  -2617.0652     104.5592      40.3275    -999.2500       2.1270
   4281.6782   2639.0491  -2617.0491     104.6007      44.5875    -999.2500       2.1261
   4281.8306   2639.0332  -2617.0332     104.5592      46.3375    -999.2500       2.1271
   4281.9829   2639.0171  -2617.0171     104.0604      44.8475    -999.2500       2.1390
   4282.1353   2639.0010  -2617.0010     104.1020      43.6475    -999.2500       2.1381
   4282.2876   2638.9849  -2616.9849     104.0604      43.2675    -999.2500       2.1391
   4282.4399   2638.9690  -2616.9690     104.3513    -999.2500    -999.2500       2.1321
   4282.5923   2638.9529  -2616.9529     104.4345    -999.2500    -999.2500       2.1301
   4282.7446   2638.9368  -2616.9368     104.3098    -999.2500    -999.2500       2.1330
   4282.8970   2638.9207  -2616.9207     104.4760    -999.2500    -999.2500       2.1291
   4283.0498   2638.9045  -2616.9045     104.6839    -999.2500    -999.2500       2.1241
   4283.2021   2638.8887  -2616.8887     104.5176    -999.2500    -999.2500       2.1280
   4283.3545   2638.8726  -2616.8726     104.6007    -999.2500    -999.2500       2.1261
   4283.5068   2638.8564  -2616.8564     105.0579    -999.2500    -999.2500       2.1151
   4283.6592   2638.8403  -2616.8403     105.1826    -999.2500    -999.2500       2.1121
   4283.8115   2638.8245  -2616.8245     104.9748    -999.2500    -999.2500       2.1170
   4283.9639   2638.8083  -2616.8083     104.9748    -999.2500    -999.2500       2.1171
   4284.1162   2638.7922  -2616.7922     104.9333    -999.2500    -999.2500       2.1181
   4284.2686   2638.7761  -2616.7761     105.0579    -999.2500    -999.2500       2.1151
   4284.4214   2638.7600  -2616.7600     104.9748    -999.2500    -999.2500       2.1170
   4284.5737   2638.7439  -2616.7439     105.0579    -999.2500    -999.2500       2.1151
   4284.7261   2638.7280  -2616.7280     105.3489    -999.2500    -999.2500       2.1081
   4284.8784   2638.7119  -2616.7119     104.8917    -999.2500    -999.2500       2.1190
   4285.0308   2638.6958  -2616.6958     105.0164    -999.2500    -999.2500       2.1161
   4285.1831   2638.6797  -2616.6797     105.3073    -999.2500    -999.2500       2.1091
   4285.3354   2638.6638  -2616.6638     105.0164    -999.2500    -999.2500       2.1160
   4285.4878   2638.6477  -2616.6477     104.7254    -999.2500    -999.2500       2.1230
   4285.6406   2638.6316  -2616.6316    -999.2500    -999.2500    -999.2500    -999.2500
   4285.7930   2638.6155  -2616.6155    -999.2500    -999.2500    -999.2500    -999.2500
   4285.9453   2638.5994  -2616.5994    -999.2500    -999.2500    -999.2500    -999.2500
   4286.0977   2638.5835  -2616.5835    -999.2500    -999.2500    -999.2500    -999.2500
   4286.2500   2638.5674  -2616.5674    -999.2500    -999.2500    -999.2500    -999.2500
   4286.4023   2638.5513  -2616.5513    -999.2500    -999.2500    -999.2500    -999.2500
   4286.5547   2638.5352  -2616.5352    -999.2500    -999.2500    -999.2500    -999.2500
   4286.7070   2638.5190  -2616.5190    -999.2500    -999.2500    -999.2500    -999.2500
   4286.8594   2638.5032  -2616.5032    -999.2500    -999.2500    -999.2500    -999.2500
   4287.0122   2638.4871  -2616.4871    -999.2500    -999.2500    -999.2500    -999.2500
   4287.1646   2638.4712  -2616.4712    -999.2500    -999.2500    -999.2500    -999.2500
   4287.3169   2638.4551  -2616.4551    -999.2500    -999.2500    -999.2500    -999.2500
   4287.4692   2638.4392  -2616.4392    -999.2500    -999.2500    -999.2500    -999.2500
   4287.6216   2638.4233  -2616.4233    -999.2500    -999.2500    -999.2500    -999.2500
   4287.7739   2638.4075  -2616.4075    -999.2500    -999.2500    -999.2500    -999.2500
   4287.9263   2638.3914  -2616.3914    -999.2500    -999.2500    -999.2500    -999.2500
   4288.0786   2638.3755  -2616.3755    -999.2500    -999.2500    -999.2500    -999.2500
   4288.2310   2638.3596  -2616.3596    -999.2500    -999.2500    -999.2500    -999.2500
   4288.3838   2638.3438  -2616.3438    -999.2500    -999.2500    -999.2500    -999.2500
   4288.5361   2638.3276  -2616.3276    -999.2500    -999.2500    -999.2500    -999.2500
   4288.6885   2638.3118  -2616.3118    -999.2500    -999.2500    -999.2500    -999.2500
   4288.8408   2638.2959  -2616.2959    -999.2500    -999.2500    -999.2500    -999.2500
   4288.9932   2638.2800  -2616.2800    -999.2500    -999.2500    -999.2500    -999.2500
   4289.1455   2638.2639  -2616.2639    -999.2500    -999.2500    -999.2500    -999.2500
   4289.2979   2638.2480  -2616.2480    -999.2500    -999.2500    -999.2500    -999.2500
   4289.4502   2638.2322  -2616.2322    -999.2500    -999.2500    -999.2500    -999.2500
   4289.6030   2638.2163  -2616.2163    -999.2500    -999.2500    -999.2500    -999.2500
   4289.7554   2638.2002  -2616.2002    -999.2500    -999.2500    -999.2500    -999.2500
   4289.9077   2638.1843  -2616.1843    -999.2500    -999.2500    -999.2500    -999.2500
   4290.0601   2638.1685  -2616.1685    -999.2500    -999.2500    -999.2500    -999.2500
