#------------------------------------------------------------------------------
#
#   Created by  : [OpenWorks] Log Export Utility (LEXP)
#   Created on  : 2008-05-07 10:33:46
#   Project     : NORNE
#   User        : TRAL
#   Interpreter : TRAL
#
#------------------------------------------------------------------------------
~VERSION INFORMATION
VERS. 2.0 : CWLS Log ASCII Standard - version 2.0
WRAP.  NO : One line per depth step
~WELL INFORMATION
#MNEMONIC   .UNIT                                           VALUE :DESCRIPTION
#------------------------------------------------------------------------------
STRT        .M                                          1300.1244 :START DEPTH
STOP        .M                                          4299.9658 :STOP DEPTH
STEP        .M                                             0.1524 :STEP
NULL        .                                           -999.2500 :NULL VALUE
COMP        .                                             STATOIL :COMPANY
WELL        .                                       6608/10-B-1 H :WELL
FLD         .                                               NORNE :FIELD
LOC         .                                             UNKNOWN :LOCATION
CNTY        .                                             UNKNOWN :COUNTY
STAT        .                                             UNKNOWN :STATE
CTRY        .                                              Norway :COUNTRY
SRVC        .                                             UNKNOWN :SERVICE COMPANY
DATE        .                                             UNKNOWN :LOG DATE
UWI         .                                    NO 6608/10-B-1 H :UNIQUE WELL ID
XCOORD      .                                       457125.588297 :SURFACE X
YCOORD      .                                      7322128.215510 :SURFACE Y
LAT         .                                           66.015337 :LATITUDE
LON         .                                            8.054802 :LONGITUDE
ELEV        .M                                            22.0000 :SURFACE ELEV
ELEV_TYPE   .                                                  KB :ELEV TYPE
~CURVE INFORMATION
#MNEMONIC.UNIT        API CODE       : CURVE DESCRIPTION
#------------------------------------------------------------------------------
DEPTH    .M                          : Measured Depth
TVD      .M                          : True Vertical Depth (TVD)
TVDSS    .M                          : True Vertical Depth (TVDSS)
DT-SYNT  .UNKNOWN     UNKNOWN        : DT-SYNT:PETROWORKS:rC:NONE:v1 
GR       .API         UNKNOWN        : GR:UNKNOWN:r1:MAIN:v1 
PHIF     .v/v_decimal UNKNOWN        : PHIF:UNKNOWN:r1:MAIN:v1 
RHOB     .g/cm3       UNKNOWN        : RHOB:UNKNOWN:r1:MAIN:v1 
~A     DEPTH         TVD       TVDSS      DT-SYNT           GR         PHIF         RHOB
# ...
   3686.7085   2654.2571  -2632.2571      98.2413      50.9165       0.2152       2.2735
   3686.8608   2654.2878  -2632.2878      96.2462      51.4766       0.1902       2.3216
   3687.0132   2654.3186  -2632.3186      96.7866      52.8765       0.1969       2.3087
   3687.1655   2654.3494  -2632.3494      97.2853      54.0765       0.2031       2.2967
   3687.3179   2654.3801  -2632.3801      97.3269      54.9165       0.2036       2.2957
   3687.4705   2654.4109  -2632.4109      97.6594      54.7766       0.2078       2.2877
   3687.6228   2654.4417  -2632.4417      98.4076      54.2665       0.2172       2.2697
   3687.7751   2654.4724  -2632.4724      98.9479      53.6166       0.2239       2.2567
   3687.9275   2654.5032  -2632.5032      99.1142      53.5965       0.2260       2.2527
   3688.0801   2654.5339  -2632.5339      99.4467      55.4266       0.2302       2.2447
   3688.2324   2654.5647  -2632.5647      99.6545      56.8866       0.2328       2.2397
   3688.3848   2654.5955  -2632.5955      98.6154      57.7165       0.2198       2.2646
   3688.5371   2654.6262  -2632.6262      97.2022      56.3666       0.2020       2.2986
   3688.6897   2654.6570  -2632.6570      96.8697      56.6866       0.1978       2.3066
   3688.8420   2654.6877  -2632.6877      99.4467      54.8065       0.2302       2.2447
   3688.9944   2654.7185  -2632.7185      99.2804      57.3166       0.2281       2.2487
   3689.1467   2654.7493  -2632.7493      98.3245      56.4266       0.2161       2.2716
   3689.2991   2654.7800  -2632.7800      98.2413      57.1265       0.2151       2.2737
   3689.4517   2654.8108  -2632.8108      98.6570      55.6265       0.2203       2.2637
   3689.6040   2654.8416  -2632.8416      99.2389      54.5565       0.2276       2.2497
   3689.7563   2654.8723  -2632.8723      99.2804      55.9766       0.2281       2.2487
   3689.9087   2654.9031  -2632.9031      99.4883      59.3265       0.2289       2.2491
   3690.0613   2654.9341  -2632.9341     100.4027      58.5965       0.2405       2.2271
   3690.2136   2654.9648  -2632.9648     100.7352      59.7665       0.2447       2.2191
   3690.3660   2654.9956  -2632.9956     101.6081      57.6865       0.2557       2.1981
   3690.5183   2655.0264  -2633.0264     101.8575      57.2765       0.2589       2.1921
   3690.6709   2655.0571  -2633.0571     101.4834      59.2265       0.2542       2.2010
   3690.8232   2655.0879  -2633.0879     100.9015      60.2865       0.2469       2.2150
   3690.9756   2655.1187  -2633.1187     101.2340      57.7565       0.2510       2.2071
   3691.1279   2655.1494  -2633.1494     101.7743      57.4465       0.2578       2.1941
   3691.2803   2655.1802  -2633.1802     100.9430      59.3965       0.2474       2.2140
   3691.4329   2655.2109  -2633.2109     101.1509      57.7165       0.2500       2.2091
   3691.5852   2655.2417  -2633.2417     100.8183      56.2265       0.2459       2.2170
   3691.7375   2655.2725  -2633.2725     100.5274      55.5265       0.2422       2.2240
   3691.8899   2655.3032  -2633.3032     100.7768      55.1065       0.2454       2.2181
   3692.0425   2655.3340  -2633.3340     101.3171      55.3165       0.2524       2.2051
   3692.1948   2655.3647  -2633.3647     101.6496      48.7665       0.2567       2.1971
   3692.3472   2655.3955  -2633.3955     101.2340      50.1865       0.2514       2.2070
   3692.4995   2655.4263  -2633.4263     101.4834      54.2465       0.2544       2.2011
   3692.6521   2655.4573  -2633.4573     101.4418      53.2365       0.2537       2.2021
   3692.8044   2655.4880  -2633.4880     101.7328      53.4665       0.2574       2.1951
   3692.9568   2655.5188  -2633.5188     101.3587      54.3665       0.2527       2.2040
   3693.1091   2655.5496  -2633.5496     101.4834      53.6265       0.2542       2.2011
   3693.2615   2655.5803  -2633.5803     101.4834      51.9765       0.2542       2.2011
   3693.4141   2655.6111  -2633.6111     101.2756      54.4165       0.2515       2.2060
   3693.5664   2655.6418  -2633.6418     101.4002      56.4465       0.2530       2.2031
   3693.7188   2655.6726  -2633.6726     100.9846      54.8565       0.2477       2.2130
   3693.8711   2655.7034  -2633.7034     104.4345      53.7965       0.2911       2.1302
   3694.0237   2655.7341  -2633.7341     101.6912      52.2165       0.2565       2.1960
   3694.1760   2655.7649  -2633.7649     101.2756      54.1965       0.2511       2.2060
   3694.3284   2655.7957  -2633.7957     101.0262      55.9465       0.2479       2.2120
   3694.4807   2655.8264  -2633.8264     101.1924      54.4065       0.2499       2.2081
   3694.6333   2655.8572  -2633.8572     100.7352      54.0365       0.2440       2.2190
   3694.7856   2655.8879  -2633.8879     101.4834      54.3165       0.2532       2.2011
   3694.9380   2655.9187  -2633.9187     101.4418      53.0365       0.2525       2.2021
   3695.0903   2655.9495  -2633.9495     101.6912      50.4665       0.2555       2.1961
   3695.2427   2655.9802  -2633.9802     101.4834      49.1765       0.2526       2.2010
   3695.3953   2656.0110  -2634.0110     101.2756      46.6165       0.2497       2.2060
   3695.5476   2656.0417  -2634.0417     102.2315      46.6165       0.2615       2.1831
   3695.7000   2656.0725  -2634.0725     100.9430      48.4465       0.2450       2.2140
   3695.8523   2656.1033  -2634.1033     101.3587      52.1765       0.2500       2.2041
   3696.0049   2656.1343  -2634.1343     102.5225      51.8965       0.2644       2.1761
   3696.1572   2656.1650  -2634.1650     101.8990      51.2265       0.2562       2.1910
   3696.3096   2656.1958  -2634.1958     102.4394      43.5075       0.2546       2.1781
   3696.4619   2656.2266  -2634.2266     104.1020      44.9575       0.2755       2.1381
   3696.6145   2656.2573  -2634.2573     102.9797      44.9675       0.2611       2.1650
   3696.7668   2656.2881  -2634.2881     103.4785      44.7375       0.2671       2.1531
   3696.9192   2656.3188  -2634.3188     104.0188      44.5475       0.2736       2.1401
   3697.0715   2656.3496  -2634.3496     105.0579      43.5275       0.2865       2.1151
   3697.2239   2656.3804  -2634.3804     103.7694      45.4375       0.2699       2.1460
   3697.3765   2656.4111  -2634.4111     104.8501      45.7275       0.2834       2.1201
   3697.5288   2656.4419  -2634.4419     103.8526      46.5875       0.2706       2.1440
   3697.6812   2656.4727  -2634.4727     104.5592      46.2275       0.2794       2.1271
   3697.8335   2656.5034  -2634.5034     104.8917      44.4375       0.2836       2.1191
   3697.9861   2656.5342  -2634.5342     105.0579      44.8875       0.2857       2.1151
   3698.1384   2656.5649  -2634.5649     105.3905      46.3975       0.2899       2.1071
   3698.2908   2656.5957  -2634.5957     105.7230      47.0475       0.2941       2.0991
   3698.4431   2656.6265  -2634.6265     105.8477      47.0475       0.2957       2.0961
   3698.5957   2656.6575  -2634.6575     105.6398      43.6575       0.2931       2.1010
   3698.7480   2656.6882  -2634.6882     105.5983      43.3875       0.2925       2.1021
   3698.9004   2656.7190  -2634.7190     105.0995      41.4575       0.2862       2.1140
   3699.0527   2656.7498  -2634.7498     105.0579      41.6375       0.2857       2.1151
   3699.2051   2656.7805  -2634.7805     104.6007      42.4175       0.2800       2.1260
   3699.3577   2656.8113  -2634.8113     104.6007      42.4475       0.2800       2.1261
   3699.5100   2656.8420  -2634.8420     104.5176      43.1075       0.2789       2.1281
   3699.6624   2656.8728  -2634.8728     104.4760      42.0275       0.2784       2.1291
   3699.8147   2656.9036  -2634.9036     104.4345      41.1375       0.2778       2.1301
   3699.9673   2656.9343  -2634.9343     104.4345      38.9175       0.2778       2.1301
   3700.1196   2656.9641  -2634.9641     104.5592      39.2475       0.2794       2.1271
   3700.2720   2656.9934  -2634.9934     104.7670      42.5875       0.2821       2.1221
