#------------------------------------------------------------------------------
#
#   Created by  : [OpenWorks] Log Export Utility (LEXP)
#   Created on  : 2008-05-07 10:33:00
#   Project     : NORNE
#   User        : TRAL
#   Interpreter : TRAL
#
#------------------------------------------------------------------------------
~VERSION INFORMATION
VERS. 2.0 : CWLS Log ASCII Standard - version 2.0
WRAP.  NO : One line per depth step
~WELL INFORMATION
#MNEMONIC   .UNIT                                           VALUE :DESCRIPTION
#------------------------------------------------------------------------------
STRT        .M                                             0.1522 :START DEPTH
STOP        .M                                          4349.9531 :STOP DEPTH
STEP        .M                                             0.1524 :STEP
NULL        .                                           -999.2500 :NULL VALUE
COMP        .                                             STATOIL :COMPANY
WELL        .                                       6608/10-E-1 H :WELL
FLD         .                                               NORNE :FIELD
LOC         .                                             UNKNOWN :LOCATION
CNTY        .                                             UNKNOWN :COUNTY
STAT        .                                             UNKNOWN :STATE
CTRY        .                                              Norway :COUNTRY
SRVC        .                                             UNKNOWN :SERVICE COMPANY
DATE        .                                             UNKNOWN :LOG DATE
UWI         .                                    NO 6608/10-E-1 H :UNIQUE WELL ID
XCOORD      .                                       459204.301905 :SURFACE X
YCOORD      .                                      7325445.854798 :SURFACE Y
LAT         .                                           66.045371 :LATITUDE
LON         .                                            8.099572 :LONGITUDE
ELEV        .M                                            24.0000 :SURFACE ELEV
ELEV_TYPE   .                                                  KB :ELEV TYPE
~CURVE INFORMATION
#MNEMONIC.UNIT        API CODE       : CURVE DESCRIPTION
#------------------------------------------------------------------------------
DEPTH    .M                          : Measured Depth
TVD      .M                          : True Vertical Depth (TVD)
TVDSS    .M                          : True Vertical Depth (TVDSS)
DT-SYNT  .UNKNOWN     UNKNOWN        : DT-SYNT:PETROWORKS:rC:NONE:v1 
GR       .API         UNKNOWN        : GR:UNKNOWN:rC:NONE:v1 
PHIF     .v/v_decimal UNKNOWN        : PHIF:UNKNOWN:rC:NONE:v1 
RHOB     .g/cm3       UNKNOWN        : RHOB:UNKNOWN:rC:NONE:v1 
~A     DEPTH         TVD       TVDSS      DT-SYNT           GR         PHIF         RHOB
# ...
   2784.5002   2493.5457  -2469.5457    -999.2500     130.2100    -999.2500    -999.2500
   2784.6526   2493.6238  -2469.6238    -999.2500     131.6600    -999.2500    -999.2500
   2784.8049   2493.7019  -2469.7019    -999.2500     122.5700    -999.2500    -999.2500
   2784.9575   2493.7803  -2469.7803    -999.2500     116.8800    -999.2500    -999.2500
   2785.1099   2493.8584  -2469.8584    -999.2500     113.9300    -999.2500    -999.2500
   2785.2622   2493.9365  -2469.9365    -999.2500     116.6500    -999.2500    -999.2500
   2785.4146   2494.0146  -2470.0146    -999.2500     125.4400    -999.2500    -999.2500
   2785.5671   2494.0930  -2470.0930    -999.2500     130.4900    -999.2500    -999.2500
   2785.7195   2494.1711  -2470.1711    -999.2500     125.7700    -999.2500    -999.2500
   2785.8718   2494.2493  -2470.2493    -999.2500     126.3500    -999.2500    -999.2500
   2786.0242   2494.3274  -2470.3274    -999.2500     133.6300    -999.2500    -999.2500
   2786.1765   2494.4055  -2470.4055    -999.2500     147.5500    -999.2500    -999.2500
   2786.3291   2494.4836  -2470.4836    -999.2500     139.8400    -999.2500    -999.2500
   2786.4814   2494.5620  -2470.5620    -999.2500     132.9900    -999.2500    -999.2500
   2786.6338   2494.6401  -2470.6401    -999.2500     136.3600    -999.2500    -999.2500
   2786.7861   2494.7183  -2470.7183    -999.2500     120.2400    -999.2500    -999.2500
   2786.9387   2494.7964  -2470.7964    -999.2500     124.7300    -999.2500    -999.2500
   2787.0911   2494.8745  -2470.8745    -999.2500     132.6900    -999.2500    -999.2500
   2787.2434   2494.9526  -2470.9526    -999.2500     128.4500    -999.2500    -999.2500
   2787.3958   2495.0308  -2471.0308    -999.2500     132.8600    -999.2500    -999.2500
   2787.5483   2495.1091  -2471.1091    -999.2500     129.9000    -999.2500    -999.2500
   2787.7007   2495.1873  -2471.1873    -999.2500     132.3400    -999.2500    -999.2500
   2787.8530   2495.2654  -2471.2654    -999.2500     130.6200    -999.2500    -999.2500
   2788.0054   2495.3435  -2471.3435    -999.2500     133.8000    -999.2500    -999.2500
   2788.1577   2495.4216  -2471.4216    -999.2500     128.5200    -999.2500    -999.2500
   2788.3103   2495.5000  -2471.5000    -999.2500     128.1500    -999.2500    -999.2500
   2788.4626   2495.5781  -2471.5781    -999.2500     130.5200    -999.2500    -999.2500
   2788.6150   2495.6562  -2471.6562    -999.2500     125.5300    -999.2500    -999.2500
   2788.7673   2495.7344  -2471.7344    -999.2500     131.2800    -999.2500    -999.2500
   2788.9199   2495.8127  -2471.8127    -999.2500     128.1500    -999.2500    -999.2500
   2789.0723   2495.8909  -2471.8909    -999.2500     130.4800    -999.2500    -999.2500
   2789.2246   2495.9690  -2471.9690    -999.2500     128.8500    -999.2500    -999.2500
   2789.3770   2496.0471  -2472.0471    -999.2500     125.4700    -999.2500    -999.2500
   2789.5295   2496.1255  -2472.1255    -999.2500     135.2600    -999.2500    -999.2500
   2789.6819   2496.2036  -2472.2036    -999.2500     125.5600    -999.2500    -999.2500
   2789.8342   2496.2817  -2472.2817    -999.2500     123.3400    -999.2500    -999.2500
   2789.9866   2496.3599  -2472.3599    -999.2500     130.9000    -999.2500    -999.2500
   2790.1389   2496.4368  -2472.4368    -999.2500     130.8200    -999.2500    -999.2500
   2790.2915   2496.5139  -2472.5139    -999.2500     117.7600    -999.2500    -999.2500
   2790.4438   2496.5908  -2472.5908    -999.2500     114.8300    -999.2500    -999.2500
   2790.5962   2496.6675  -2472.6675    -999.2500     111.8100    -999.2500    -999.2500
   2790.7485   2496.7444  -2472.7444    -999.2500     119.5300    -999.2500    -999.2500
   2790.9011   2496.8215  -2472.8215    -999.2500     120.3900    -999.2500    -999.2500
   2791.0535   2496.8984  -2472.8984    -999.2500     120.1500    -999.2500    -999.2500
   2791.2058   2496.9753  -2472.9753    -999.2500     122.5100    -999.2500    -999.2500
   2791.3582   2497.0522  -2473.0522    -999.2500     118.9300    -999.2500    -999.2500
   2791.5105   2497.1292  -2473.1292    -999.2500     122.4500    -999.2500    -999.2500
   2791.6631   2497.2061  -2473.2061    -999.2500     125.6100    -999.2500    -999.2500
   2791.8154   2497.2830  -2473.2830    -999.2500     120.9800    -999.2500    -999.2500
   2791.9678   2497.3599  -2473.3599    -999.2500     124.9900    -999.2500    -999.2500
   2792.1201   2497.4368  -2473.4368    -999.2500     118.6700    -999.2500    -999.2500
   2792.2727   2497.5137  -2473.5137    -999.2500     118.8300    -999.2500    -999.2500
   2792.4250   2497.5906  -2473.5906    -999.2500     123.7100    -999.2500    -999.2500
   2792.5774   2497.6675  -2473.6675    -999.2500     122.8700    -999.2500    -999.2500
   2792.7297   2497.7444  -2473.7444    -999.2500     125.3900    -999.2500    -999.2500
   2792.8823   2497.8213  -2473.8213    -999.2500     111.8600    -999.2500    -999.2500
   2793.0347   2497.8982  -2473.8982    -999.2500     114.5500    -999.2500    -999.2500
   2793.1870   2497.9751  -2473.9751    -999.2500     107.7400    -999.2500    -999.2500
   2793.3394   2498.0520  -2474.0520    -999.2500     118.5900    -999.2500    -999.2500
   2793.4917   2498.1289  -2474.1289    -999.2500     126.5800    -999.2500    -999.2500
   2793.6443   2498.2058  -2474.2058    -999.2500     129.0600    -999.2500    -999.2500
   2793.7966   2498.2827  -2474.2827    -999.2500     129.4100    -999.2500    -999.2500
   2793.9490   2498.3596  -2474.3596    -999.2500     125.1600    -999.2500    -999.2500
   2794.1013   2498.4365  -2474.4365    -999.2500     124.9000    -999.2500    -999.2500
   2794.2539   2498.5137  -2474.5137    -999.2500     131.7800    -999.2500    -999.2500
   2794.4062   2498.5906  -2474.5906    -999.2500     126.4700    -999.2500    -999.2500
   2794.5586   2498.6675  -2474.6675    -999.2500     119.0600    -999.2500    -999.2500
   2794.7109   2498.7441  -2474.7441    -999.2500     124.6800    -999.2500    -999.2500
   2794.8635   2498.8213  -2474.8213    -999.2500     125.5500    -999.2500    -999.2500
   2795.0159   2498.8982  -2474.8982    -999.2500     127.2200    -999.2500    -999.2500
   2795.1682   2498.9751  -2474.9751    -999.2500     126.7100    -999.2500    -999.2500
   2795.3206   2499.0520  -2475.0520    -999.2500     135.0300    -999.2500    -999.2500
   2795.4729   2499.1289  -2475.1289    -999.2500     146.1200    -999.2500    -999.2500
   2795.6255   2499.2058  -2475.2058    -999.2500     123.7000    -999.2500    -999.2500
   2795.7778   2499.2827  -2475.2827    -999.2500     118.3000    -999.2500    -999.2500
   2795.9302   2499.3596  -2475.3596    -999.2500     120.0700    -999.2500    -999.2500
   2796.0825   2499.4365  -2475.4365    -999.2500     130.6400    -999.2500    -999.2500
   2796.2351   2499.5134  -2475.5134    -999.2500     128.1400    -999.2500    -999.2500
   2796.3875   2499.5903  -2475.5903    -999.2500     123.6500    -999.2500    -999.2500
   2796.5398   2499.6672  -2475.6672    -999.2500     122.4900    -999.2500    -999.2500
   2796.6921   2499.7441  -2475.7441    -999.2500     122.8600    -999.2500    -999.2500
   2796.8447   2499.8210  -2475.8210    -999.2500     117.7800    -999.2500    -999.2500
   2796.9971   2499.8979  -2475.8979    -999.2500     134.3900    -999.2500    -999.2500
   2797.1494   2499.9749  -2475.9749    -999.2500     142.7500    -999.2500    -999.2500
   2797.3018   2500.0518  -2476.0518    -999.2500     127.4600    -999.2500    -999.2500
   2797.4541   2500.1287  -2476.1287    -999.2500     126.1300    -999.2500    -999.2500
   2797.6067   2500.2058  -2476.2058    -999.2500     133.4800    -999.2500    -999.2500
   2797.7590   2500.2825  -2476.2825    -999.2500     138.0200    -999.2500    -999.2500
   2797.9114   2500.3594  -2476.3594    -999.2500     135.3900    -999.2500    -999.2500
   2798.0637   2500.4363  -2476.4363    -999.2500     129.8600    -999.2500    -999.2500
