#------------------------------------------------------------------------------
#
#   Created by  : [OpenWorks] Log Export Utility (LEXP)
#   Created on  : 2008-05-07 10:33:00
#   Project     : NORNE
#   User        : TRAL
#   Interpreter : TRAL
#
#------------------------------------------------------------------------------
~VERSION INFORMATION
VERS. 2.0 : CWLS Log ASCII Standard - version 2.0
WRAP.  NO : One line per depth step
~WELL INFORMATION
#MNEMONIC   .UNIT                                           VALUE :DESCRIPTION
#------------------------------------------------------------------------------
STRT        .M                                             0.1522 :START DEPTH
STOP        .M                                          4349.9531 :STOP DEPTH
STEP        .M                                             0.1524 :STEP
NULL        .                                           -999.2500 :NULL VALUE
COMP        .                                             STATOIL :COMPANY
WELL        .                                       6608/10-E-1 H :WELL
FLD         .                                               NORNE :FIELD
LOC         .                                             UNKNOWN :LOCATION
CNTY        .                                             UNKNOWN :COUNTY
STAT        .                                             UNKNOWN :STATE
CTRY        .                                              Norway :COUNTRY
SRVC        .                                             UNKNOWN :SERVICE COMPANY
DATE        .                                             UNKNOWN :LOG DATE
UWI         .                                    NO 6608/10-E-1 H :UNIQUE WELL ID
XCOORD      .                                       459204.301905 :SURFACE X
YCOORD      .                                      7325445.854798 :SURFACE Y
LAT         .                                           66.045371 :LATITUDE
LON         .                                            8.099572 :LONGITUDE
ELEV        .M                                            24.0000 :SURFACE ELEV
ELEV_TYPE   .                                                  KB :ELEV TYPE
~CURVE INFORMATION
#MNEMONIC.UNIT        API CODE       : CURVE DESCRIPTION
#------------------------------------------------------------------------------
DEPTH    .M                          : Measured Depth
TVD      .M                          : True Vertical Depth (TVD)
TVDSS    .M                          : True Vertical Depth (TVDSS)
DT-SYNT  .UNKNOWN     UNKNOWN        : DT-SYNT:PETROWORKS:rC:NONE:v1 
GR       .API         UNKNOWN        : GR:UNKNOWN:rC:NONE:v1 
PHIF     .v/v_decimal UNKNOWN        : PHIF:UNKNOWN:rC:NONE:v1 
RHOB     .g/cm3       UNKNOWN        : RHOB:UNKNOWN:rC:NONE:v1 
~A     DEPTH         TVD       TVDSS      DT-SYNT           GR         PHIF         RHOB
# ...
   2016.4042   1900.0216  -1876.0216    -999.2500     204.8400    -999.2500    -999.2500
   2016.5566   1900.1580  -1876.1580    -999.2500     194.8000    -999.2500    -999.2500
   2016.7090   1900.2941  -1876.2941    -999.2500     183.3600    -999.2500    -999.2500
   2016.8615   1900.4304  -1876.4304    -999.2500     174.4100    -999.2500    -999.2500
   2017.0138   1900.5665  -1876.5665    -999.2500     161.0000    -999.2500    -999.2500
   2017.1663   1900.7029  -1876.7029    -999.2500     152.8700    -999.2500    -999.2500
   2017.3186   1900.8390  -1876.8390    -999.2500     155.7500    -999.2500    -999.2500
   2017.4711   1900.9752  -1876.9752    -999.2500     162.1400    -999.2500    -999.2500
   2017.6234   1901.1115  -1877.1115    -999.2500     149.6100    -999.2500    -999.2500
   2017.7759   1901.2477  -1877.2477    -999.2500     148.9700    -999.2500    -999.2500
   2017.9282   1901.3839  -1877.3839    -999.2500     156.9300    -999.2500    -999.2500
   2018.0806   1901.5200  -1877.5200    -999.2500     162.2200    -999.2500    -999.2500
   2018.2330   1901.6564  -1877.6564    -999.2500     164.6100    -999.2500    -999.2500
   2018.3854   1901.7925  -1877.7925    -999.2500     186.2900    -999.2500    -999.2500
   2018.5378   1901.9288  -1877.9288    -999.2500     186.2900    -999.2500    -999.2500
   2018.6902   1902.0649  -1878.0649    -999.2500     190.9400    -999.2500    -999.2500
   2018.8427   1902.2013  -1878.2013    -999.2500     190.9400    -999.2500    -999.2500
   2018.9950   1902.3374  -1878.3374    -999.2500     151.2400    -999.2500    -999.2500
   2019.1475   1902.4736  -1878.4736    -999.2500     142.9100    -999.2500    -999.2500
   2019.2998   1902.6099  -1878.6099    -999.2500     134.2900    -999.2500    -999.2500
   2019.4523   1902.7461  -1878.7461    -999.2500     146.5900    -999.2500    -999.2500
   2019.6046   1902.8823  -1878.8823    -999.2500     145.5000    -999.2500    -999.2500
   2019.7571   1903.0186  -1879.0186    -999.2500     144.1000    -999.2500    -999.2500
   2019.9094   1903.1548  -1879.1548    -999.2500     146.9800    -999.2500    -999.2500
   2020.0618   1903.2910  -1879.2910    -999.2500     156.1600    -999.2500    -999.2500
   2020.2142   1903.4274  -1879.4274    -999.2500     159.0400    -999.2500    -999.2500
   2020.3666   1903.5637  -1879.5637    -999.2500     160.2700    -999.2500    -999.2500
   2020.5190   1903.7001  -1879.7001    -999.2500     159.8000    -999.2500    -999.2500
   2020.6714   1903.8364  -1879.8364    -999.2500     155.7500    -999.2500    -999.2500
   2020.8239   1903.9729  -1879.9729    -999.2500     169.6900    -999.2500    -999.2500
   2020.9762   1904.1091  -1880.1091    -999.2500     162.8200    -999.2500    -999.2500
   2021.1287   1904.2456  -1880.2456    -999.2500     160.6100    -999.2500    -999.2500
   2021.2810   1904.3818  -1880.3818    -999.2500     146.6800    -999.2500    -999.2500
   2021.4335   1904.5183  -1880.5183    -999.2500     143.1100    -999.2500    -999.2500
   2021.5858   1904.6547  -1880.6547    -999.2500     140.3200    -999.2500    -999.2500
   2021.7382   1904.7909  -1880.7909    -999.2500     142.0700    -999.2500    -999.2500
   2021.8906   1904.9274  -1880.9274    -999.2500     142.9200    -999.2500    -999.2500
   2022.0430   1905.0636  -1881.0636    -999.2500     151.8100    -999.2500    -999.2500
   2022.1954   1905.2001  -1881.2001    -999.2500     169.7200    -999.2500    -999.2500
   2022.3478   1905.3364  -1881.3364    -999.2500     155.3500    -999.2500    -999.2500
   2022.5002   1905.4728  -1881.4728    -999.2500     158.2000    -999.2500    -999.2500
   2022.6526   1905.6091  -1881.6091    -999.2500     144.5200    -999.2500    -999.2500
   2022.8051   1905.7455  -1881.7455    -999.2500     139.5400    -999.2500    -999.2500
   2022.9574   1905.8818  -1881.8818    -999.2500     146.5200    -999.2500    -999.2500
   2023.1099   1906.0182  -1882.0182    -999.2500     159.4400    -999.2500    -999.2500
   2023.2622   1906.1545  -1882.1545    -999.2500     165.8200    -999.2500    -999.2500
   2023.4147   1906.2910  -1882.2910    -999.2500     166.6800    -999.2500    -999.2500
   2023.5670   1906.4272  -1882.4272    -999.2500     159.6000    -999.2500    -999.2500
   2023.7194   1906.5636  -1882.5636    -999.2500     158.7700    -999.2500    -999.2500
   2023.8718   1906.7000  -1882.7000    -999.2500     168.1300    -999.2500    -999.2500
   2024.0242   1906.8363  -1882.8363    -999.2500     155.6300    -999.2500    -999.2500
   2024.1766   1906.9727  -1882.9727    -999.2500     161.8200    -999.2500    -999.2500
   2024.3290   1907.1090  -1883.1090    -999.2500     162.8400    -999.2500    -999.2500
   2024.4814   1907.2455  -1883.2455    -999.2500     159.9900    -999.2500    -999.2500
   2024.6338   1907.3817  -1883.3817    -999.2500     152.5700    -999.2500    -999.2500
   2024.7863   1907.5182  -1883.5182    -999.2500     131.2400    -999.2500    -999.2500
   2024.9386   1907.6544  -1883.6544    -999.2500     131.2400    -999.2500    -999.2500
   2025.0911   1907.7909  -1883.7909    -999.2500     123.5800    -999.2500    -999.2500
   2025.2434   1907.9272  -1883.9272    -999.2500     123.5800    -999.2500    -999.2500
   2025.3959   1908.0636  -1884.0636    -999.2500     120.4900    -999.2500    -999.2500
   2025.5482   1908.2000  -1884.2000    -999.2500     120.4900    -999.2500    -999.2500
   2025.7006   1908.3362  -1884.3362    -999.2500     111.7100    -999.2500    -999.2500
   2025.8530   1908.4727  -1884.4727    -999.2500     115.8800    -999.2500    -999.2500
   2026.0054   1908.6090  -1884.6090    -999.2500     119.2300    -999.2500    -999.2500
   2026.1578   1908.7454  -1884.7454    -999.2500     113.7000    -999.2500    -999.2500
   2026.3102   1908.8817  -1884.8817    -999.2500     102.8400    -999.2500    -999.2500
   2026.4626   1909.0181  -1885.0181    -999.2500     121.1000    -999.2500    -999.2500
   2026.6150   1909.1544  -1885.1544    -999.2500     109.1000    -999.2500    -999.2500
   2026.7675   1909.2908  -1885.2908    -999.2500     117.6800    -999.2500    -999.2500
   2026.9198   1909.4271  -1885.4271    -999.2500     110.5400    -999.2500    -999.2500
   2027.0723   1909.5636  -1885.5636    -999.2500     104.6000    -999.2500    -999.2500
   2027.2246   1909.6998  -1885.6998    -999.2500     100.7800    -999.2500    -999.2500
   2027.3771   1909.8363  -1885.8363    -999.2500      95.8700    -999.2500    -999.2500
   2027.5294   1909.9725  -1885.9725    -999.2500     100.6100    -999.2500    -999.2500
   2027.6818   1910.1089  -1886.1089    -999.2500      89.9500    -999.2500    -999.2500
   2027.8342   1910.2454  -1886.2454    -999.2500      83.0600    -999.2500    -999.2500
   2027.9866   1910.3816  -1886.3816    -999.2500      91.0000    -999.2500    -999.2500
   2028.1390   1910.5181  -1886.5181    -999.2500      91.1800    -999.2500    -999.2500
   2028.2914   1910.6543  -1886.6543    -999.2500      87.3300    -999.2500    -999.2500
   2028.4438   1910.7908  -1886.7908    -999.2500      77.8100    -999.2500    -999.2500
   2028.5962   1910.9271  -1886.9271    -999.2500      83.3300    -999.2500    -999.2500
   2028.7487   1911.0635  -1887.0635    -999.2500      88.0600    -999.2500    -999.2500
   2028.9010   1911.1998  -1887.1998    -999.2500      90.3700    -999.2500    -999.2500
   2029.0535   1911.3362  -1887.3362    -999.2500      86.9400    -999.2500    -999.2500
   2029.2058   1911.4725  -1887.4725    -999.2500      90.8100    -999.2500    -999.2500
   2029.3583   1911.6089  -1887.6089    -999.2500      76.5300    -999.2500    -999.2500
   2029.5106   1911.7452  -1887.7452    -999.2500      85.8900    -999.2500    -999.2500
   2029.6630   1911.8816  -1887.8816    -999.2500      78.3300    -999.2500    -999.2500
   2029.8154   1912.0179  -1888.0179    -999.2500      82.9000    -999.2500    -999.2500
   2029.9678   1912.1543  -1888.1543    -999.2500      80.1000    -999.2500    -999.2500
