#------------------------------------------------------------------------------
#
#   Created by  : [OpenWorks] Log Export Utility (LEXP)
#   Created on  : 2008-05-07 10:33:00
#   Project     : NORNE
#   User        : TRAL
#   Interpreter : TRAL
#
#------------------------------------------------------------------------------
~VERSION INFORMATION
VERS. 2.0 : CWLS Log ASCII Standard - version 2.0
WRAP.  NO : One line per depth step
~WELL INFORMATION
#MNEMONIC   .UNIT                                           VALUE :DESCRIPTION
#------------------------------------------------------------------------------
STRT        .M                                             0.1522 :START DEPTH
STOP        .M                                          4349.9531 :STOP DEPTH
STEP        .M                                             0.1524 :STEP
NULL        .                                           -999.2500 :NULL VALUE
COMP        .                                             STATOIL :COMPANY
WELL        .                                       6608/10-E-1 H :WELL
FLD         .                                               NORNE :FIELD
LOC         .                                             UNKNOWN :LOCATION
CNTY        .                                             UNKNOWN :COUNTY
STAT        .                                             UNKNOWN :STATE
CTRY        .                                              Norway :COUNTRY
SRVC        .                                             UNKNOWN :SERVICE COMPANY
DATE        .                                             UNKNOWN :LOG DATE
UWI         .                                    NO 6608/10-E-1 H :UNIQUE WELL ID
XCOORD      .                                       459204.301905 :SURFACE X
YCOORD      .                                      7325445.854798 :SURFACE Y
LAT         .                                           66.045371 :LATITUDE
LON         .                                            8.099572 :LONGITUDE
ELEV        .M                                            24.0000 :SURFACE ELEV
ELEV_TYPE   .                                                  KB :ELEV TYPE
~CURVE INFORMATION
#MNEMONIC.UNIT        API CODE       : CURVE DESCRIPTION
#------------------------------------------------------------------------------
DEPTH    .M                          : Measured Depth
TVD      .M                          : True Vertical Depth (TVD)
TVDSS    .M                          : True Vertical Depth (TVDSS)
DT-SYNT  .UNKNOWN     UNKNOWN        : DT-SYNT:PETROWORKS:rC:NONE:v1 
GR       .API         UNKNOWN        : GR:UNKNOWN:rC:NONE:v1 
PHIF     .v/v_decimal UNKNOWN        : PHIF:UNKNOWN:rC:NONE:v1 
RHOB     .g/cm3       UNKNOWN        : RHOB:UNKNOWN:rC:NONE:v1 
~A     DEPTH         TVD       TVDSS      DT-SYNT           GR         PHIF         RHOB
# ...
   3813.2002   2624.1042  -2600.1042      96.7034      85.6800       0.2188       2.2500
   3813.3525   2624.1045  -2600.1045      96.7034      91.4400       0.2188       2.2500
   3813.5051   2624.1047  -2600.1047      97.5347      75.0800       0.2292       2.2300
   3813.6575   2624.1050  -2600.1050      97.5347      81.2200       0.2292       2.2300
   3813.8098   2624.1052  -2600.1052      97.1191      85.2400       0.2240       2.2400
   3813.9622   2624.1055  -2600.1055      97.1191      97.6000       0.2240       2.2400
   3814.1145   2624.1057  -2600.1057      97.1191      92.5200       0.2240       2.2400
   3814.2671   2624.1060  -2600.1060      97.5347      81.3200       0.2292       2.2300
   3814.4194   2624.1062  -2600.1062      97.9504      87.8800       0.2344       2.2200
   3814.5718   2624.1062  -2600.1062      97.5347      86.0300       0.2292       2.2300
   3814.7241   2624.1064  -2600.1064      97.5347      80.1800       0.2292       2.2300
   3814.8767   2624.1067  -2600.1067      96.7034      92.5000       0.2188       2.2500
   3815.0291   2624.1069  -2600.1069      96.7034      86.3200       0.2188       2.2500
   3815.1814   2624.1072  -2600.1072      97.1191      81.5700       0.2240       2.2400
   3815.3337   2624.1074  -2600.1074      97.1191      75.1700       0.2240       2.2400
   3815.4863   2624.1077  -2600.1077      97.1191      80.0100       0.2240       2.2400
   3815.6387   2624.1079  -2600.1079      97.1191      81.5400       0.2240       2.2400
   3815.7910   2624.1082  -2600.1082      98.3660      82.5100       0.2396       2.2100
   3815.9434   2624.1084  -2600.1084      98.3660      90.3000       0.2396       2.2100
   3816.0957   2624.1086  -2600.1086      97.5347      89.5400       0.2292       2.2300
   3816.2483   2624.1089  -2600.1089      97.5347      89.1500       0.2292       2.2300
   3816.4006   2624.1091  -2600.1091      97.5347      83.8800       0.2292       2.2300
   3816.5530   2624.1091  -2600.1091      96.7034      77.9000       0.2188       2.2500
   3816.7053   2624.1094  -2600.1094      95.8721      74.0200       0.2083       2.2700
   3816.8579   2624.1096  -2600.1096      95.4565      77.5900       0.2031       2.2800
   3817.0103   2624.1099  -2600.1099      95.0409      90.3000       0.1979       2.2900
   3817.1626   2624.1101  -2600.1101      95.0409      95.0700       0.1979       2.2900
   3817.3149   2624.1104  -2600.1104      95.0409      89.2000       0.1979       2.2900
   3817.4675   2624.1106  -2600.1106      95.8721      73.8900       0.2083       2.2700
   3817.6199   2624.1108  -2600.1108      96.7034      73.8900       0.2188       2.2500
   3817.7722   2624.1111  -2600.1111      98.7817      84.0100       0.2448       2.2000
   3817.9246   2624.1113  -2600.1113      98.7817      79.0300       0.2448       2.2000
   3818.0769   2624.1116  -2600.1116      97.5347      76.4900       0.2292       2.2300
   3818.2295   2624.1118  -2600.1118      96.2878      80.0500       0.2135       2.2600
   3818.3818   2624.1121  -2600.1121      94.6252      81.7600       0.1927       2.3000
   3818.5342   2624.1121  -2600.1121      95.8721      83.8800       0.2083       2.2700
   3818.6865   2624.1123  -2600.1123      97.1191      81.3700       0.2240       2.2400
   3818.8391   2624.1125  -2600.1125      98.3660      81.6300       0.2396       2.2100
   3818.9915   2624.1128  -2600.1128      99.6130      82.6000       0.2552       2.1800
   3819.1438   2624.1130  -2600.1130      98.7817      74.0200       0.2448       2.2000
   3819.2961   2624.1133  -2600.1133      98.7817      82.8000       0.2448       2.2000
   3819.4487   2624.1135  -2600.1135      97.5347      85.7700       0.2292       2.2300
   3819.6011   2624.1138  -2600.1138      97.5347      87.4800       0.2292       2.2300
   3819.7534   2624.1140  -2600.1140      97.5347      85.8600       0.2292       2.2300
   3819.9058   2624.1143  -2600.1143      97.5347      92.7400       0.2292       2.2300
   3820.0581   2624.1145  -2600.1145      97.1191      90.6900       0.2240       2.2400
   3820.2107   2624.1147  -2600.1147      97.1191      71.4700       0.2240       2.2400
   3820.3630   2624.1150  -2600.1150      96.7034      89.2000       0.2188       2.2500
   3820.5154   2624.1150  -2600.1150      96.7034      81.8200       0.2188       2.2500
   3820.6677   2624.1152  -2600.1152      97.1191      67.6000       0.2240       2.2400
   3820.8203   2624.1155  -2600.1155      97.1191      91.3100       0.2240       2.2400
   3820.9727   2624.1157  -2600.1157      97.1191      91.3100       0.2240       2.2400
   3821.1250   2624.1160  -2600.1160      96.7034      82.6400       0.2188       2.2500
   3821.2773   2624.1162  -2600.1162      96.7034      82.6400       0.2188       2.2500
   3821.4299   2624.1165  -2600.1165      95.8721      71.4700       0.2083       2.2700
   3821.5823   2624.1167  -2600.1167      95.4565      71.4700       0.2031       2.2800
   3821.7346   2624.1169  -2600.1169      95.8721      85.1500       0.2083       2.2700
   3821.8870   2624.1172  -2600.1172      96.2878      85.1500       0.2135       2.2600
   3822.0393   2624.1174  -2600.1174      97.9504      83.9500       0.2344       2.2200
   3822.1919   2624.1177  -2600.1177      97.9504      82.3300       0.2344       2.2200
   3822.3442   2624.1179  -2600.1179      97.9504      84.3900       0.2344       2.2200
   3822.4966   2624.1182  -2600.1182      98.7817      80.2700       0.2448       2.2000
   3822.6489   2624.1182  -2600.1182      99.6130      76.1700       0.2552       2.1800
   3822.8015   2624.1184  -2600.1184      99.1973      73.0200       0.2500       2.1900
   3822.9539   2624.1187  -2600.1187      97.5347      75.1200       0.2292       2.2300
   3823.1062   2624.1189  -2600.1189      97.5347      75.1200       0.2292       2.2300
   3823.2585   2624.1191  -2600.1191      97.5347      92.3700       0.2292       2.2300
   3823.4111   2624.1194  -2600.1194      98.3660      89.3600       0.2396       2.2100
   3823.5635   2624.1196  -2600.1196      97.9504      79.0600       0.2344       2.2200
   3823.7158   2624.1199  -2600.1199      97.9504      86.5100       0.2344       2.2200
   3823.8682   2624.1201  -2600.1201      97.9504      92.7600       0.2344       2.2200
   3824.0205   2624.1204  -2600.1204      98.3660      88.8600       0.2396       2.2100
   3824.1731   2624.1206  -2600.1206      98.7817      96.4900       0.2448       2.2000
   3824.3254   2624.1208  -2600.1208      98.7817     106.9000       0.2448       2.2000
   3824.4778   2624.1211  -2600.1211      99.1973      91.5700       0.2500       2.1900
   3824.6301   2624.1211  -2600.1211      99.1973      95.1400       0.2500       2.1900
   3824.7827   2624.1213  -2600.1213     100.4443      89.5100       0.2656       2.1600
   3824.9351   2624.1216  -2600.1216     100.4443      85.2600       0.2656       2.1600
   3825.0874   2624.1218  -2600.1218     100.4443      81.0200       0.2656       2.1600
   3825.2397   2624.1221  -2600.1221     100.8599      76.7700       0.2708       2.1500
   3825.3923   2624.1223  -2600.1223     100.0286      72.5300       0.2604       2.1700
   3825.5447   2624.1226  -2600.1226      99.6130      72.5300       0.2552       2.1800
   3825.6970   2624.1228  -2600.1228      99.1973      73.1900       0.2500       2.1900
   3825.8494   2624.1230  -2600.1230      99.1973      73.8500       0.2500       2.1900
   3826.0017   2624.1233  -2600.1233      99.1973      75.2800       0.2500       2.1900
   3826.1543   2624.1235  -2600.1235     100.4443      76.0300       0.2656       2.1600
   3826.3066   2624.1238  -2600.1238     101.2756      73.8900       0.2760       2.1400
   3826.4590   2624.1240  -2600.1240      97.9504      58.9800       0.2344       2.2200
   3826.6113   2624.1240  -2600.1240      99.1973      65.0900       0.2500       2.1900
   3826.7639   2624.1243  -2600.1243     100.4443      66.2000       0.2656       2.1600
