#------------------------------------------------------------------------------
#
#   Created by  : [OpenWorks] Log Export Utility (LEXP)
#   Created on  : 2008-05-07 10:33:00
#   Project     : NORNE
#   User        : TRAL
#   Interpreter : TRAL
#
#------------------------------------------------------------------------------
~VERSION INFORMATION
VERS. 2.0 : CWLS Log ASCII Standard - version 2.0
WRAP.  NO : One line per depth step
~WELL INFORMATION
#MNEMONIC   .UNIT                                           VALUE :DESCRIPTION
#------------------------------------------------------------------------------
STRT        .M                                             0.1522 :START DEPTH
STOP        .M                                          4349.9531 :STOP DEPTH
STEP        .M                                             0.1524 :STEP
NULL        .                                           -999.2500 :NULL VALUE
COMP        .                                             STATOIL :COMPANY
WELL        .                                       6608/10-E-1 H :WELL
FLD         .                                               NORNE :FIELD
LOC         .                                             UNKNOWN :LOCATION
CNTY        .                                             UNKNOWN :COUNTY
STAT        .                                             UNKNOWN :STATE
CTRY        .                                              Norway :COUNTRY
SRVC        .                                             UNKNOWN :SERVICE COMPANY
DATE        .                                             UNKNOWN :LOG DATE
UWI         .                                    NO 6608/10-E-1 H :UNIQUE WELL ID
XCOORD      .                                       459204.301905 :SURFACE X
YCOORD      .                                      7325445.854798 :SURFACE Y
LAT         .                                           66.045371 :LATITUDE
LON         .                                            8.099572 :LONGITUDE
ELEV        .M                                            24.0000 :SURFACE ELEV
ELEV_TYPE   .                                                  KB :ELEV TYPE
~CURVE INFORMATION
#MNEMONIC.UNIT        API CODE       : CURVE DESCRIPTION
#------------------------------------------------------------------------------
DEPTH    .M                          : Measured Depth
TVD      .M                          : True Vertical Depth (TVD)
TVDSS    .M                          : True Vertical Depth (TVDSS)
DT-SYNT  .UNKNOWN     UNKNOWN        : DT-SYNT:PETROWORKS:rC:NONE:v1 
GR       .API         UNKNOWN        : GR:UNKNOWN:rC:NONE:v1 
PHIF     .v/v_decimal UNKNOWN        : PHIF:UNKNOWN:rC:NONE:v1 
RHOB     .g/cm3       UNKNOWN        : RHOB:UNKNOWN:rC:NONE:v1 
~A     DEPTH         TVD       TVDSS      DT-SYNT           GR         PHIF         RHOB
# ...
   2523.8962   2330.5437  -2306.5437    -999.2500      97.3900    -999.2500    -999.2500
   2524.0486   2330.6550  -2306.6550    -999.2500      89.2500    -999.2500    -999.2500
   2524.2009   2330.7664  -2306.7664    -999.2500      93.8400    -999.2500    -999.2500
   2524.3535   2330.8777  -2306.8777    -999.2500      94.9500    -999.2500    -999.2500
   2524.5059   2330.9890  -2306.9890    -999.2500      89.2800    -999.2500    -999.2500
   2524.6582   2331.1003  -2307.1003    -999.2500      97.1600    -999.2500    -999.2500
   2524.8105   2331.2117  -2307.2117    -999.2500      90.3500    -999.2500    -999.2500
   2524.9631   2331.3230  -2307.3230    -999.2500      86.4400    -999.2500    -999.2500
   2525.1155   2331.4343  -2307.4343    -999.2500      88.7100    -999.2500    -999.2500
   2525.2678   2331.5457  -2307.5457    -999.2500      85.2200    -999.2500    -999.2500
   2525.4202   2331.6570  -2307.6570    -999.2500      85.7800    -999.2500    -999.2500
   2525.5725   2331.7681  -2307.7681    -999.2500     101.2700    -999.2500    -999.2500
   2525.7251   2331.8796  -2307.8796    -999.2500      94.1300    -999.2500    -999.2500
   2525.8774   2331.9910  -2307.9910    -999.2500      93.0200    -999.2500    -999.2500
   2526.0298   2332.1021  -2308.1021    -999.2500      99.1400    -999.2500    -999.2500
   2526.1821   2332.2134  -2308.2134    -999.2500      90.5700    -999.2500    -999.2500
   2526.3347   2332.3250  -2308.3250    -999.2500      78.4200    -999.2500    -999.2500
   2526.4871   2332.4360  -2308.4360    -999.2500      57.9600    -999.2500    -999.2500
   2526.6394   2332.5474  -2308.5474    -999.2500      65.8400    -999.2500    -999.2500
   2526.7917   2332.6587  -2308.6587    -999.2500      79.4200    -999.2500    -999.2500
   2526.9443   2332.7700  -2308.7700    -999.2500      95.8800    -999.2500    -999.2500
   2527.0967   2332.8813  -2308.8813    -999.2500     101.1300    -999.2500    -999.2500
   2527.2490   2332.9927  -2308.9927    -999.2500      97.9600    -999.2500    -999.2500
   2527.4014   2333.1040  -2309.1040    -999.2500      91.1400    -999.2500    -999.2500
   2527.5537   2333.2151  -2309.2151    -999.2500      97.8100    -999.2500    -999.2500
   2527.7063   2333.3267  -2309.3267    -999.2500      87.2900    -999.2500    -999.2500
   2527.8586   2333.4380  -2309.4380    -999.2500      96.0700    -999.2500    -999.2500
   2528.0110   2333.5491  -2309.5491    -999.2500      82.1700    -999.2500    -999.2500
   2528.1633   2333.6604  -2309.6604    -999.2500      75.0700    -999.2500    -999.2500
   2528.3159   2333.7720  -2309.7720    -999.2500      87.6300    -999.2500    -999.2500
   2528.4683   2333.8831  -2309.8831    -999.2500      84.8500    -999.2500    -999.2500
   2528.6206   2333.9944  -2309.9944    -999.2500      97.8100    -999.2500    -999.2500
   2528.7729   2334.1057  -2310.1057    -999.2500      89.1100    -999.2500    -999.2500
   2528.9255   2334.2173  -2310.2173    -999.2500      94.5900    -999.2500    -999.2500
   2529.0779   2334.3284  -2310.3284    -999.2500      92.4600    -999.2500    -999.2500
   2529.2302   2334.4397  -2310.4397    -999.2500      92.7200    -999.2500    -999.2500
   2529.3826   2334.5510  -2310.5510    -999.2500      89.1800    -999.2500    -999.2500
   2529.5349   2334.6624  -2310.6624    -999.2500      84.3600    -999.2500    -999.2500
   2529.6875   2334.7737  -2310.7737    -999.2500      94.1100    -999.2500    -999.2500
   2529.8398   2334.8850  -2310.8850    -999.2500      98.8400    -999.2500    -999.2500
   2529.9922   2334.9963  -2310.9963    -999.2500      89.4100    -999.2500    -999.2500
   2530.1445   2335.1067  -2311.1067    -999.2500      90.4000    -999.2500    -999.2500
   2530.2971   2335.2170  -2311.2170    -999.2500      91.7000    -999.2500    -999.2500
   2530.4495   2335.3274  -2311.3274    -999.2500      96.4800    -999.2500    -999.2500
   2530.6018   2335.4377  -2311.4377    -999.2500     100.3200    -999.2500    -999.2500
   2530.7542   2335.5481  -2311.5481    -999.2500      92.1700    -999.2500    -999.2500
   2530.9067   2335.6584  -2311.6584    -999.2500      85.7400    -999.2500    -999.2500
   2531.0591   2335.7688  -2311.7688    -999.2500      86.4600    -999.2500    -999.2500
   2531.2114   2335.8792  -2311.8792    -999.2500      86.8200    -999.2500    -999.2500
   2531.3638   2335.9895  -2311.9895    -999.2500      93.6600    -999.2500    -999.2500
   2531.5161   2336.0996  -2312.0996    -999.2500      89.7900    -999.2500    -999.2500
   2531.6687   2336.2102  -2312.2102    -999.2500      89.2100    -999.2500    -999.2500
   2531.8210   2336.3206  -2312.3206    -999.2500      94.2000    -999.2500    -999.2500
   2531.9734   2336.4307  -2312.4307    -999.2500      95.4200    -999.2500    -999.2500
   2532.1257   2336.5410  -2312.5410    -999.2500      91.2600    -999.2500    -999.2500
   2532.2783   2336.6516  -2312.6516    -999.2500      92.0800    -999.2500    -999.2500
   2532.4307   2336.7620  -2312.7620    -999.2500      93.5300    -999.2500    -999.2500
   2532.5830   2336.8721  -2312.8721    -999.2500      88.5300    -999.2500    -999.2500
   2532.7354   2336.9824  -2312.9824    -999.2500      85.6800    -999.2500    -999.2500
   2532.8879   2337.0930  -2313.0930    -999.2500      87.4200    -999.2500    -999.2500
   2533.0403   2337.2034  -2313.2034    -999.2500      92.7500    -999.2500    -999.2500
   2533.1926   2337.3135  -2313.3135    -999.2500      95.3700    -999.2500    -999.2500
   2533.3450   2337.4238  -2313.4238    -999.2500      93.1700    -999.2500    -999.2500
   2533.4973   2337.5342  -2313.5342    -999.2500      89.6200    -999.2500    -999.2500
   2533.6499   2337.6448  -2313.6448    -999.2500      93.1700    -999.2500    -999.2500
   2533.8022   2337.7549  -2313.7549    -999.2500      92.3700    -999.2500    -999.2500
   2533.9546   2337.8652  -2313.8652    -999.2500      92.0900    -999.2500    -999.2500
   2534.1069   2337.9756  -2313.9756    -999.2500      94.4900    -999.2500    -999.2500
   2534.2595   2338.0859  -2314.0859    -999.2500      87.2100    -999.2500    -999.2500
   2534.4119   2338.1963  -2314.1963    -999.2500      82.5400    -999.2500    -999.2500
   2534.5642   2338.3066  -2314.3066    -999.2500      89.6700    -999.2500    -999.2500
   2534.7166   2338.4170  -2314.4170    -999.2500      97.7300    -999.2500    -999.2500
   2534.8691   2338.5273  -2314.5273    -999.2500      99.1500    -999.2500    -999.2500
   2535.0215   2338.6377  -2314.6377    -999.2500      97.9600    -999.2500    -999.2500
   2535.1738   2338.7480  -2314.7480    -999.2500     100.3600    -999.2500    -999.2500
   2535.3262   2338.8584  -2314.8584    -999.2500      99.4400    -999.2500    -999.2500
   2535.4785   2338.9688  -2314.9688    -999.2500      94.5900    -999.2500    -999.2500
   2535.6311   2339.0791  -2315.0791    -999.2500      86.9800    -999.2500    -999.2500
   2535.7834   2339.1895  -2315.1895    -999.2500      88.3900    -999.2500    -999.2500
   2535.9358   2339.2998  -2315.2998    -999.2500      88.6000    -999.2500    -999.2500
   2536.0881   2339.4102  -2315.4102    -999.2500      83.9800    -999.2500    -999.2500
   2536.2407   2339.5205  -2315.5205    -999.2500      93.5500    -999.2500    -999.2500
   2536.3931   2339.6309  -2315.6309    -999.2500      92.5000    -999.2500    -999.2500
   2536.5454   2339.7412  -2315.7412    -999.2500     102.6600    -999.2500    -999.2500
   2536.6978   2339.8516  -2315.8516    -999.2500     103.2100    -999.2500    -999.2500
   2536.8501   2339.9617  -2315.9617    -999.2500     102.2900    -999.2500    -999.2500
   2537.0027   2340.0723  -2316.0723    -999.2500      93.0800    -999.2500    -999.2500
   2537.1550   2340.1826  -2316.1826    -999.2500      93.0800    -999.2500    -999.2500
   2537.3074   2340.2927  -2316.2927    -999.2500      88.5700    -999.2500    -999.2500
   2537.4597   2340.4031  -2316.4031    -999.2500      88.5700    -999.2500    -999.2500
