#------------------------------------------------------------------------------
#
#   Created by  : [OpenWorks] Log Export Utility (LEXP)
#   Created on  : 2008-05-07 10:33:46
#   Project     : NORNE
#   User        : TRAL
#   Interpreter : TRAL
#
#------------------------------------------------------------------------------
~VERSION INFORMATION
VERS. 2.0 : CWLS Log ASCII Standard - version 2.0
WRAP.  NO : One line per depth step
~WELL INFORMATION
#MNEMONIC   .UNIT                                           VALUE :DESCRIPTION
#------------------------------------------------------------------------------
STRT        .M                                          1300.1244 :START DEPTH
STOP        .M                                          4299.9658 :STOP DEPTH
STEP        .M                                             0.1524 :STEP
NULL        .                                           -999.2500 :NULL VALUE
COMP        .                                             STATOIL :COMPANY
WELL        .                                       6608/10-B-1 H :WELL
FLD         .                                               NORNE :FIELD
LOC         .                                             UNKNOWN :LOCATION
CNTY        .                                             UNKNOWN :COUNTY
STAT        .                                             UNKNOWN :STATE
CTRY        .                                              Norway :COUNTRY
SRVC        .                                             UNKNOWN :SERVICE COMPANY
DATE        .                                             UNKNOWN :LOG DATE
UWI         .                                    NO 6608/10-B-1 H :UNIQUE WELL ID
XCOORD      .                                       457125.588297 :SURFACE X
YCOORD      .                                      7322128.215510 :SURFACE Y
LAT         .                                           66.015337 :LATITUDE
LON         .                                            8.054802 :LONGITUDE
ELEV        .M                                            22.0000 :SURFACE ELEV
ELEV_TYPE   .                                                  KB :ELEV TYPE
~CURVE INFORMATION
#MNEMONIC.UNIT        API CODE       : CURVE DESCRIPTION
#------------------------------------------------------------------------------
DEPTH    .M                          : Measured Depth
TVD      .M                          : True Vertical Depth (TVD)
TVDSS    .M                          : True Vertical Depth (TVDSS)
DT-SYNT  .UNKNOWN     UNKNOWN        : DT-SYNT:PETROWORKS:rC:NONE:v1 
GR       .API         UNKNOWN        : GR:UNKNOWN:r1:MAIN:v1 
PHIF     .v/v_decimal UNKNOWN        : PHIF:UNKNOWN:r1:MAIN:v1 
RHOB     .g/cm3       UNKNOWN        : RHOB:UNKNOWN:r1:MAIN:v1 
~A     DEPTH         TVD       TVDSS      DT-SYNT           GR         PHIF         RHOB
# ...
   1889.9124   1819.9939  -1797.9939    -999.2500      53.2632    -999.2500    -999.2500
   1890.0648   1820.1217  -1798.1217    -999.2500      51.4469    -999.2500    -999.2500
   1890.2172   1820.2509  -1798.2509    -999.2500      49.6307    -999.2500    -999.2500
   1890.3696   1820.3801  -1798.3801    -999.2500      47.8144    -999.2500    -999.2500
   1890.5220   1820.5093  -1798.5093    -999.2500      45.9981    -999.2500    -999.2500
   1890.6744   1820.6385  -1798.6385    -999.2500      44.1819    -999.2500    -999.2500
   1890.8268   1820.7677  -1798.7677    -999.2500      42.3656    -999.2500    -999.2500
   1890.9792   1820.8970  -1798.8970    -999.2500      40.5493    -999.2500    -999.2500
   1891.1316   1821.0261  -1799.0261    -999.2500      38.7330    -999.2500    -999.2500
   1891.2839   1821.1553  -1799.1553    -999.2500      36.9168    -999.2500    -999.2500
   1891.4364   1821.2845  -1799.2845    -999.2500      35.1005    -999.2500    -999.2500
   1891.5887   1821.4137  -1799.4137    -999.2500      33.2842    -999.2500    -999.2500
   1891.7412   1821.5430  -1799.5430    -999.2500      31.4679    -999.2500    -999.2500
   1891.8936   1821.6721  -1799.6721    -999.2500      29.6517    -999.2500    -999.2500
   1892.0460   1821.8014  -1799.8014    -999.2500      27.8354    -999.2500    -999.2500
   1892.1984   1821.9305  -1799.9305    -999.2500      26.0191    -999.2500    -999.2500
   1892.3508   1822.0598  -1800.0598    -999.2500      24.2028    -999.2500    -999.2500
   1892.5032   1822.1890  -1800.1890    -999.2500      22.3866    -999.2500    -999.2500
   1892.6556   1822.3181  -1800.3181    -999.2500      20.8724    -999.2500    -999.2500
   1892.8080   1822.4473  -1800.4473    -999.2500      22.9864    -999.2500    -999.2500
   1892.9604   1822.5765  -1800.5765    -999.2500      26.4924    -999.2500    -999.2500
   1893.1128   1822.7057  -1800.7057    -999.2500      26.8574    -999.2500    -999.2500
   1893.2651   1822.8348  -1800.8348    -999.2500      25.9984    -999.2500    -999.2500
   1893.4176   1822.9641  -1800.9641    -999.2500      33.9864    -999.2500    -999.2500
   1893.5699   1823.0933  -1801.0933    -999.2500      43.4834    -999.2500    -999.2500
   1893.7224   1823.2225  -1801.2225    -999.2500      44.0944    -999.2500    -999.2500
   1893.8748   1823.3517  -1801.3517    -999.2500      49.7144    -999.2500    -999.2500
   1894.0272   1823.4810  -1801.4810    -999.2500      48.3364    -999.2500    -999.2500
   1894.1796   1823.6101  -1801.6101    -999.2500      40.5804    -999.2500    -999.2500
   1894.3320   1823.7394  -1801.7394    -999.2500      27.4034    -999.2500    -999.2500
   1894.4844   1823.8685  -1801.8685    -999.2500      27.2244    -999.2500    -999.2500
   1894.6368   1823.9978  -1801.9978    -999.2500      27.0454    -999.2500    -999.2500
   1894.7892   1824.1270  -1802.1270    -999.2500      26.6874    -999.2500    -999.2500
   1894.9417   1824.2562  -1802.2562    -999.2500      26.5084    -999.2500    -999.2500
   1895.0940   1824.3854  -1802.3854    -999.2500      26.1504    -999.2500    -999.2500
   1895.2463   1824.5145  -1802.5145    -999.2500      26.1504    -999.2500    -999.2500
   1895.3988   1824.6438  -1802.6438    -999.2500      31.3564    -999.2500    -999.2500
   1895.5511   1824.7729  -1802.7729    -999.2500      37.4604    -999.2500    -999.2500
   1895.7036   1824.9022  -1802.9022    -999.2500      41.9084    -999.2500    -999.2500
   1895.8560   1825.0314  -1803.0314    -999.2500      43.3104    -999.2500    -999.2500
   1896.0084   1825.1605  -1803.1605    -999.2500      39.3094    -999.2500    -999.2500
   1896.1608   1825.2898  -1803.2898    -999.2500      40.4834    -999.2500    -999.2500
   1896.3132   1825.4189  -1803.4189    -999.2500      46.9614    -999.2500    -999.2500
   1896.4656   1825.5481  -1803.5481    -999.2500      46.1254    -999.2500    -999.2500
   1896.6180   1825.6774  -1803.6774    -999.2500      44.8064    -999.2500    -999.2500
   1896.7704   1825.8065  -1803.8065    -999.2500      43.6434    -999.2500    -999.2500
   1896.9227   1825.9357  -1803.9357    -999.2500      36.8864    -999.2500    -999.2500
   1897.0752   1826.0649  -1804.0649    -999.2500      34.6124    -999.2500    -999.2500
   1897.2275   1826.1941  -1804.1941    -999.2500      37.9534    -999.2500    -999.2500
   1897.3800   1826.3234  -1804.3234    -999.2500      37.9664    -999.2500    -999.2500
   1897.5323   1826.4525  -1804.4525    -999.2500      34.5304    -999.2500    -999.2500
   1897.6848   1826.5818  -1804.5818    -999.2500      36.1554    -999.2500    -999.2500
   1897.8372   1826.7109  -1804.7109    -999.2500      42.9304    -999.2500    -999.2500
   1897.9896   1826.8402  -1804.8402    -999.2500      39.8754    -999.2500    -999.2500
   1898.1420   1826.9694  -1804.9694    -999.2500      38.6484    -999.2500    -999.2500
   1898.2944   1827.0986  -1805.0986    -999.2500      37.8924    -999.2500    -999.2500
   1898.4468   1827.2278  -1805.2278    -999.2500      38.0624    -999.2500    -999.2500
   1898.5992   1827.3571  -1805.3571    -999.2500      32.5294    -999.2500    -999.2500
   1898.7516   1827.4862  -1805.4862    -999.2500      32.5294    -999.2500    -999.2500
   1898.9039   1827.6154  -1805.6154    -999.2500      30.9154    -999.2500    -999.2500
   1899.0564   1827.7446  -1805.7446    -999.2500      31.3044    -999.2500    -999.2500
   1899.2087   1827.8738  -1805.8738    -999.2500      37.9894    -999.2500    -999.2500
   1899.3612   1828.0031  -1806.0031    -999.2500      40.6134    -999.2500    -999.2500
   1899.5135   1828.1322  -1806.1322    -999.2500      31.9944    -999.2500    -999.2500
   1899.6660   1828.2614  -1806.2614    -999.2500      29.4054    -999.2500    -999.2500
   1899.8184   1828.3906  -1806.3906    -999.2500      52.5124    -999.2500    -999.2500
   1899.9708   1828.5198  -1806.5198    -999.2500      50.3324    -999.2500    -999.2500
   1900.1232   1828.6510  -1806.6510    -999.2500      46.1644    -999.2500    -999.2500
   1900.2756   1828.7827  -1806.7827    -999.2500      43.5334    -999.2500    -999.2500
   1900.4280   1828.9143  -1806.9143    -999.2500      31.9794    -999.2500    -999.2500
   1900.5804   1829.0460  -1807.0460    -999.2500      30.5734    -999.2500    -999.2500
   1900.7328   1829.1776  -1807.1776    -999.2500      30.5074    -999.2500    -999.2500
   1900.8851   1829.3092  -1807.3092    -999.2500      28.7074    -999.2500    -999.2500
   1901.0376   1829.4409  -1807.4409    -999.2500      32.5424    -999.2500    -999.2500
   1901.1899   1829.5725  -1807.5725    -999.2500      40.4354    -999.2500    -999.2500
   1901.3424   1829.7042  -1807.7042    -999.2500      35.2224    -999.2500    -999.2500
   1901.4948   1829.8358  -1807.8358    -999.2500      38.4104    -999.2500    -999.2500
   1901.6472   1829.9675  -1807.9675    -999.2500      45.1564    -999.2500    -999.2500
   1901.7996   1830.0991  -1808.0991    -999.2500      53.2614    -999.2500    -999.2500
   1901.9520   1830.2308  -1808.2308    -999.2500      48.8184    -999.2500    -999.2500
   1902.1044   1830.3625  -1808.3625    -999.2500      33.9394    -999.2500    -999.2500
   1902.2568   1830.4943  -1808.4943    -999.2500      34.8664    -999.2500    -999.2500
   1902.4092   1830.6259  -1808.6259    -999.2500      55.9384    -999.2500    -999.2500
   1902.5616   1830.7576  -1808.7576    -999.2500      38.4904    -999.2500    -999.2500
   1902.7140   1830.8892  -1808.8892    -999.2500      41.2634    -999.2500    -999.2500
   1902.8663   1831.0208  -1809.0208    -999.2500      41.6894    -999.2500    -999.2500
   1903.0188   1831.1525  -1809.1525    -999.2500      41.2904    -999.2500    -999.2500
   1903.1711   1831.2841  -1809.2841    -999.2500      41.5054    -999.2500    -999.2500
   1903.3236   1831.4158  -1809.4158    -999.2500      29.7724    -999.2500    -999.2500
   1903.4760   1831.5474  -1809.5474    -999.2500      36.6664    -999.2500    -999.2500
