#------------------------------------------------------------------------------
#
#   Created by  : [OpenWorks] Log Export Utility (LEXP)
#   Created on  : 2008-05-07 10:33:46
#   Project     : NORNE
#   User        : TRAL
#   Interpreter : TRAL
#
#------------------------------------------------------------------------------
~VERSION INFORMATION
VERS. 2.0 : CWLS Log ASCII Standard - version 2.0
WRAP.  NO : One line per depth step
~WELL INFORMATION
#MNEMONIC   .UNIT                                           VALUE :DESCRIPTION
#------------------------------------------------------------------------------
STRT        .M                                          1300.1244 :START DEPTH
STOP        .M                                          4299.9658 :STOP DEPTH
STEP        .M                                             0.1524 :STEP
NULL        .                                           -999.2500 :NULL VALUE
COMP        .                                             STATOIL :COMPANY
WELL        .                                       6608/10-B-1 H :WELL
FLD         .                                               NORNE :FIELD
LOC         .                                             UNKNOWN :LOCATION
CNTY        .                                             UNKNOWN :COUNTY
STAT        .                                             UNKNOWN :STATE
CTRY        .                                              Norway :COUNTRY
SRVC        .                                             UNKNOWN :SERVICE COMPANY
DATE        .                                             UNKNOWN :LOG DATE
UWI         .                                    NO 6608/10-B-1 H :UNIQUE WELL ID
XCOORD      .                                       457125.588297 :SURFACE X
YCOORD      .                                      7322128.215510 :SURFACE Y
LAT         .                                           66.015337 :LATITUDE
LON         .                                            8.054802 :LONGITUDE
ELEV        .M                                            22.0000 :SURFACE ELEV
ELEV_TYPE   .                                                  KB :ELEV TYPE
~CURVE INFORMATION
#MNEMONIC.UNIT        API CODE       : CURVE DESCRIPTION
#------------------------------------------------------------------------------
DEPTH    .M                          : Measured Depth
TVD      .M                          : True Vertical Depth (TVD)
TVDSS    .M                          : True Vertical Depth (TVDSS)
DT-SYNT  .UNKNOWN     UNKNOWN        : DT-SYNT:PETROWORKS:rC:NONE:v1 
GR       .API         UNKNOWN        : GR:UNKNOWN:r1:MAIN:v1 
PHIF     .v/v_decimal UNKNOWN        : PHIF:UNKNOWN:r1:MAIN:v1 
RHOB     .g/cm3       UNKNOWN        : RHOB:UNKNOWN:r1:MAIN:v1 
~A     DEPTH         TVD       TVDSS      DT-SYNT           GR         PHIF         RHOB
# ...
   1492.1484   1487.7626  -1465.7626    -999.2500      45.4404    -999.2500    -999.2500
   1492.3008   1487.9064  -1465.9064    -999.2500      59.9064    -999.2500    -999.2500
   1492.4532   1488.0504  -1466.0504    -999.2500      74.3724    -999.2500    -999.2500
   1492.6056   1488.1942  -1466.1942    -999.2500      74.3724    -999.2500    -999.2500
   1492.7579   1488.3381  -1466.3381    -999.2500      74.3724    -999.2500    -999.2500
   1492.9104   1488.4821  -1466.4821    -999.2500      67.9774    -999.2500    -999.2500
   1493.0627   1488.6260  -1466.6260    -999.2500      61.5814    -999.2500    -999.2500
   1493.2152   1488.7699  -1466.7699    -999.2500      55.1864    -999.2500    -999.2500
   1493.3676   1488.9137  -1466.9137    -999.2500      55.1864    -999.2500    -999.2500
   1493.5200   1489.0577  -1467.0577    -999.2500      50.6844    -999.2500    -999.2500
   1493.6724   1489.2015  -1467.2015    -999.2500      48.3514    -999.2500    -999.2500
   1493.8248   1489.3456  -1467.3456    -999.2500      50.6154    -999.2500    -999.2500
   1493.9772   1489.4894  -1467.4894    -999.2500      51.0954    -999.2500    -999.2500
   1494.1296   1489.6333  -1467.6333    -999.2500      47.2144    -999.2500    -999.2500
   1494.2820   1489.7772  -1467.7772    -999.2500      55.6144    -999.2500    -999.2500
   1494.4344   1489.9211  -1467.9211    -999.2500      60.2784    -999.2500    -999.2500
   1494.5868   1490.0651  -1468.0651    -999.2500      59.1054    -999.2500    -999.2500
   1494.7391   1490.2089  -1468.2089    -999.2500      59.5524    -999.2500    -999.2500
   1494.8916   1490.3528  -1468.3528    -999.2500      61.5144    -999.2500    -999.2500
   1495.0439   1490.4967  -1468.4967    -999.2500      62.9034    -999.2500    -999.2500
   1495.1964   1490.6406  -1468.6406    -999.2500      58.6394    -999.2500    -999.2500
   1495.3488   1490.7845  -1468.7845    -999.2500      56.9134    -999.2500    -999.2500
   1495.5012   1490.9285  -1468.9285    -999.2500      57.4424    -999.2500    -999.2500
   1495.6536   1491.0724  -1469.0724    -999.2500      56.2874    -999.2500    -999.2500
   1495.8060   1491.2163  -1469.2163    -999.2500      56.4344    -999.2500    -999.2500
   1495.9584   1491.3601  -1469.3601    -999.2500      56.5814    -999.2500    -999.2500
   1496.1108   1491.5042  -1469.5042    -999.2500      56.8764    -999.2500    -999.2500
   1496.2632   1491.6479  -1469.6479    -999.2500      57.0244    -999.2500    -999.2500
   1496.4156   1491.7920  -1469.7920    -999.2500      57.3184    -999.2500    -999.2500
   1496.5680   1491.9358  -1469.9358    -999.2500      57.4664    -999.2500    -999.2500
   1496.7203   1492.0796  -1470.0796    -999.2500      57.7604    -999.2500    -999.2500
   1496.8728   1492.2236  -1470.2236    -999.2500      57.9084    -999.2500    -999.2500
   1497.0251   1492.3674  -1470.3674    -999.2500      58.2034    -999.2500    -999.2500
   1497.1776   1492.5115  -1470.5115    -999.2500      58.3504    -999.2500    -999.2500
   1497.3300   1492.6553  -1470.6553    -999.2500      58.6454    -999.2500    -999.2500
   1497.4824   1492.7993  -1470.7993    -999.2500      58.9394    -999.2500    -999.2500
   1497.6348   1492.9431  -1470.9431    -999.2500      59.0874    -999.2500    -999.2500
   1497.7872   1493.0870  -1471.0870    -999.2500      59.3824    -999.2500    -999.2500
   1497.9396   1493.2310  -1471.2310    -999.2500      59.5294    -999.2500    -999.2500
   1498.0920   1493.3749  -1471.3749    -999.2500      59.8244    -999.2500    -999.2500
   1498.2444   1493.5188  -1471.5188    -999.2500      59.9714    -999.2500    -999.2500
   1498.3969   1493.6627  -1471.6627    -999.2500      60.2664    -999.2500    -999.2500
   1498.5492   1493.8065  -1471.8065    -999.2500      60.4134    -999.2500    -999.2500
   1498.7015   1493.9504  -1471.9504    -999.2500      60.7084    -999.2500    -999.2500
   1498.8540   1494.0944  -1472.0944    -999.2500      60.8554    -999.2500    -999.2500
   1499.0063   1494.2383  -1472.2383    -999.2500      61.1504    -999.2500    -999.2500
   1499.1588   1494.3822  -1472.3822    -999.2500      61.2974    -999.2500    -999.2500
   1499.3112   1494.5261  -1472.5261    -999.2500      61.5924    -999.2500    -999.2500
   1499.4636   1494.6700  -1472.6700    -999.2500      61.7404    -999.2500    -999.2500
   1499.6160   1494.8138  -1472.8138    -999.2500      62.0344    -999.2500    -999.2500
   1499.7684   1494.9579  -1472.9579    -999.2500      62.1824    -999.2500    -999.2500
   1499.9208   1495.1017  -1473.1017    -999.2500      62.4764    -999.2500    -999.2500
   1500.0732   1495.2454  -1473.2454    -999.2500      62.6244    -999.2500    -999.2500
   1500.2256   1495.3887  -1473.3887    -999.2500      62.9194    -999.2500    -999.2500
   1500.3779   1495.5320  -1473.5320    -999.2500      62.9194    -999.2500    -999.2500
   1500.5304   1495.6754  -1473.6754    -999.2500      62.9194    -999.2500    -999.2500
   1500.6827   1495.8187  -1473.8187    -999.2500      48.2504    -999.2500    -999.2500
   1500.8352   1495.9622  -1473.9622    -999.2500      33.5824    -999.2500    -999.2500
   1500.9875   1496.1055  -1474.1055    -999.2500      33.5824    -999.2500    -999.2500
   1501.1400   1496.2489  -1474.2489    -999.2500      33.5824    -999.2500    -999.2500
   1501.2924   1496.3922  -1474.3922    -999.2500      46.5924    -999.2500    -999.2500
   1501.4448   1496.5356  -1474.5356    -999.2500      59.6034    -999.2500    -999.2500
   1501.5972   1496.6790  -1474.6790    -999.2500      59.6034    -999.2500    -999.2500
   1501.7496   1496.8224  -1474.8224    -999.2500      59.6034    -999.2500    -999.2500
   1501.9020   1496.9657  -1474.9657    -999.2500      62.7164    -999.2500    -999.2500
   1502.0544   1497.1091  -1475.1091    -999.2500      62.7164    -999.2500    -999.2500
   1502.2068   1497.2524  -1475.2524    -999.2500      63.7784    -999.2500    -999.2500
   1502.3591   1497.3956  -1475.3956    -999.2500      64.6274    -999.2500    -999.2500
   1502.5116   1497.5391  -1475.5391    -999.2500      62.0644    -999.2500    -999.2500
   1502.6639   1497.6824  -1475.6824    -999.2500      56.8864    -999.2500    -999.2500
   1502.8164   1497.8258  -1475.8258    -999.2500      54.9334    -999.2500    -999.2500
   1502.9688   1497.9691  -1475.9691    -999.2500      54.9334    -999.2500    -999.2500
   1503.1212   1498.1125  -1476.1125    -999.2500      56.5914    -999.2500    -999.2500
   1503.2736   1498.2559  -1476.2559    -999.2500      56.5914    -999.2500    -999.2500
   1503.4260   1498.3993  -1476.3993    -999.2500      58.6274    -999.2500    -999.2500
   1503.5784   1498.5426  -1476.5426    -999.2500      66.0144    -999.2500    -999.2500
   1503.7308   1498.6860  -1476.6860    -999.2500      71.3604    -999.2500    -999.2500
   1503.8832   1498.8293  -1476.8293    -999.2500      71.3604    -999.2500    -999.2500
   1504.0356   1498.9728  -1476.9728    -999.2500      71.3604    -999.2500    -999.2500
   1504.1880   1499.1161  -1477.1161    -999.2500      71.3604    -999.2500    -999.2500
   1504.3403   1499.2594  -1477.2594    -999.2500      71.3604    -999.2500    -999.2500
   1504.4928   1499.4028  -1477.4028    -999.2500      61.5144    -999.2500    -999.2500
   1504.6451   1499.5460  -1477.5460    -999.2500      51.6674    -999.2500    -999.2500
   1504.7976   1499.6895  -1477.6895    -999.2500      52.7824    -999.2500    -999.2500
   1504.9500   1499.8328  -1477.8328    -999.2500      57.4234    -999.2500    -999.2500
   1505.1024   1499.9762  -1477.9762    -999.2500      61.5144    -999.2500    -999.2500
   1505.2548   1500.1195  -1478.1195    -999.2500      61.5144    -999.2500    -999.2500
   1505.4072   1500.2629  -1478.2629    -999.2500      53.4774    -999.2500    -999.2500
   1505.5596   1500.4062  -1478.4062    -999.2500      55.2294    -999.2500    -999.2500
   1505.7120   1500.5497  -1478.5497    -999.2500      65.2174    -999.2500    -999.2500
