#------------------------------------------------------------------------------
#
#   Created by  : [OpenWorks] Log Export Utility (LEXP)
#   Created on  : 2008-05-07 10:33:00
#   Project     : NORNE
#   User        : TRAL
#   Interpreter : TRAL
#
#------------------------------------------------------------------------------
~VERSION INFORMATION
VERS. 2.0 : CWLS Log ASCII Standard - version 2.0
WRAP.  NO : One line per depth step
~WELL INFORMATION
#MNEMONIC   .UNIT                                           VALUE :DESCRIPTION
#------------------------------------------------------------------------------
STRT        .M                                             0.1522 :START DEPTH
STOP        .M                                          4349.9531 :STOP DEPTH
STEP        .M                                             0.1524 :STEP
NULL        .                                           -999.2500 :NULL VALUE
COMP        .                                             STATOIL :COMPANY
WELL        .                                       6608/10-E-1 H :WELL
FLD         .                                               NORNE :FIELD
LOC         .                                             UNKNOWN :LOCATION
CNTY        .                                             UNKNOWN :COUNTY
STAT        .                                             UNKNOWN :STATE
CTRY        .                                              Norway :COUNTRY
SRVC        .                                             UNKNOWN :SERVICE COMPANY
DATE        .                                             UNKNOWN :LOG DATE
UWI         .                                    NO 6608/10-E-1 H :UNIQUE WELL ID
XCOORD      .                                       459204.301905 :SURFACE X
YCOORD      .                                      7325445.854798 :SURFACE Y
LAT         .                                           66.045371 :LATITUDE
LON         .                                            8.099572 :LONGITUDE
ELEV        .M                                            24.0000 :SURFACE ELEV
ELEV_TYPE   .                                                  KB :ELEV TYPE
~CURVE INFORMATION
#MNEMONIC.UNIT        API CODE       : CURVE DESCRIPTION
#------------------------------------------------------------------------------
DEPTH    .M                          : Measured Depth
TVD      .M                          : True Vertical Depth (TVD)
TVDSS    .M                          : True Vertical Depth (TVDSS)
DT-SYNT  .UNKNOWN     UNKNOWN        : DT-SYNT:PETROWORKS:rC:NONE:v1 
GR       .API         UNKNOWN        : GR:UNKNOWN:rC:NONE:v1 
PHIF     .v/v_decimal UNKNOWN        : PHIF:UNKNOWN:rC:NONE:v1 
RHOB     .g/cm3       UNKNOWN        : RHOB:UNKNOWN:rC:NONE:v1 
~A     DEPTH         TVD       TVDSS      DT-SYNT           GR         PHIF         RHOB
# ...
   3305.7083   2626.5193  -2602.5193    -999.2500     147.5600       0.1094       2.4600
   3305.8606   2626.5288  -2602.5288    -999.2500     144.6100       0.1198       2.4400
   3306.0129   2626.5383  -2602.5383    -999.2500     149.6000       0.1302       2.4200
   3306.1655   2626.5476  -2602.5476    -999.2500     148.7900       0.1146       2.4500
   3306.3179   2626.5571  -2602.5571    -999.2500     137.7300       0.1250       2.4300
   3306.4702   2626.5667  -2602.5667    -999.2500     130.6200       0.1250       2.4300
   3306.6226   2626.5762  -2602.5762    -999.2500     132.6200       0.1250       2.4300
   3306.7749   2626.5857  -2602.5857    -999.2500     130.9600       0.0990       2.4800
   3306.9275   2626.5952  -2602.5952    -999.2500     147.7000       0.1198       2.4400
   3307.0798   2626.6045  -2602.6045    -999.2500     151.0800       0.1406       2.4000
   3307.2322   2626.6140  -2602.6140    -999.2500     139.5900       0.1302       2.4200
   3307.3845   2626.6235  -2602.6235    -999.2500     138.6000       0.1198       2.4400
   3307.5371   2626.6331  -2602.6331    -999.2500     143.3800       0.1250       2.4300
   3307.6895   2626.6426  -2602.6426    -999.2500     145.5400       0.1250       2.4300
   3307.8418   2626.6519  -2602.6519    -999.2500     147.5600       0.1302       2.4200
   3307.9941   2626.6614  -2602.6614    -999.2500     147.5600       0.1198       2.4400
   3308.1467   2626.6709  -2602.6709    -999.2500     123.6400       0.1146       2.4500
   3308.2991   2626.6804  -2602.6804    -999.2500     123.6400       0.1146       2.4500
   3308.4514   2626.6899  -2602.6899    -999.2500     140.5700       0.1146       2.4500
   3308.6038   2626.6995  -2602.6995    -999.2500     145.3200       0.1250       2.4300
   3308.7561   2626.7087  -2602.7087    -999.2500     145.6100       0.1302       2.4200
   3308.9087   2626.7183  -2602.7183    -999.2500     139.5800       0.1302       2.4200
   3309.0610   2626.7278  -2602.7278    -999.2500     131.2300       0.1146       2.4500
   3309.2134   2626.7373  -2602.7373    -999.2500     131.6400       0.1250       2.4300
   3309.3657   2626.7468  -2602.7468    -999.2500     132.5800       0.1042       2.4700
   3309.5183   2626.7563  -2602.7563    -999.2500     125.6400       0.0990       2.4800
   3309.6707   2626.7656  -2602.7656    -999.2500     125.1300       0.0781       2.5200
   3309.8230   2626.7751  -2602.7751    -999.2500     135.8900       0.0677       2.5400
   3309.9753   2626.7847  -2602.7847    -999.2500     140.4100       0.0677       2.5400
   3310.1279   2626.7942  -2602.7942    -999.2500     142.5600       0.0677       2.5400
   3310.2803   2626.8037  -2602.8037    -999.2500     141.0000       0.0521       2.5700
   3310.4326   2626.8132  -2602.8132    -999.2500     139.4300       0.0010       2.7900
   3310.5850   2626.8225  -2602.8225    -999.2500     137.8700       0.0010       3.0100
   3310.7373   2626.8320  -2602.8320    -999.2500     136.3000       0.0010       3.2400
   3310.8899   2626.8416  -2602.8416    -999.2500     134.7400       0.0010       3.4600
   3311.0422   2626.8511  -2602.8511    -999.2500     133.1700       0.0010       3.5200
   3311.1946   2626.8606  -2602.8606    -999.2500     131.6100       0.0010       2.7400
   3311.3469   2626.8699  -2602.8699    -999.2500     131.6100       0.1198       2.4400
   3311.4995   2626.8794  -2602.8794    -999.2500     126.5800       0.1250       2.4300
   3311.6519   2626.8889  -2602.8889    -999.2500     135.3400       0.1198       2.4400
   3311.8042   2626.8984  -2602.8984    -999.2500     145.5900       0.1198       2.4400
   3311.9565   2626.9080  -2602.9080    -999.2500     148.9100       0.1146       2.4500
   3312.1091   2626.9175  -2602.9175    -999.2500     138.8000       0.1250       2.4300
   3312.2615   2626.9268  -2602.9268    -999.2500     133.2400       0.1094       2.4600
   3312.4138   2626.9363  -2602.9363    -999.2500     124.0200       0.1198       2.4400
   3312.5662   2626.9458  -2602.9458    -999.2500     127.6200       0.1354       2.4100
   3312.7185   2626.9553  -2602.9553    -999.2500     121.0700       0.1198       2.4400
   3312.8711   2626.9648  -2602.9648    -999.2500     106.9200       0.1146       2.4500
   3313.0234   2626.9744  -2602.9744    -999.2500     118.6500       0.1094       2.4600
   3313.1758   2626.9836  -2602.9836    -999.2500     123.6500       0.0990       2.4800
   3313.3281   2626.9932  -2602.9932    -999.2500     122.1300       0.0938       2.4900
   3313.4807   2627.0027  -2603.0027    -999.2500     120.1900       0.1042       2.4700
   3313.6331   2627.0122  -2603.0122    -999.2500     123.6000       0.0938       2.4900
   3313.7854   2627.0217  -2603.0217    -999.2500     142.5700       0.0885       2.5000
   3313.9377   2627.0312  -2603.0312    -999.2500     142.5700       0.1042       2.4700
   3314.0903   2627.0405  -2603.0405    -999.2500     140.5800       0.0990       2.4800
   3314.2427   2627.0500  -2603.0500    -999.2500     126.2200       0.1094       2.4600
   3314.3950   2627.0596  -2603.0596    -999.2500     137.3200       0.0990       2.4800
   3314.5474   2627.0691  -2603.0691    -999.2500     131.4700       0.1042       2.4700
   3314.6997   2627.0786  -2603.0786    -999.2500     137.4400       0.1094       2.4600
   3314.8523   2627.0879  -2603.0879    -999.2500     138.4400       0.1094       2.4600
   3315.0046   2627.0974  -2603.0974    -999.2500     143.5500       0.0938       2.4900
   3315.1570   2627.1069  -2603.1069    -999.2500     139.2300       0.1042       2.4700
   3315.3093   2627.1165  -2603.1165    -999.2500     141.6400       0.1042       2.4700
   3315.4619   2627.1260  -2603.1260    -999.2500     135.6900       0.0990       2.4800
   3315.6143   2627.1355  -2603.1355    -999.2500     143.2400       0.1094       2.4600
   3315.7666   2627.1448  -2603.1448    -999.2500     143.6300       0.1042       2.4700
   3315.9189   2627.1543  -2603.1543    -999.2500     146.6100       0.0833       2.5100
   3316.0715   2627.1638  -2603.1638    -999.2500     146.4900       0.1094       2.4600
   3316.2239   2627.1733  -2603.1733    -999.2500     147.5100       0.1042       2.4700
   3316.3762   2627.1829  -2603.1829    -999.2500     148.5300       0.0990       2.4800
   3316.5286   2627.1924  -2603.1924    -999.2500     149.5400       0.1146       2.4500
   3316.6809   2627.2017  -2603.2017    -999.2500     148.5000       0.0990       2.4800
   3316.8335   2627.2112  -2603.2112    -999.2500     139.1300       0.1094       2.4600
   3316.9858   2627.2207  -2603.2207    -999.2500     135.0200       0.0938       2.4900
   3317.1382   2627.2302  -2603.2302    -999.2500     138.2700       0.0833       2.5100
   3317.2905   2627.2397  -2603.2397    -999.2500     138.2000       0.1094       2.4600
   3317.4431   2627.2493  -2603.2493    -999.2500     136.7900       0.1042       2.4700
   3317.5955   2627.2585  -2603.2585    -999.2500     138.9100       0.1042       2.4700
   3317.7478   2627.2681  -2603.2681    -999.2500     134.6200       0.0938       2.4900
   3317.9001   2627.2776  -2603.2776    -999.2500     142.6100       0.0938       2.4900
   3318.0527   2627.2871  -2603.2871    -999.2500     144.6700       0.1250       2.4300
   3318.2051   2627.2966  -2603.2966    -999.2500     143.3500       0.1094       2.4600
   3318.3574   2627.3059  -2603.3059    -999.2500     139.6100       0.1094       2.4600
   3318.5098   2627.3154  -2603.3154    -999.2500     143.9900       0.1094       2.4600
   3318.6621   2627.3250  -2603.3250    -999.2500     139.8200       0.1146       2.4500
   3318.8147   2627.3345  -2603.3345    -999.2500     129.8400       0.1146       2.4500
   3318.9670   2627.3440  -2603.3440    -999.2500     129.8500       0.1198       2.4400
   3319.1194   2627.3535  -2603.3535    -999.2500     134.8400       0.1094       2.4600
   3319.2717   2627.3628  -2603.3628    -999.2500     136.5300       0.1302       2.4200
