#------------------------------------------------------------------------------
#
#   Created by  : [OpenWorks] Log Export Utility (LEXP)
#   Created on  : 2008-05-07 10:33:00
#   Project     : NORNE
#   User        : TRAL
#   Interpreter : TRAL
#
#------------------------------------------------------------------------------
~VERSION INFORMATION
VERS. 2.0 : CWLS Log ASCII Standard - version 2.0
WRAP.  NO : One line per depth step
~WELL INFORMATION
#MNEMONIC   .UNIT                                           VALUE :DESCRIPTION
#------------------------------------------------------------------------------
STRT        .M                                             0.1522 :START DEPTH
STOP        .M                                          4349.9531 :STOP DEPTH
STEP        .M                                             0.1524 :STEP
NULL        .                                           -999.2500 :NULL VALUE
COMP        .                                             STATOIL :COMPANY
WELL        .                                       6608/10-E-1 H :WELL
FLD         .                                               NORNE :FIELD
LOC         .                                             UNKNOWN :LOCATION
CNTY        .                                             UNKNOWN :COUNTY
STAT        .                                             UNKNOWN :STATE
CTRY        .                                              Norway :COUNTRY
SRVC        .                                             UNKNOWN :SERVICE COMPANY
DATE        .                                             UNKNOWN :LOG DATE
UWI         .                                    NO 6608/10-E-1 H :UNIQUE WELL ID
XCOORD      .                                       459204.301905 :SURFACE X
YCOORD      .                                      7325445.854798 :SURFACE Y
LAT         .                                           66.045371 :LATITUDE
LON         .                                            8.099572 :LONGITUDE
ELEV        .M                                            24.0000 :SURFACE ELEV
ELEV_TYPE   .                                                  KB :ELEV TYPE
~CURVE INFORMATION
#MNEMONIC.UNIT        API CODE       : CURVE DESCRIPTION
#------------------------------------------------------------------------------
DEPTH    .M                          : Measured Depth
TVD      .M                          : True Vertical Depth (TVD)
TVDSS    .M                          : True Vertical Depth (TVDSS)
DT-SYNT  .UNKNOWN     UNKNOWN        : DT-SYNT:PETROWORKS:rC:NONE:v1 
GR       .API         UNKNOWN        : GR:UNKNOWN:rC:NONE:v1 
PHIF     .v/v_decimal UNKNOWN        : PHIF:UNKNOWN:rC:NONE:v1 
RHOB     .g/cm3       UNKNOWN        : RHOB:UNKNOWN:rC:NONE:v1 
~A     DEPTH         TVD       TVDSS      DT-SYNT           GR         PHIF         RHOB
# ...
   3566.3123   2621.7488  -2597.7488      98.3660      63.0300       0.2396       2.2100
   3566.4646   2621.7395  -2597.7395      98.7817      66.3900       0.2448       2.2000
   3566.6169   2621.7302  -2597.7302      97.9504      70.7300       0.2344       2.2200
   3566.7695   2621.7207  -2597.7207      98.3660      66.6800       0.2396       2.2100
   3566.9219   2621.7114  -2597.7114      98.3660      65.1700       0.2396       2.2100
   3567.0742   2621.7021  -2597.7021      97.5347      68.0400       0.2292       2.2300
   3567.2266   2621.6926  -2597.6926      95.8721      63.8900       0.2083       2.2700
   3567.3789   2621.6833  -2597.6833      94.2096      62.9900       0.1875       2.3100
   3567.5315   2621.6741  -2597.6741      94.2096      61.7000       0.1875       2.3100
   3567.6838   2621.6648  -2597.6648      94.6252      71.2800       0.1927       2.3000
   3567.8362   2621.6553  -2597.6553      94.2096      62.3100       0.1875       2.3100
   3567.9885   2621.6460  -2597.6460      96.2878      65.4100       0.2135       2.2600
   3568.1411   2621.6367  -2597.6367      97.5347      66.0500       0.2292       2.2300
   3568.2935   2621.6272  -2597.6272     100.0286      56.5600       0.2604       2.1700
   3568.4458   2621.6179  -2597.6179      97.9504      60.1100       0.2344       2.2200
   3568.5981   2621.6086  -2597.6086      98.7817      61.4800       0.2448       2.2000
   3568.7507   2621.5994  -2597.5994      98.7817      60.5300       0.2448       2.2000
   3568.9031   2621.5898  -2597.5898      99.1973      60.9700       0.2500       2.1900
   3569.0554   2621.5806  -2597.5806      99.1973      66.7600       0.2500       2.1900
   3569.2078   2621.5713  -2597.5713      99.6130      60.4700       0.2552       2.1800
   3569.3601   2621.5620  -2597.5620      99.6130      61.4300       0.2552       2.1800
   3569.5127   2621.5525  -2597.5525      99.6130      69.6900       0.2552       2.1800
   3569.6650   2621.5432  -2597.5432      99.1973      75.0800       0.2500       2.1900
   3569.8174   2621.5339  -2597.5339      99.1973      70.7700       0.2500       2.1900
   3569.9697   2621.5244  -2597.5244      98.7817      66.3200       0.2448       2.2000
   3570.1223   2621.5151  -2597.5151      98.7817      75.8800       0.2448       2.2000
   3570.2747   2621.5059  -2597.5059      97.5347      71.5300       0.2292       2.2300
   3570.4270   2621.4966  -2597.4966      97.1191      72.1700       0.2240       2.2400
   3570.5793   2621.4871  -2597.4871      90.8844      71.4100       0.1458       2.3900
   3570.7319   2621.4778  -2597.4778     103.3538      63.7700       0.3021       2.0900
   3570.8843   2621.4685  -2597.4685      95.8721      62.3600       0.2083       2.2700
   3571.0366   2621.4590  -2597.4590      95.0409      61.2700       0.1979       2.2900
   3571.1890   2621.4497  -2597.4497      97.1191      64.4200       0.2240       2.2400
   3571.3413   2621.4404  -2597.4404      98.7817      65.7700       0.2448       2.2000
   3571.4939   2621.4312  -2597.4312      95.8721      60.9100       0.2083       2.2700
   3571.6462   2621.4216  -2597.4216      96.2878      61.5700       0.2135       2.2600
   3571.7986   2621.4124  -2597.4124      92.1313      60.5100       0.1615       2.3600
   3571.9509   2621.4031  -2597.4031      88.3905      63.1800       0.1146       2.4500
   3572.1035   2621.3936  -2597.3936      92.5470      61.3200       0.1667       2.3500
   3572.2559   2621.3843  -2597.3843      96.2878      57.2800       0.2135       2.2600
   3572.4082   2621.3750  -2597.3750      96.2878      57.5800       0.2135       2.2600
   3572.5605   2621.3657  -2597.3657      98.3660      57.8400       0.2396       2.2100
   3572.7131   2621.3562  -2597.3562      97.1191      58.6200       0.2240       2.2400
   3572.8655   2621.3469  -2597.3469      89.2218      59.5500       0.1250       2.4300
   3573.0178   2621.3376  -2597.3376      96.7034      59.3300       0.2188       2.2500
   3573.1702   2621.3284  -2597.3284      95.4565      58.8200       0.2031       2.2800
   3573.3225   2621.3188  -2597.3188      97.5347      58.8400       0.2292       2.2300
   3573.4751   2621.3096  -2597.3096      98.7817      61.2000       0.2448       2.2000
   3573.6274   2621.3003  -2597.3003      97.5347      60.6900       0.2292       2.2300
   3573.7798   2621.2908  -2597.2908      94.2096      57.9100       0.1875       2.3100
   3573.9321   2621.2815  -2597.2815      98.3660      64.5600       0.2396       2.2100
   3574.0847   2621.2722  -2597.2722      97.9504      68.9700       0.2344       2.2200
   3574.2371   2621.2629  -2597.2629      96.2878      62.2200       0.2135       2.2600
   3574.3894   2621.2534  -2597.2534      95.8721      65.4500       0.2083       2.2700
   3574.5417   2621.2441  -2597.2441      90.8844      71.8000       0.1458       2.3900
   3574.6943   2621.2349  -2597.2349      90.8844      72.7900       0.1458       2.3900
   3574.8467   2621.2253  -2597.2253      96.7034      61.7900       0.2188       2.2500
   3574.9990   2621.2161  -2597.2161      94.6252      62.4200       0.1927       2.3000
   3575.1514   2621.2068  -2597.2068      93.3783      62.8200       0.1771       2.3300
   3575.3037   2621.1975  -2597.1975      92.9626      63.9000       0.1719       2.3400
   3575.4563   2621.1880  -2597.1880      97.5347      64.9800       0.2292       2.2300
   3575.6086   2621.1787  -2597.1787     101.6912      66.0500       0.2812       2.1300
   3575.7610   2621.1694  -2597.1694      99.6130      67.1300       0.2552       2.1800
   3575.9133   2621.1602  -2597.1602      98.3660      65.9500       0.2396       2.2100
   3576.0659   2621.1506  -2597.1506      97.9504      66.1000       0.2344       2.2200
   3576.2183   2621.1414  -2597.1414      97.1191      62.9100       0.2240       2.2400
   3576.3706   2621.1321  -2597.1321      97.1191      68.3900       0.2240       2.2400
   3576.5229   2621.1226  -2597.1226      97.9504      63.7900       0.2344       2.2200
   3576.6755   2621.1133  -2597.1133      94.6252      66.9500       0.1927       2.3000
   3576.8279   2621.1040  -2597.1040      93.7939      60.7300       0.1823       2.3200
   3576.9802   2621.0947  -2597.0947      93.7939      59.4900       0.1823       2.3200
   3577.1326   2621.0852  -2597.0852      92.9626      59.2800       0.1719       2.3400
   3577.2849   2621.0759  -2597.0759      94.6252      58.8300       0.1927       2.3000
   3577.4375   2621.0667  -2597.0667      98.7817      57.9900       0.2448       2.2000
   3577.5898   2621.0571  -2597.0571      97.9504      54.8900       0.2344       2.2200
   3577.7422   2621.0479  -2597.0479      97.5347      53.8300       0.2292       2.2300
   3577.8945   2621.0386  -2597.0386      98.3660      52.4700       0.2396       2.2100
   3578.0471   2621.0293  -2597.0293      97.1191      51.1100       0.2240       2.2400
   3578.1995   2621.0198  -2597.0198      94.2096      52.5800       0.1875       2.3100
   3578.3518   2621.0105  -2597.0105      93.3783      54.6500       0.1771       2.3300
   3578.5042   2621.0012  -2597.0012      95.0409      55.1300       0.1979       2.2900
   3578.6567   2620.9917  -2596.9917      96.2878      56.7800       0.2135       2.2600
   3578.8091   2620.9824  -2596.9824      97.9504      60.0000       0.2344       2.2200
   3578.9614   2620.9731  -2596.9731      97.9504      57.9300       0.2344       2.2200
   3579.1138   2620.9639  -2596.9639      99.6130      59.8200       0.2552       2.1800
   3579.2661   2620.9543  -2596.9543      96.7034      62.9800       0.2188       2.2500
   3579.4187   2620.9451  -2596.9451      96.7034      62.2700       0.2188       2.2500
   3579.5710   2620.9358  -2596.9358      97.1191      60.1600       0.2240       2.2400
   3579.7234   2620.9265  -2596.9265      98.3660      62.3400       0.2396       2.2100
   3579.8757   2620.9170  -2596.9170      98.7817      62.8200       0.2448       2.2000
