#------------------------------------------------------------------------------
#
#   Created by  : [OpenWorks] Log Export Utility (LEXP)
#   Created on  : 2008-05-07 10:33:00
#   Project     : NORNE
#   User        : TRAL
#   Interpreter : TRAL
#
#------------------------------------------------------------------------------
~VERSION INFORMATION
VERS. 2.0 : CWLS Log ASCII Standard - version 2.0
WRAP.  NO : One line per depth step
~WELL INFORMATION
#MNEMONIC   .UNIT                                           VALUE :DESCRIPTION
#------------------------------------------------------------------------------
STRT        .M                                             0.1522 :START DEPTH
STOP        .M                                          4349.9531 :STOP DEPTH
STEP        .M                                             0.1524 :STEP
NULL        .                                           -999.2500 :NULL VALUE
COMP        .                                             STATOIL :COMPANY
WELL        .                                       6608/10-E-1 H :WELL
FLD         .                                               NORNE :FIELD
LOC         .                                             UNKNOWN :LOCATION
CNTY        .                                             UNKNOWN :COUNTY
STAT        .                                             UNKNOWN :STATE
CTRY        .                                              Norway :COUNTRY
SRVC        .                                             UNKNOWN :SERVICE COMPANY
DATE        .                                             UNKNOWN :LOG DATE
UWI         .                                    NO 6608/10-E-1 H :UNIQUE WELL ID
XCOORD      .                                       459204.301905 :SURFACE X
YCOORD      .                                      7325445.854798 :SURFACE Y
LAT         .                                           66.045371 :LATITUDE
LON         .                                            8.099572 :LONGITUDE
ELEV        .M                                            24.0000 :SURFACE ELEV
ELEV_TYPE   .                                                  KB :ELEV TYPE
~CURVE INFORMATION
#MNEMONIC.UNIT        API CODE       : CURVE DESCRIPTION
#------------------------------------------------------------------------------
DEPTH    .M                          : Measured Depth
TVD      .M                          : True Vertical Depth (TVD)
TVDSS    .M                          : True Vertical Depth (TVDSS)
DT-SYNT  .UNKNOWN     UNKNOWN        : DT-SYNT:PETROWORKS:rC:NONE:v1 
GR       .API         UNKNOWN        : GR:UNKNOWN:rC:NONE:v1 
PHIF     .v/v_decimal UNKNOWN        : PHIF:UNKNOWN:rC:NONE:v1 
RHOB     .g/cm3       UNKNOWN        : RHOB:UNKNOWN:rC:NONE:v1 
~A     DEPTH         TVD       TVDSS      DT-SYNT           GR         PHIF         RHOB
# ...
    466.4962    466.4960   -442.4960    -999.2500      26.7700    -999.2500    -999.2500
    466.6486    466.6484   -442.6484    -999.2500      26.7700    -999.2500    -999.2500
    466.8010    466.8008   -442.8008    -999.2500      18.3200    -999.2500    -999.2500
    466.9534    466.9532   -442.9532    -999.2500      18.3200    -999.2500    -999.2500
    467.1058    467.1056   -443.1056    -999.2500      33.8100    -999.2500    -999.2500
    467.2582    467.2580   -443.2580    -999.2500      33.8100    -999.2500    -999.2500
    467.4106    467.4104   -443.4104    -999.2500      42.3200    -999.2500    -999.2500
    467.5630    467.5628   -443.5628    -999.2500      42.3200    -999.2500    -999.2500
    467.7154    467.7152   -443.7152    -999.2500      23.9800    -999.2500    -999.2500
    467.8678    467.8676   -443.8676    -999.2500      34.1800    -999.2500    -999.2500
    468.0202    468.0201   -444.0201    -999.2500      43.7000    -999.2500    -999.2500
    468.1726    468.1724   -444.1724    -999.2500      28.1700    -999.2500    -999.2500
    468.3250    468.3248   -444.3248    -999.2500      28.1700    -999.2500    -999.2500
    468.4774    468.4772   -444.4772    -999.2500      31.0600    -999.2500    -999.2500
    468.6298    468.6296   -444.6296    -999.2500      31.0600    -999.2500    -999.2500
    468.7822    468.7820   -444.7820    -999.2500      32.4200    -999.2500    -999.2500
    468.9346    468.9344   -444.9344    -999.2500      32.4200    -999.2500    -999.2500
    469.0870    469.0868   -445.0868    -999.2500      31.0700    -999.2500    -999.2500
    469.2394    469.2392   -445.2392    -999.2500      23.5100    -999.2500    -999.2500
    469.3918    469.3916   -445.3916    -999.2500      21.1900    -999.2500    -999.2500
    469.5442    469.5440   -445.5440    -999.2500      28.6800    -999.2500    -999.2500
    469.6966    469.6964   -445.6964    -999.2500      27.1300    -999.2500    -999.2500
    469.8490    469.8488   -445.8488    -999.2500      36.7500    -999.2500    -999.2500
    470.0014    470.0012   -446.0012    -999.2500      46.3700    -999.2500    -999.2500
    470.1538    470.1536   -446.1536    -999.2500      66.0700    -999.2500    -999.2500
    470.3062    470.3060   -446.3060    -999.2500      75.0700    -999.2500    -999.2500
    470.4586    470.4584   -446.4584    -999.2500      75.0700    -999.2500    -999.2500
    470.6110    470.6108   -446.6108    -999.2500      71.4100    -999.2500    -999.2500
    470.7634    470.7632   -446.7632    -999.2500      67.7500    -999.2500    -999.2500
    470.9158    470.9156   -446.9156    -999.2500      67.7500    -999.2500    -999.2500
    471.0682    471.0680   -447.0680    -999.2500      67.6700    -999.2500    -999.2500
    471.2206    471.2204   -447.2204    -999.2500      67.6700    -999.2500    -999.2500
    471.3730    471.3728   -447.3728    -999.2500      68.1000    -999.2500    -999.2500
    471.5254    471.5252   -447.5252    -999.2500      68.5300    -999.2500    -999.2500
    471.6778    471.6776   -447.6776    -999.2500      68.9500    -999.2500    -999.2500
    471.8302    471.8300   -447.8300    -999.2500      69.3800    -999.2500    -999.2500
    471.9826    471.9824   -447.9824    -999.2500      69.8100    -999.2500    -999.2500
    472.1350    472.1348   -448.1348    -999.2500      70.2400    -999.2500    -999.2500
    472.2874    472.2872   -448.2872    -999.2500      70.6700    -999.2500    -999.2500
    472.4398    472.4396   -448.4396    -999.2500      71.1000    -999.2500    -999.2500
    472.5922    472.5920   -448.5920    -999.2500      71.5300    -999.2500    -999.2500
    472.7446    472.7444   -448.7444    -999.2500      71.9500    -999.2500    -999.2500
    472.8970    472.8968   -448.8968    -999.2500      72.3800    -999.2500    -999.2500
    473.0494    473.0492   -449.0492    -999.2500      72.8100    -999.2500    -999.2500
    473.2018    473.2016   -449.2016    -999.2500      73.2400    -999.2500    -999.2500
    473.3542    473.3540   -449.3540    -999.2500      73.2400    -999.2500    -999.2500
    473.5066    473.5064   -449.5064    -999.2500      82.4400    -999.2500    -999.2500
    473.6590    473.6588   -449.6588    -999.2500      91.6500    -999.2500    -999.2500
    473.8114    473.8112   -449.8112    -999.2500      91.6500    -999.2500    -999.2500
    473.9638    473.9636   -449.9636    -999.2500      81.0700    -999.2500    -999.2500
    474.1162    474.1160   -450.1160    -999.2500      70.4900    -999.2500    -999.2500
    474.2686    474.2684   -450.2684    -999.2500      70.4900    -999.2500    -999.2500
    474.4210    474.4208   -450.4208    -999.2500      85.2900    -999.2500    -999.2500
    474.5734    474.5732   -450.5732    -999.2500     100.0900    -999.2500    -999.2500
    474.7258    474.7256   -450.7256    -999.2500      82.0800    -999.2500    -999.2500
    474.8782    474.8780   -450.8780    -999.2500      69.1200    -999.2500    -999.2500
    475.0306    475.0304   -451.0304    -999.2500      62.0600    -999.2500    -999.2500
    475.1830    475.1828   -451.1828    -999.2500      62.0600    -999.2500    -999.2500
    475.3354    475.3352   -451.3352    -999.2500      71.2100    -999.2500    -999.2500
    475.4878    475.4876   -451.4876    -999.2500      80.3500    -999.2500    -999.2500
    475.6402    475.6400   -451.6400    -999.2500      80.3500    -999.2500    -999.2500
    475.7926    475.7924   -451.7924    -999.2500      74.0200    -999.2500    -999.2500
    475.9450    475.9448   -451.9448    -999.2500      67.6800    -999.2500    -999.2500
    476.0974    476.0972   -452.0972    -999.2500      67.6800    -999.2500    -999.2500
    476.2498    476.2496   -452.2496    -999.2500      83.1900    -999.2500    -999.2500
    476.4022    476.4020   -452.4020    -999.2500      83.1900    -999.2500    -999.2500
    476.5546    476.5544   -452.5544    -999.2500      85.3000    -999.2500    -999.2500
    476.7070    476.7068   -452.7068    -999.2500      87.4100    -999.2500    -999.2500
    476.8594    476.8592   -452.8592    -999.2500      87.4100    -999.2500    -999.2500
    477.0118    477.0116   -453.0116    -999.2500      87.4600    -999.2500    -999.2500
    477.1642    477.1640   -453.1640    -999.2500      87.4600    -999.2500    -999.2500
    477.3166    477.3164   -453.3164    -999.2500      71.9300    -999.2500    -999.2500
    477.4690    477.4688   -453.4688    -999.2500      56.4000    -999.2500    -999.2500
    477.6214    477.6212   -453.6212    -999.2500      56.4000    -999.2500    -999.2500
    477.7738    477.7736   -453.7736    -999.2500      62.7100    -999.2500    -999.2500
    477.9262    477.9260   -453.9260    -999.2500      69.0200    -999.2500    -999.2500
    478.0786    478.0784   -454.0784    -999.2500      69.0200    -999.2500    -999.2500
    478.2310    478.2308   -454.2308    -999.2500      68.3400    -999.2500    -999.2500
    478.3834    478.3832   -454.3832    -999.2500      67.6500    -999.2500    -999.2500
    478.5358    478.5356   -454.5356    -999.2500      67.6500    -999.2500    -999.2500
    478.6882    478.6880   -454.6880    -999.2500      69.0900    -999.2500    -999.2500
    478.8406    478.8404   -454.8404    -999.2500      70.5200    -999.2500    -999.2500
    478.9930    478.9928   -454.9928    -999.2500      70.5200    -999.2500    -999.2500
    479.1454    479.1452   -455.1452    -999.2500      64.8300    -999.2500    -999.2500
    479.2978    479.2976   -455.2976    -999.2500      64.8300    -999.2500    -999.2500
    479.4502    479.4500   -455.4500    -999.2500      74.7600    -999.2500    -999.2500
    479.6026    479.6024   -455.6024    -999.2500      74.7600    -999.2500    -999.2500
    479.7550    479.7548   -455.7548    -999.2500      76.8500    -999.2500    -999.2500
    479.9074    479.9072   -455.9072    -999.2500      78.9300    -999.2500    -999.2500
    480.0598    480.0596   -456.0596    -999.2500      78.9300    -999.2500    -999.2500
