#------------------------------------------------------------------------------
#
#   Created by  : [OpenWorks] Log Export Utility (LEXP)
#   Created on  : 2008-05-07 10:33:00
#   Project     : NORNE
#   User        : TRAL
#   Interpreter : TRAL
#
#------------------------------------------------------------------------------
~VERSION INFORMATION
VERS. 2.0 : CWLS Log ASCII Standard - version 2.0
WRAP.  NO : One line per depth step
~WELL INFORMATION
#MNEMONIC   .UNIT                                           VALUE :DESCRIPTION
#------------------------------------------------------------------------------
STRT        .M                                             0.1522 :START DEPTH
STOP        .M                                          4349.9531 :STOP DEPTH
STEP        .M                                             0.1524 :STEP
NULL        .                                           -999.2500 :NULL VALUE
COMP        .                                             STATOIL :COMPANY
WELL        .                                       6608/10-E-1 H :WELL
FLD         .                                               NORNE :FIELD
LOC         .                                             UNKNOWN :LOCATION
CNTY        .                                             UNKNOWN :COUNTY
STAT        .                                             UNKNOWN :STATE
CTRY        .                                              Norway :COUNTRY
SRVC        .                                             UNKNOWN :SERVICE COMPANY
DATE        .                                             UNKNOWN :LOG DATE
UWI         .                                    NO 6608/10-E-1 H :UNIQUE WELL ID
XCOORD      .                                       459204.301905 :SURFACE X
YCOORD      .                                      7325445.854798 :SURFACE Y
LAT         .                                           66.045371 :LATITUDE
LON         .                                            8.099572 :LONGITUDE
ELEV        .M                                            24.0000 :SURFACE ELEV
ELEV_TYPE   .                                                  KB :ELEV TYPE
~CURVE INFORMATION
#MNEMONIC.UNIT        API CODE       : CURVE DESCRIPTION
#------------------------------------------------------------------------------
DEPTH    .M                          : Measured Depth
TVD      .M                          : True Vertical Depth (TVD)
TVDSS    .M                          : True Vertical Depth (TVDSS)
DT-SYNT  .UNKNOWN     UNKNOWN        : DT-SYNT:PETROWORKS:rC:NONE:v1 
GR       .API         UNKNOWN        : GR:UNKNOWN:rC:NONE:v1 
PHIF     .v/v_decimal UNKNOWN        : PHIF:UNKNOWN:rC:NONE:v1 
RHOB     .g/cm3       UNKNOWN        : RHOB:UNKNOWN:rC:NONE:v1 
~A     DEPTH         TVD       TVDSS      DT-SYNT           GR         PHIF         RHOB
# ...
   2277.0083   2131.7566  -2107.7566    -999.2500      96.0100    -999.2500    -999.2500
   2277.1606   2131.8879  -2107.8879    -999.2500      96.0100    -999.2500    -999.2500
   2277.3130   2132.0193  -2108.0193    -999.2500      86.9800    -999.2500    -999.2500
   2277.4653   2132.1506  -2108.1506    -999.2500      86.9800    -999.2500    -999.2500
   2277.6179   2132.2822  -2108.2822    -999.2500      84.8000    -999.2500    -999.2500
   2277.7703   2132.4136  -2108.4136    -999.2500      82.6300    -999.2500    -999.2500
   2277.9226   2132.5449  -2108.5449    -999.2500      83.0600    -999.2500    -999.2500
   2278.0750   2132.6763  -2108.6763    -999.2500      84.0100    -999.2500    -999.2500
   2278.2275   2132.8079  -2108.8079    -999.2500      88.5200    -999.2500    -999.2500
   2278.3799   2132.9392  -2108.9392    -999.2500      88.5200    -999.2500    -999.2500
   2278.5322   2133.0706  -2109.0706    -999.2500      91.5800    -999.2500    -999.2500
   2278.6846   2133.2019  -2109.2019    -999.2500      94.6300    -999.2500    -999.2500
   2278.8369   2133.3333  -2109.3333    -999.2500      94.6300    -999.2500    -999.2500
   2278.9895   2133.4648  -2109.4648    -999.2500     116.0500    -999.2500    -999.2500
   2279.1418   2133.5962  -2109.5962    -999.2500     116.0500    -999.2500    -999.2500
   2279.2942   2133.7275  -2109.7275    -999.2500     106.8500    -999.2500    -999.2500
   2279.4465   2133.8586  -2109.8586    -999.2500      97.6400    -999.2500    -999.2500
   2279.5991   2133.9902  -2109.9902    -999.2500      97.6400    -999.2500    -999.2500
   2279.7515   2134.1216  -2110.1216    -999.2500      74.8400    -999.2500    -999.2500
   2279.9038   2134.2529  -2110.2529    -999.2500      74.8400    -999.2500    -999.2500
   2280.0562   2134.3845  -2110.3845    -999.2500      94.7200    -999.2500    -999.2500
   2280.2087   2134.5161  -2110.5161    -999.2500      88.2900    -999.2500    -999.2500
   2280.3611   2134.6477  -2110.6477    -999.2500      87.1000    -999.2500    -999.2500
   2280.5134   2134.7793  -2110.7793    -999.2500      77.9000    -999.2500    -999.2500
   2280.6658   2134.9109  -2110.9109    -999.2500      78.8900    -999.2500    -999.2500
   2280.8181   2135.0425  -2111.0425    -999.2500      86.9300    -999.2500    -999.2500
   2280.9707   2135.1741  -2111.1741    -999.2500      84.0900    -999.2500    -999.2500
   2281.1230   2135.3057  -2111.3057    -999.2500      84.0900    -999.2500    -999.2500
   2281.2754   2135.4373  -2111.4373    -999.2500      90.1600    -999.2500    -999.2500
   2281.4277   2135.5688  -2111.5688    -999.2500      90.1600    -999.2500    -999.2500
   2281.5803   2135.7004  -2111.7004    -999.2500      91.6200    -999.2500    -999.2500
   2281.7327   2135.8320  -2111.8320    -999.2500      89.6900    -999.2500    -999.2500
   2281.8850   2135.9636  -2111.9636    -999.2500      88.5200    -999.2500    -999.2500
   2282.0374   2136.0952  -2112.0952    -999.2500      94.5900    -999.2500    -999.2500
   2282.1897   2136.2268  -2112.2268    -999.2500      94.5900    -999.2500    -999.2500
   2282.3423   2136.3584  -2112.3584    -999.2500      95.4300    -999.2500    -999.2500
   2282.4946   2136.4900  -2112.4900    -999.2500      96.2600    -999.2500    -999.2500
   2282.6470   2136.6216  -2112.6216    -999.2500      96.2600    -999.2500    -999.2500
   2282.7993   2136.7532  -2112.7532    -999.2500      88.5200    -999.2500    -999.2500
   2282.9519   2136.8850  -2112.8850    -999.2500      71.1700    -999.2500    -999.2500
   2283.1042   2137.0164  -2113.0164    -999.2500      68.1600    -999.2500    -999.2500
   2283.2566   2137.1479  -2113.1479    -999.2500      70.2800    -999.2500    -999.2500
   2283.4089   2137.2795  -2113.2795    -999.2500      83.2200    -999.2500    -999.2500
   2283.5615   2137.4114  -2113.4114    -999.2500      87.9300    -999.2500    -999.2500
   2283.7139   2137.5430  -2113.5430    -999.2500      93.0800    -999.2500    -999.2500
   2283.8662   2137.6743  -2113.6743    -999.2500      95.6900    -999.2500    -999.2500
   2284.0186   2137.8059  -2113.8059    -999.2500      97.5600    -999.2500    -999.2500
   2284.1709   2137.9375  -2113.9375    -999.2500      89.9900    -999.2500    -999.2500
   2284.3235   2138.0693  -2114.0693    -999.2500      89.9900    -999.2500    -999.2500
   2284.4758   2138.2009  -2114.2009    -999.2500     102.5800    -999.2500    -999.2500
   2284.6282   2138.3323  -2114.3323    -999.2500     102.5800    -999.2500    -999.2500
   2284.7805   2138.4639  -2114.4639    -999.2500     102.3300    -999.2500    -999.2500
   2284.9331   2138.5957  -2114.5957    -999.2500     102.3300    -999.2500    -999.2500
   2285.0854   2138.7273  -2114.7273    -999.2500      83.7500    -999.2500    -999.2500
   2285.2378   2138.8589  -2114.8589    -999.2500      83.7500    -999.2500    -999.2500
   2285.3901   2138.9902  -2114.9902    -999.2500      88.4000    -999.2500    -999.2500
   2285.5427   2139.1221  -2115.1221    -999.2500      93.0400    -999.2500    -999.2500
   2285.6951   2139.2537  -2115.2537    -999.2500      93.0400    -999.2500    -999.2500
   2285.8474   2139.3853  -2115.3853    -999.2500      92.3100    -999.2500    -999.2500
   2285.9998   2139.5168  -2115.5168    -999.2500      91.5800    -999.2500    -999.2500
   2286.1521   2139.6482  -2115.6482    -999.2500      85.6300    -999.2500    -999.2500
   2286.3047   2139.7800  -2115.7800    -999.2500      82.5100    -999.2500    -999.2500
   2286.4570   2139.9116  -2115.9116    -999.2500      85.6400    -999.2500    -999.2500
   2286.6094   2140.0432  -2116.0432    -999.2500      86.2700    -999.2500    -999.2500
   2286.7617   2140.1748  -2116.1748    -999.2500      86.9000    -999.2500    -999.2500
   2286.9143   2140.3064  -2116.3064    -999.2500      87.5400    -999.2500    -999.2500
   2287.0667   2140.4380  -2116.4380    -999.2500      84.5900    -999.2500    -999.2500
   2287.2190   2140.5696  -2116.5696    -999.2500      92.3700    -999.2500    -999.2500
   2287.3713   2140.7012  -2116.7012    -999.2500      82.3200    -999.2500    -999.2500
   2287.5239   2140.8328  -2116.8328    -999.2500      91.0000    -999.2500    -999.2500
   2287.6763   2140.9644  -2116.9644    -999.2500      91.9900    -999.2500    -999.2500
   2287.8286   2141.0959  -2117.0959    -999.2500      91.8400    -999.2500    -999.2500
   2287.9810   2141.2275  -2117.2275    -999.2500      97.6300    -999.2500    -999.2500
   2288.1333   2141.3591  -2117.3591    -999.2500     101.4200    -999.2500    -999.2500
   2288.2859   2141.4907  -2117.4907    -999.2500      92.2300    -999.2500    -999.2500
   2288.4382   2141.6223  -2117.6223    -999.2500      93.0800    -999.2500    -999.2500
   2288.5906   2141.7539  -2117.7539    -999.2500      90.4200    -999.2500    -999.2500
   2288.7429   2141.8855  -2117.8855    -999.2500      82.3700    -999.2500    -999.2500
   2288.8955   2142.0173  -2118.0173    -999.2500      91.3400    -999.2500    -999.2500
   2289.0479   2142.1487  -2118.1487    -999.2500     101.5800    -999.2500    -999.2500
   2289.2002   2142.2803  -2118.2803    -999.2500      95.3300    -999.2500    -999.2500
   2289.3525   2142.4119  -2118.4119    -999.2500      94.6300    -999.2500    -999.2500
   2289.5051   2142.5437  -2118.5437    -999.2500      96.7100    -999.2500    -999.2500
   2289.6575   2142.6753  -2118.6753    -999.2500      98.4200    -999.2500    -999.2500
   2289.8098   2142.8066  -2118.8066    -999.2500      87.5400    -999.2500    -999.2500
   2289.9622   2142.9382  -2118.9382    -999.2500      89.1000    -999.2500    -999.2500
   2290.1145   2143.0698  -2119.0698    -999.2500      93.9200    -999.2500    -999.2500
   2290.2671   2143.2014  -2119.2014    -999.2500      88.2600    -999.2500    -999.2500
   2290.4194   2143.3328  -2119.3328    -999.2500      84.8900    -999.2500    -999.2500
   2290.5718   2143.4641  -2119.4641    -999.2500      89.3600    -999.2500    -999.2500
