#------------------------------------------------------------------------------
#
#   Created by  : [OpenWorks] Log Export Utility (LEXP)
#   Created on  : 2008-05-07 10:33:00
#   Project     : NORNE
#   User        : TRAL
#   Interpreter : TRAL
#
#------------------------------------------------------------------------------
~VERSION INFORMATION
VERS. 2.0 : CWLS Log ASCII Standard - version 2.0
WRAP.  NO : One line per depth step
~WELL INFORMATION
#MNEMONIC   .UNIT                                           VALUE :DESCRIPTION
#------------------------------------------------------------------------------
STRT        .M                                             0.1522 :START DEPTH
STOP        .M                                          4349.9531 :STOP DEPTH
STEP        .M                                             0.1524 :STEP
NULL        .                                           -999.2500 :NULL VALUE
COMP        .                                             STATOIL :COMPANY
WELL        .                                       6608/10-E-1 H :WELL
FLD         .                                               NORNE :FIELD
LOC         .                                             UNKNOWN :LOCATION
CNTY        .                                             UNKNOWN :COUNTY
STAT        .                                             UNKNOWN :STATE
CTRY        .                                              Norway :COUNTRY
SRVC        .                                             UNKNOWN :SERVICE COMPANY
DATE        .                                             UNKNOWN :LOG DATE
UWI         .                                    NO 6608/10-E-1 H :UNIQUE WELL ID
XCOORD      .                                       459204.301905 :SURFACE X
YCOORD      .                                      7325445.854798 :SURFACE Y
LAT         .                                           66.045371 :LATITUDE
LON         .                                            8.099572 :LONGITUDE
ELEV        .M                                            24.0000 :SURFACE ELEV
ELEV_TYPE   .                                                  KB :ELEV TYPE
~CURVE INFORMATION
#MNEMONIC.UNIT        API CODE       : CURVE DESCRIPTION
#------------------------------------------------------------------------------
DEPTH    .M                          : Measured Depth
TVD      .M                          : True Vertical Depth (TVD)
TVDSS    .M                          : True Vertical Depth (TVDSS)
DT-SYNT  .UNKNOWN     UNKNOWN        : DT-SYNT:PETROWORKS:rC:NONE:v1 
GR       .API         UNKNOWN        : GR:UNKNOWN:rC:NONE:v1 
PHIF     .v/v_decimal UNKNOWN        : PHIF:UNKNOWN:rC:NONE:v1 
RHOB     .g/cm3       UNKNOWN        : RHOB:UNKNOWN:rC:NONE:v1 
~A     DEPTH         TVD       TVDSS      DT-SYNT           GR         PHIF         RHOB
# ...
   3045.1042   2587.1157  -2563.1157    -999.2500     121.2200    -999.2500    -999.2500
   3045.2566   2587.1445  -2563.1445    -999.2500     105.6700    -999.2500    -999.2500
   3045.4089   2587.1736  -2563.1736    -999.2500      99.7300    -999.2500    -999.2500
   3045.5615   2587.2024  -2563.2024    -999.2500     101.2000    -999.2500    -999.2500
   3045.7139   2587.2314  -2563.2314    -999.2500     111.6000    -999.2500    -999.2500
   3045.8662   2587.2603  -2563.2603    -999.2500     107.4800    -999.2500    -999.2500
   3046.0186   2587.2893  -2563.2893    -999.2500     105.3500    -999.2500    -999.2500
   3046.1709   2587.3181  -2563.3181    -999.2500     103.3600    -999.2500    -999.2500
   3046.3235   2587.3472  -2563.3472    -999.2500     103.8000    -999.2500    -999.2500
   3046.4758   2587.3760  -2563.3760    -999.2500      94.4100    -999.2500    -999.2500
   3046.6282   2587.4050  -2563.4050    -999.2500      87.5500    -999.2500    -999.2500
   3046.7805   2587.4338  -2563.4338    -999.2500      91.6600    -999.2500    -999.2500
   3046.9331   2587.4629  -2563.4629    -999.2500      85.8800    -999.2500    -999.2500
   3047.0854   2587.4917  -2563.4917    -999.2500      82.7800    -999.2500    -999.2500
   3047.2378   2587.5205  -2563.5205    -999.2500      92.8200    -999.2500    -999.2500
   3047.3901   2587.5496  -2563.5496    -999.2500      96.5600    -999.2500    -999.2500
   3047.5427   2587.5784  -2563.5784    -999.2500      95.8000    -999.2500    -999.2500
   3047.6951   2587.6074  -2563.6074    -999.2500     100.5100    -999.2500    -999.2500
   3047.8474   2587.6362  -2563.6362    -999.2500     107.7000    -999.2500    -999.2500
   3047.9998   2587.6653  -2563.6653    -999.2500     116.0500    -999.2500    -999.2500
   3048.1521   2587.6941  -2563.6941    -999.2500     108.0500    -999.2500    -999.2500
   3048.3047   2587.7231  -2563.7231    -999.2500     100.9900    -999.2500    -999.2500
   3048.4570   2587.7520  -2563.7520    -999.2500     117.1600    -999.2500    -999.2500
   3048.6094   2587.7810  -2563.7810    -999.2500     133.5500    -999.2500    -999.2500
   3048.7617   2587.8098  -2563.8098    -999.2500     125.5600    -999.2500    -999.2500
   3048.9143   2587.8389  -2563.8389    -999.2500     135.9400    -999.2500    -999.2500
   3049.0667   2587.8677  -2563.8677    -999.2500     123.0900    -999.2500    -999.2500
   3049.2190   2587.8965  -2563.8965    -999.2500     125.4500    -999.2500    -999.2500
   3049.3713   2587.9255  -2563.9255    -999.2500     130.3900    -999.2500    -999.2500
   3049.5239   2587.9543  -2563.9543    -999.2500     127.7800    -999.2500    -999.2500
   3049.6763   2587.9834  -2563.9834    -999.2500     113.9300    -999.2500    -999.2500
   3049.8286   2588.0122  -2564.0122    -999.2500     116.4000    -999.2500    -999.2500
   3049.9810   2588.0413  -2564.0413    -999.2500     123.3200    -999.2500    -999.2500
   3050.1333   2588.0701  -2564.0701    -999.2500     122.8200    -999.2500    -999.2500
   3050.2859   2588.0991  -2564.0991    -999.2500     134.2200    -999.2500    -999.2500
   3050.4382   2588.1279  -2564.1279    -999.2500     140.1600    -999.2500    -999.2500
   3050.5906   2588.1570  -2564.1570    -999.2500     134.4100    -999.2500    -999.2500
   3050.7429   2588.1858  -2564.1858    -999.2500     134.6000    -999.2500    -999.2500
   3050.8955   2588.2148  -2564.2148    -999.2500     132.3600    -999.2500    -999.2500
   3051.0479   2588.2437  -2564.2437    -999.2500     125.3100    -999.2500    -999.2500
   3051.2002   2588.2725  -2564.2725    -999.2500     132.7200    -999.2500    -999.2500
   3051.3525   2588.3015  -2564.3015    -999.2500     120.9000    -999.2500    -999.2500
   3051.5051   2588.3303  -2564.3303    -999.2500     123.3900    -999.2500    -999.2500
   3051.6575   2588.3594  -2564.3594    -999.2500     125.5400    -999.2500    -999.2500
   3051.8098   2588.3882  -2564.3882    -999.2500     108.7400    -999.2500    -999.2500
   3051.9622   2588.4172  -2564.4172    -999.2500     119.5300    -999.2500    -999.2500
   3052.1145   2588.4460  -2564.4460    -999.2500     120.1500    -999.2500    -999.2500
   3052.2671   2588.4751  -2564.4751    -999.2500     141.4000    -999.2500    -999.2500
   3052.4194   2588.5039  -2564.5039    -999.2500     139.1800    -999.2500    -999.2500
   3052.5718   2588.5330  -2564.5330    -999.2500     127.4300    -999.2500    -999.2500
   3052.7241   2588.5618  -2564.5618    -999.2500     121.4400    -999.2500    -999.2500
   3052.8767   2588.5908  -2564.5908    -999.2500     122.5400    -999.2500    -999.2500
   3053.0291   2588.6196  -2564.6196    -999.2500     133.9400    -999.2500    -999.2500
   3053.1814   2588.6484  -2564.6484    -999.2500     142.7000    -999.2500    -999.2500
   3053.3337   2588.6775  -2564.6775    -999.2500     141.5400    -999.2500    -999.2500
   3053.4863   2588.7063  -2564.7063    -999.2500     136.2600    -999.2500    -999.2500
   3053.6387   2588.7354  -2564.7354    -999.2500     134.5800    -999.2500    -999.2500
   3053.7910   2588.7642  -2564.7642    -999.2500     134.4400    -999.2500    -999.2500
   3053.9434   2588.7932  -2564.7932    -999.2500     129.3900    -999.2500    -999.2500
   3054.0957   2588.8220  -2564.8220    -999.2500     143.4500    -999.2500    -999.2500
   3054.2483   2588.8511  -2564.8511    -999.2500     135.8300    -999.2500    -999.2500
   3054.4006   2588.8799  -2564.8799    -999.2500     140.4000    -999.2500    -999.2500
   3054.5530   2588.9089  -2564.9089    -999.2500     127.2600    -999.2500    -999.2500
   3054.7053   2588.9377  -2564.9377    -999.2500     138.7100    -999.2500    -999.2500
   3054.8579   2588.9668  -2564.9668    -999.2500     139.5500    -999.2500    -999.2500
   3055.0103   2588.9956  -2564.9956    -999.2500     137.6000    -999.2500    -999.2500
   3055.1626   2589.0244  -2565.0244    -999.2500     139.2000    -999.2500    -999.2500
   3055.3149   2589.0535  -2565.0535    -999.2500     141.6200    -999.2500    -999.2500
   3055.4675   2589.0823  -2565.0823    -999.2500     146.2600    -999.2500    -999.2500
   3055.6199   2589.1113  -2565.1113    -999.2500     140.2500    -999.2500    -999.2500
   3055.7722   2589.1401  -2565.1401    -999.2500     143.2500    -999.2500    -999.2500
   3055.9246   2589.1692  -2565.1692    -999.2500     138.1600    -999.2500    -999.2500
   3056.0769   2589.1980  -2565.1980    -999.2500     137.1700    -999.2500    -999.2500
   3056.2295   2589.2271  -2565.2271    -999.2500     137.6100    -999.2500    -999.2500
   3056.3818   2589.2559  -2565.2559    -999.2500     134.4600    -999.2500    -999.2500
   3056.5342   2589.2849  -2565.2849    -999.2500     126.6800    -999.2500    -999.2500
   3056.6865   2589.3137  -2565.3137    -999.2500     127.1300    -999.2500    -999.2500
   3056.8391   2589.3428  -2565.3428    -999.2500     138.8800    -999.2500    -999.2500
   3056.9915   2589.3716  -2565.3716    -999.2500     140.4100    -999.2500    -999.2500
   3057.1438   2589.4004  -2565.4004    -999.2500     133.4000    -999.2500    -999.2500
   3057.2961   2589.4294  -2565.4294    -999.2500     135.9400    -999.2500    -999.2500
   3057.4487   2589.4583  -2565.4583    -999.2500     134.0000    -999.2500    -999.2500
   3057.6011   2589.4873  -2565.4873    -999.2500     132.7900    -999.2500    -999.2500
   3057.7534   2589.5161  -2565.5161    -999.2500     136.4500    -999.2500    -999.2500
   3057.9058   2589.5452  -2565.5452    -999.2500     150.8300    -999.2500    -999.2500
   3058.0581   2589.5740  -2565.5740    -999.2500     144.3000    -999.2500    -999.2500
   3058.2107   2589.6030  -2565.6030    -999.2500     135.6200    -999.2500    -999.2500
   3058.3630   2589.6318  -2565.6318    -999.2500     142.2600    -999.2500    -999.2500
   3058.5154   2589.6609  -2565.6609    -999.2500     138.7400    -999.2500    -999.2500
   3058.6677   2589.6897  -2565.6897    -999.2500     111.3600    -999.2500    -999.2500
