#------------------------------------------------------------------------------
#
#   Created by  : [OpenWorks] Log Export Utility (LEXP)
#   Created on  : 2008-05-07 10:33:46
#   Project     : NORNE
#   User        : TRAL
#   Interpreter : TRAL
#
#------------------------------------------------------------------------------
~VERSION INFORMATION
VERS. 2.0 : CWLS Log ASCII Standard - version 2.0
WRAP.  NO : One line per depth step
~WELL INFORMATION
#MNEMONIC   .UNIT                                           VALUE :DESCRIPTION
#------------------------------------------------------------------------------
STRT        .M                                          1300.1244 :START DEPTH
STOP        .M                                          4299.9658 :STOP DEPTH
STEP        .M                                             0.1524 :STEP
NULL        .                                           -999.2500 :NULL VALUE
COMP        .                                             STATOIL :COMPANY
WELL        .                                       6608/10-B-1 H :WELL
FLD         .                                               NORNE :FIELD
LOC         .                                             UNKNOWN :LOCATION
CNTY        .                                             UNKNOWN :COUNTY
STAT        .                                             UNKNOWN :STATE
CTRY        .                                              Norway :COUNTRY
SRVC        .                                             UNKNOWN :SERVICE COMPANY
DATE        .                                             UNKNOWN :LOG DATE
UWI         .                                    NO 6608/10-B-1 H :UNIQUE WELL ID
XCOORD      .                                       457125.588297 :SURFACE X
YCOORD      .                                      7322128.215510 :SURFACE Y
LAT         .                                           66.015337 :LATITUDE
LON         .                                            8.054802 :LONGITUDE
ELEV        .M                                            22.0000 :SURFACE ELEV
ELEV_TYPE   .                                                  KB :ELEV TYPE
~CURVE INFORMATION
#MNEMONIC.UNIT        API CODE       : CURVE DESCRIPTION
#------------------------------------------------------------------------------
DEPTH    .M                          : Measured Depth
TVD      .M                          : True Vertical Depth (TVD)
TVDSS    .M                          : True Vertical Depth (TVDSS)
DT-SYNT  .UNKNOWN     UNKNOWN        : DT-SYNT:PETROWORKS:rC:NONE:v1 
GR       .API         UNKNOWN        : GR:UNKNOWN:r1:MAIN:v1 
PHIF     .v/v_decimal UNKNOWN        : PHIF:UNKNOWN:r1:MAIN:v1 
RHOB     .g/cm3       UNKNOWN        : RHOB:UNKNOWN:r1:MAIN:v1 
~A     DEPTH         TVD       TVDSS      DT-SYNT           GR         PHIF         RHOB
# ...
   1697.8884   1669.8462  -1647.8462    -999.2500      82.9994    -999.2500    -999.2500
   1698.0408   1669.9686  -1647.9686    -999.2500      88.1344    -999.2500    -999.2500
   1698.1932   1670.0912  -1648.0912    -999.2500      79.0994    -999.2500    -999.2500
   1698.3456   1670.2136  -1648.2136    -999.2500      77.0654    -999.2500    -999.2500
   1698.4980   1670.3362  -1648.3362    -999.2500      63.9714    -999.2500    -999.2500
   1698.6504   1670.4586  -1648.4586    -999.2500      44.1024    -999.2500    -999.2500
   1698.8027   1670.5811  -1648.5811    -999.2500      65.0314    -999.2500    -999.2500
   1698.9552   1670.7036  -1648.7036    -999.2500      68.1734    -999.2500    -999.2500
   1699.1075   1670.8260  -1648.8260    -999.2500      61.5604    -999.2500    -999.2500
   1699.2600   1670.9486  -1648.9486    -999.2500      56.6394    -999.2500    -999.2500
   1699.4124   1671.0712  -1649.0712    -999.2500      62.7974    -999.2500    -999.2500
   1699.5648   1671.1936  -1649.1936    -999.2500      63.8784    -999.2500    -999.2500
   1699.7172   1671.3162  -1649.3162    -999.2500      42.5984    -999.2500    -999.2500
   1699.8696   1671.4387  -1649.4387    -999.2500      39.0594    -999.2500    -999.2500
   1700.0220   1671.5609  -1649.5609    -999.2500      53.6774    -999.2500    -999.2500
   1700.1744   1671.6825  -1649.6825    -999.2500      54.0704    -999.2500    -999.2500
   1700.3268   1671.8038  -1649.8038    -999.2500      61.8584    -999.2500    -999.2500
   1700.4792   1671.9253  -1649.9253    -999.2500      67.1194    -999.2500    -999.2500
   1700.6316   1672.0466  -1650.0466    -999.2500      69.8524    -999.2500    -999.2500
   1700.7839   1672.1681  -1650.1681    -999.2500      63.6754    -999.2500    -999.2500
   1700.9364   1672.2896  -1650.2896    -999.2500      60.4524    -999.2500    -999.2500
   1701.0887   1672.4109  -1650.4109    -999.2500      50.1594    -999.2500    -999.2500
   1701.2412   1672.5323  -1650.5323    -999.2500      50.1594    -999.2500    -999.2500
   1701.3936   1672.6538  -1650.6538    -999.2500      60.3604    -999.2500    -999.2500
   1701.5460   1672.7753  -1650.7753    -999.2500      57.4214    -999.2500    -999.2500
   1701.6984   1672.8966  -1650.8966    -999.2500      43.6194    -999.2500    -999.2500
   1701.8508   1673.0181  -1651.0181    -999.2500      54.0054    -999.2500    -999.2500
   1702.0032   1673.1395  -1651.1395    -999.2500      58.5504    -999.2500    -999.2500
   1702.1556   1673.2610  -1651.2610    -999.2500      53.0914    -999.2500    -999.2500
   1702.3080   1673.3823  -1651.3823    -999.2500      42.1734    -999.2500    -999.2500
   1702.4604   1673.5038  -1651.5038    -999.2500      42.1734    -999.2500    -999.2500
   1702.6128   1673.6251  -1651.6251    -999.2500      41.2464    -999.2500    -999.2500
   1702.7651   1673.7466  -1651.7466    -999.2500      37.4854    -999.2500    -999.2500
   1702.9176   1673.8680  -1651.8680    -999.2500      34.7634    -999.2500    -999.2500
   1703.0699   1673.9894  -1651.9894    -999.2500      34.7634    -999.2500    -999.2500
   1703.2224   1674.1108  -1652.1108    -999.2500      61.7644    -999.2500    -999.2500
   1703.3748   1674.2323  -1652.2323    -999.2500      54.5124    -999.2500    -999.2500
   1703.5272   1674.3538  -1652.3538    -999.2500      36.5394    -999.2500    -999.2500
   1703.6796   1674.4751  -1652.4751    -999.2500      31.2284    -999.2500    -999.2500
   1703.8320   1674.5966  -1652.5966    -999.2500      43.2514    -999.2500    -999.2500
   1703.9844   1674.7180  -1652.7180    -999.2500      58.7054    -999.2500    -999.2500
   1704.1368   1674.8395  -1652.8395    -999.2500      57.7734    -999.2500    -999.2500
   1704.2892   1674.9608  -1652.9608    -999.2500      40.5654    -999.2500    -999.2500
   1704.4417   1675.0823  -1653.0823    -999.2500      45.0744    -999.2500    -999.2500
   1704.5940   1675.2037  -1653.2037    -999.2500      52.1204    -999.2500    -999.2500
   1704.7463   1675.3251  -1653.3251    -999.2500      53.9574    -999.2500    -999.2500
   1704.8988   1675.4465  -1653.4465    -999.2500      54.7924    -999.2500    -999.2500
   1705.0511   1675.5679  -1653.5679    -999.2500      46.2114    -999.2500    -999.2500
   1705.2036   1675.6893  -1653.6893    -999.2500      39.7194    -999.2500    -999.2500
   1705.3560   1675.8108  -1653.8108    -999.2500      40.5784    -999.2500    -999.2500
   1705.5084   1675.9323  -1653.9323    -999.2500      38.8444    -999.2500    -999.2500
   1705.6608   1676.0536  -1654.0536    -999.2500      37.6134    -999.2500    -999.2500
   1705.8132   1676.1750  -1654.1750    -999.2500      38.6684    -999.2500    -999.2500
   1705.9656   1676.2965  -1654.2965    -999.2500      38.7974    -999.2500    -999.2500
   1706.1180   1676.4180  -1654.4180    -999.2500      39.1104    -999.2500    -999.2500
   1706.2704   1676.5393  -1654.5393    -999.2500      38.9594    -999.2500    -999.2500
   1706.4227   1676.6608  -1654.6608    -999.2500      37.5014    -999.2500    -999.2500
   1706.5752   1676.7822  -1654.7822    -999.2500      37.7914    -999.2500    -999.2500
   1706.7275   1676.9036  -1654.9036    -999.2500      40.6004    -999.2500    -999.2500
   1706.8800   1677.0250  -1655.0250    -999.2500      42.4874    -999.2500    -999.2500
   1707.0323   1677.1464  -1655.1464    -999.2500      39.5794    -999.2500    -999.2500
   1707.1848   1677.2679  -1655.2679    -999.2500      49.9544    -999.2500    -999.2500
   1707.3372   1677.3893  -1655.3893    -999.2500      47.3714    -999.2500    -999.2500
   1707.4896   1677.5107  -1655.5107    -999.2500      41.1464    -999.2500    -999.2500
   1707.6420   1677.6321  -1655.6321    -999.2500      46.0714    -999.2500    -999.2500
   1707.7944   1677.7535  -1655.7535    -999.2500      44.1134    -999.2500    -999.2500
   1707.9468   1677.8750  -1655.8750    -999.2500      39.4634    -999.2500    -999.2500
   1708.0992   1677.9965  -1655.9965    -999.2500      50.5324    -999.2500    -999.2500
   1708.2516   1678.1178  -1656.1178    -999.2500      56.1024    -999.2500    -999.2500
   1708.4039   1678.2393  -1656.2393    -999.2500      49.6404    -999.2500    -999.2500
   1708.5564   1678.3607  -1656.3607    -999.2500      47.1974    -999.2500    -999.2500
   1708.7087   1678.4821  -1656.4821    -999.2500      62.2574    -999.2500    -999.2500
   1708.8612   1678.6035  -1656.6035    -999.2500      76.6254    -999.2500    -999.2500
   1709.0135   1678.7250  -1656.7250    -999.2500      78.9644    -999.2500    -999.2500
   1709.1660   1678.8464  -1656.8464    -999.2500      73.0264    -999.2500    -999.2500
   1709.3184   1678.9678  -1656.9678    -999.2500      58.5354    -999.2500    -999.2500
   1709.4708   1679.0892  -1657.0892    -999.2500      53.8614    -999.2500    -999.2500
   1709.6232   1679.2106  -1657.2106    -999.2500      45.3164    -999.2500    -999.2500
   1709.7756   1679.3322  -1657.3322    -999.2500      44.4784    -999.2500    -999.2500
   1709.9280   1679.4535  -1657.4535    -999.2500      40.5944    -999.2500    -999.2500
   1710.0804   1679.5748  -1657.5748    -999.2500      35.9404    -999.2500    -999.2500
   1710.2328   1679.6958  -1657.6958    -999.2500      37.8954    -999.2500    -999.2500
   1710.3851   1679.8169  -1657.8169    -999.2500      35.5904    -999.2500    -999.2500
   1710.5376   1679.9381  -1657.9381    -999.2500      37.1004    -999.2500    -999.2500
   1710.6899   1680.0592  -1658.0592    -999.2500      37.6194    -999.2500    -999.2500
   1710.8424   1680.1803  -1658.1803    -999.2500      32.6434    -999.2500    -999.2500
   1710.9948   1680.3014  -1658.3014    -999.2500      27.6394    -999.2500    -999.2500
   1711.1472   1680.4225  -1658.4225    -999.2500      31.2664    -999.2500    -999.2500
   1711.2996   1680.5436  -1658.5436    -999.2500      47.7604    -999.2500    -999.2500
   1711.4520   1680.6648  -1658.6648    -999.2500      49.5674    -999.2500    -999.2500
